,article_length,country,id,lat,lon,other_years,poptype,settlement_type,state,title,y1790,y1800,y1810,y1820,y1830,y1840,y1850,y1860,y1870,y1880,y1890,y1900,y1910,y1920,y1930,y1940,y1950,y1960,y1970,y1980,y1990,y2000,y2010
255,33406,US,108700,41.2,-73.4333333333,,Census,Town,CT,"Wilton, Connecticut",0,0,0,1818,0,0,2066,2208,1994,1864,1722,1598,1706,1284,2133.0,2829,4558,8026.0,13572.0,15351.0,15989.0,17633.0,18062.0
375,14051,US,108759,41.6719444444,-73.0527777778,,Census,Town,CT,"Plymouth, Connecticut",0,0,0,1758,0,2205,2568,3244,4140,2350,2147,2828,5021,5942,6070.0,6043,6771,8981.0,10321.0,10732.0,11822.0,11634.0,12243.0
457,8238,US,108741,41.7233333333,-73.2405555556,,Census,Borough,CT,"Bantam, Connecticut",0,0,0,0,0,0,0,0,0,0,0,0,0,608,545.0,564,940,833.0,881.0,860.0,757.0,802.0,759.0
470,27422,US,256970,41.5502777778,-72.0875,,Census,City,CT,"Norwich, Connecticut",0,3476,2976,2983,3135,4200,6139,14048,16653,15112,16156,17251,20367,22304,23021.0,23652,23429,38506.0,41739.0,38074.0,37391.0,36117.0,40493.0
635,11403,US,108801,41.3569444444,-72.7680555556,,Census,Town,CT,"North Branford, Connecticut",0,0,0,0,0,0,998,1050,1035,1025,825,814,833,1110,1329.0,1438,2017,6771.0,10778.0,11554.0,12996.0,13906.0,14407.0
691,11311,US,108779,41.27,-72.3572222222,,Census,Borough,CT,"Fenwick, Connecticut",0,0,0,0,0,0,0,0,0,0,0,23,34,13,6.0,0,16,36.0,45.0,41.0,89.0,52.0,43.0
831,8458,US,108877,41.7022222222,-71.8163888889,,Census,Town,CT,"Sterling, Connecticut",0,0,0,1200,0,0,1025,1051,1022,957,1051,1209,1283,1266,1233.0,1251,1298,1397.0,1853.0,1791.0,2357.0,3099.0,3830.0
1194,11312,US,33819742,41.9616666667,-73.3083333333,,Census,Town,CT,"Canaan, Connecticut",0,0,0,2332,0,0,2627,1408,1257,1157,970,820,702,561,565.0,555,708,790.0,931.0,1002.0,1057.0,1081.0,1234.0
1393,30021,US,108792,41.2777777778,-72.7997222222,,Census,Town,CT,"Branford, Connecticut",0,0,0,1180,0,0,1423,2123,2488,3047,4460,5706,6047,6627,7022.0,8060,10944,16610.0,20444.0,23363.0,27603.0,28683.0,28026.0
1398,17908,US,530010,41.3816666667,-72.8583333333,,Census,Town,CT,"North Haven, Connecticut",0,0,0,1298,0,0,1325,1499,1771,1763,1862,2164,2254,1968,3730.0,5326,9444,15935.0,22194.0,22080.0,22247.0,23035.0,24093.0
1417,9344,US,108864,41.8080555556,-71.8841666667,,Census,Borough,CT,"Danielson, Connecticut",0,0,0,0,0,0,0,0,0,0,0,2823,2934,3130,4210.0,4507,4554,4642.0,4580.0,4553.0,4441.0,4265.0,4051.0
1572,53624,US,152159,41.2241666667,-73.0597222222,,Census,City,CT,"Milford, Connecticut",2098,2417,674,2785,2256,2455,2465,2828,3405,3347,3811,3783,4366,10193,12660.0,16439,26870,41662.0,50858.0,50898.0,49938.0,52212.0,52759.0
1667,11926,US,108764,41.6708333333,-73.0825,,Census,Town,CT,"Thomaston, Connecticut",0,0,0,0,0,0,0,0,0,3225,3278,3300,3533,3993,4188.0,4238,4896,5850.0,6233.0,6276.0,6947.0,7503.0,7887.0
1737,11090,US,108870,41.7,-71.9,,Census,Town,CT,"Plainfield, Connecticut",0,0,0,2097,0,2383,2732,3665,4521,4021,4582,4821,6719,7926,8027.0,7613,8071,8884.0,11957.0,12774.0,14363.0,14619.0,15405.0
2285,29161,US,108793,41.5122222222,-72.9036111111,,Census,Town,CT,"Cheshire, Connecticut",0,0,0,2230,0,0,1626,2407,2344,2284,1929,1989,2560,2855,3263.0,4352,6295,13383.0,19051.0,21788.0,25684.0,28543.0,29261.0
2487,23880,US,108844,41.7844444444,-72.3388888889,,Census,Town,CT,"Coventry, Connecticut",2130,2021,1938,2058,0,0,1984,2085,2657,2043,1875,1632,1606,1582,1554.0,2102,4043,6356.0,8140.0,8895.0,10063.0,11504.0,12435.0
2545,41819,US,255850,41.3433333333,-73.0686111111,,Census,City,CT,"Ansonia, Connecticut",0,0,0,0,0,0,0,0,2749,3855,10342,12681,15152,17643,19898.0,19210,18706,19819.0,21160.0,19039.0,18403.0,18554.0,19249.0
2852,18301,US,108798,41.2791666667,-72.5958333333,,Census,Town,CT,"Madison, Connecticut",0,0,0,0,0,0,1837,1865,1814,1672,1429,1518,1534,1857,1918.0,2245,3078,4567.0,9768.0,14031.0,15485.0,17858.0,18269.0
3286,14612,US,108746,41.5258333333,-73.3608333333,,Census,Town,CT,"Bridgewater, Connecticut",0,0,0,0,0,0,815,1048,877,708,617,649,600,481,432.0,537,639,898.0,1277.0,1563.0,1654.0,1824.0,1727.0
3339,19135,US,324124,41.365,-71.9066666667,,Census,Town,CT,"Stonington, Connecticut",0,0,0,3036,0,3898,5753,5827,6313,7355,7184,8540,9154,10236,11025.0,11002,11801,13969.0,15940.0,16220.0,16919.0,17906.0,18545.0
3397,52080,US,314046,41.0938888889,-73.4197222222,,Census,City,CT,"Norwalk, Connecticut",11942,5146,2983,3004,3972,3863,4651,7852,12119,13956,17747,19932,24211,27743,36019.0,39849,49460,67775.0,79288.0,77767.0,78331.0,82951.0,85603.0
3525,16358,US,108701,41.7944444444,-72.8577777778,,Census,Town,CT,"Avon, Connecticut",0,0,0,0,1025,1001,995,1059,987,1057,1182,1302,1337,1534,1738.0,2258,3171,5273.0,8352.0,11201.0,13937.0,15832.0,18098.0
3580,33625,US,108839,41.3497222222,-72.1469444444,,Census,Town,CT,"Waterford, Connecticut",0,0,0,2239,0,0,2259,2555,2482,2701,2661,2904,3097,3935,4742.0,6594,9100,15391.0,17227.0,17843.0,17930.0,19152.0,19517.0
3584,9667,US,108821,41.6038888889,-72.0116666667,,Census,Town,CT,"Lisbon, Connecticut",0,0,0,1159,0,0,938,1262,502,630,548,697,824,867,1097.0,1131,1282,2019.0,2808.0,3279.0,3790.0,4069.0,4338.0
3657,16968,US,108743,41.6391666667,-73.2086111111,,Census,Town,CT,"Bethlehem, Connecticut",0,0,0,932,0,0,0,815,750,655,543,576,550,536,644.0,715,1015,1486.0,1923.0,2573.0,3071.0,3422.0,3607.0
3880,17183,US,108812,41.5666666667,-72.35,,Census,Town,CT,"Colchester, Connecticut",0,0,0,2152,0,0,2468,2862,3383,2974,2988,1991,2140,2050,2134.0,2338,3007,4648.0,6603.0,7761.0,10980.0,14551.0,16068.0
3961,21883,US,108830,41.3166666667,-72.3,,Census,Town,CT,"Old Lyme, Connecticut",0,0,0,0,0,0,0,1304,1362,1387,1319,1180,1181,946,1313.0,1702,2141,3068.0,4964.0,6159.0,6535.0,7406.0,7603.0
4186,26884,US,108796,41.3977777778,-72.9216666667,,Census,Town,CT,"Hamden, Connecticut",0,0,0,1687,0,0,2164,2725,3028,3408,3882,4626,5850,8611,19020.0,23373,29715,41056.0,49357.0,51071.0,52434.0,56913.0,60960.0
4469,18844,US,108825,41.4638888889,-72.1555555556,,Census,Town,CT,"Montville, Connecticut",0,0,0,1951,0,0,1848,2141,2495,2664,2344,2395,2894,3411,3970.0,4135,4766,7759.0,15662.0,16455.0,16673.0,18546.0,19571.0
4684,13086,US,108788,41.3,-72.4666666667,,Census,Town,CT,"Westbrook, Connecticut",0,0,0,0,0,0,1202,1056,987,878,874,884,951,849,1037.0,1159,1549,2399.0,3820.0,5216.0,5414.0,6292.0,6938.0
4706,18565,US,108806,41.4563888889,-72.8041666667,,Census,Town,CT,"Wallingford, Connecticut",0,0,0,2237,0,0,2595,3206,3676,4686,6584,9001,11155,12010,14278.0,14788,16976,29920.0,35714.0,37274.0,40822.0,43026.0,45135.0
5090,53889,US,108693,41.0388888889,-73.6136111111,,Census,Town,CT,"Greenwich, Connecticut",0,3047,3533,3790,3801,3921,5036,6522,7644,7892,10131,12172,16463,22123,33112.0,35509,40835,53793.0,59755.0,59578.0,58441.0,61101.0,61171.0
5473,17980,US,108761,41.985,-73.4222222222,,Census,Town,CT,"Salisbury, Connecticut",0,0,0,2695,0,0,3103,3100,3303,3715,3420,3489,3522,2497,2767.0,3030,3132,3309.0,3573.0,3896.0,4090.0,3977.0,3741.0
6135,8799,US,108718,42.005,-72.9480555556,,Census,Town,CT,"Hartland, Connecticut",0,1318,1284,1254,1221,1060,848,846,789,643,565,592,544,448,296.0,300,549,1040.0,1303.0,1416.0,1866.0,2012.0,2114.0
6175,16809,US,108808,41.6011111111,-72.975,,Census,Town,CT,"Wolcott, Connecticut",0,948,0,943,0,0,603,574,493,522,522,581,563,719,972.0,1765,3553,8889.0,12495.0,13008.0,13700.0,15215.0,16680.0
6199,34090,US,256936,41.7141666667,-72.6525,,Census,Town,CT,"Wethersfield, Connecticut",0,0,0,3825,0,3824,2523,2705,2693,2173,2271,2637,3148,4342,7512.0,9644,12533,20561.0,26662.0,26013.0,25651.0,26271.0,26668.0
6226,9502,US,108815,41.6197222222,-72.1425,,Census,Town,CT,"Franklin, Connecticut",0,0,0,1161,0,0,895,2358,731,686,585,546,527,552,611.0,667,727,974.0,1356.0,1592.0,1810.0,1835.0,1922.0
6477,55725,US,256928,41.1233333333,-73.3469444444,,Census,Town,CT,"Westport, Connecticut",0,0,0,0,0,1803,2651,3293,3361,3477,3715,4017,4259,5114,6073.0,8258,11667,20955.0,27318.0,25290.0,24410.0,25749.0,26391.0
6700,13890,US,108823,41.4,-72.35,,Census,Town,CT,"Lyme, Connecticut",0,0,0,4069,0,0,2668,1246,1181,1025,977,750,746,674,546.0,717,857,1183.0,1484.0,1822.0,1949.0,2016.0,2406.0
6983,27233,US,108721,41.7752777778,-72.5241666667,,Census,Town,CT,"Manchester, Connecticut",0,0,0,0,0,0,2546,3294,4223,6462,8222,10601,13641,18370,21973.0,23799,34116,42102.0,47994.0,49761.0,51618.0,54740.0,58241.0
7001,49048,US,108697,41.3044444444,-73.3927777778,,Census,Town,CT,"Redding, Connecticut",1503,1632,1717,1678,1686,1674,1754,1652,1624,1540,1546,1426,1617,1315,1599.0,1758,2037,3359.0,5590.0,7272.0,7927.0,8270.0,9158.0
7140,16533,US,108820,41.4397222222,-72.015,,Census,Town,CT,"Ledyard, Connecticut",0,0,0,0,0,1871,1558,1615,1392,1373,1183,1236,1079,1161,1144.0,1426,1749,5395.0,14837.0,13735.0,14913.0,14687.0,15051.0
7439,16417,US,108755,41.9836111111,-73.1963888889,,Census,Town,CT,"Norfolk, Connecticut",0,0,0,1422,0,0,1643,1803,1641,1418,1546,1614,1541,1229,1298.0,1333,1572,1827.0,2073.0,2156.0,2060.0,1660.0,1709.0
7690,18431,US,108882,41.9666666667,-72.0166666667,,Census,Town,CT,"Woodstock, Connecticut",0,0,0,3017,0,3053,3381,3285,2955,2639,2309,2095,1849,1767,1712.0,1912,2271,3177.0,4311.0,5117.0,6008.0,7221.0,7964.0
8016,14414,US,84443,41.7316666667,-73.4525,,Census,Town,CT,"Kent, Connecticut",0,0,0,1956,0,0,1848,1855,1744,1622,1383,1220,1122,1086,1054.0,1245,1392,1686.0,1990.0,2505.0,2918.0,2858.0,2979.0
8463,46446,US,256934,41.7677777778,-72.7538888889,,Census,Town,CT,"West Hartford, Connecticut",0,0,0,0,0,0,4411,1296,1533,1828,1930,3186,4808,8854,24941.0,33776,44402,62382.0,68031.0,61301.0,60110.0,63589.0,63268.0
8646,19057,US,108862,41.7,-72.0,,Census,Town,CT,"Canterbury, Connecticut",0,0,0,1984,0,0,1669,1591,1543,1272,947,876,868,896,942.0,992,1321,1857.0,2673.0,3426.0,4467.0,4692.0,5132.0
8726,40171,US,108729,41.8705555556,-72.8252777778,,Census,Town,CT,"Simsbury, Connecticut",0,0,0,1875,0,0,2737,2410,2051,1830,1874,2094,2537,2958,3625.0,3941,4822,10138.0,17475.0,21161.0,22023.0,23234.0,23511.0
8731,13975,US,108696,41.4833333333,-73.4833333333,,Census,Town,CT,"New Fairfield, Connecticut",1573,1665,772,788,939,956,927,915,870,791,670,584,551,468,434.0,608,1236,3355.0,6991.0,11260.0,12911.0,13953.0,13881.0
8805,15078,US,635222,41.4602777778,-72.6819444444,,Census,Town,CT,"Durham, Connecticut",0,0,0,1210,0,0,1026,1130,1086,990,856,884,997,959,1044.0,1098,1804,3096.0,4489.0,5143.0,5732.0,6627.0,7388.0
9299,28795,US,108880,41.7166666667,-72.2166666667,,Census,Census-designated place,CT,"Willimantic, Connecticut",0,0,0,0,0,0,0,0,0,6608,8648,8937,11230,12330,12102.0,12101,13586,13881.0,14402.0,14652.0,14746.0,15823.0,17737.0
9317,42171,US,89514,41.3555555556,-72.0994444444,,Census,City,CT,"New London, Connecticut",0,5150,3238,3330,4335,5519,8991,10115,9576,10537,13757,17548,19659,25688,29640.0,30456,30551,34182.0,31630.0,28842.0,28540.0,25671.0,27620.0
9519,9813,US,108859,41.8852777778,-72.2613888889,,Census,Town,CT,"Willington, Connecticut",0,0,0,1246,0,0,1388,1166,942,1086,906,885,1112,1200,1213.0,1233,1462,2005.0,3755.0,4694.0,5979.0,5959.0,6041.0
9955,15312,US,108881,41.7166666667,-72.1666666667,,Census,Town,CT,"Windham, Connecticut",0,0,0,2489,0,3382,4503,4243,5412,8264,10032,8937,12604,13801,13773.0,13824,15884,16973.0,19626.0,21062.0,22039.0,22857.0,25268.0
10139,14926,US,108774,41.3675,-72.4638888889,,Census,Town,CT,"Deep River, Connecticut",0,0,0,4165,0,3417,2904,1213,1267,1362,1484,1634,1907,2325,2381.0,2332,2570,2968.0,3690.0,3994.0,4332.0,4610.0,4629.0
10143,9724,US,108875,41.7002777778,-72.0830555556,,Census,Town,CT,"Scotland, Connecticut",0,0,0,0,0,0,0,720,643,590,506,471,476,391,402.0,478,513,684.0,1022.0,1072.0,1215.0,1556.0,1726.0
10183,14371,US,108878,41.9844444444,-71.8777777778,,Census,Town,CT,"Thompson, Connecticut",0,0,0,2928,0,3535,4638,3259,3804,5051,5580,6442,4804,5055,4999.0,5577,5585,6217.0,7580.0,8141.0,8668.0,8878.0,9458.0
10318,13681,US,108707,41.8616666667,-72.9091666667,,Census,Town,CT,"Canton, Connecticut",0,0,0,1322,0,0,1986,2373,2639,2301,2500,2678,2732,2549,2397.0,2769,3613,4783.0,6868.0,7635.0,8268.0,8840.0,10292.0
10502,79959,US,256965,41.5561111111,-73.0413888889,,Census,City,CT,"Waterbury, Connecticut",0,0,0,0,0,0,0,10004,10826,17806,28646,45859,73141,91715,99902.0,99314,104477,107130.0,108033.0,103266.0,108961.0,107271.0,110366.0
10639,12127,US,108816,41.5844444444,-71.9211111111,,Census,Town,CT,"Griswold, Connecticut",0,0,0,1859,0,0,2065,2217,2575,2745,3113,3490,4233,4220,6010.0,5343,5728,6472.0,7763.0,8967.0,10384.0,10807.0,11951.0
10784,10942,US,108747,42.0013888889,-73.0844444444,,Census,Town,CT,"Colebrook, Connecticut",0,0,0,1274,0,0,1317,1375,1141,1148,1098,684,557,492,564.0,547,592,791.0,1020.0,1221.0,1365.0,1471.0,1485.0
11031,28421,US,108731,41.605,-72.8791666667,,Census,Town,CT,"Southington, Connecticut",0,0,0,2681,0,0,2126,3315,4314,5411,5501,5890,6516,8440,9237.0,9649,13061,22797.0,30946.0,36879.0,38518.0,39728.0,43069.0
11138,22693,US,256960,41.4897222222,-73.0513888889,,Census,Borough,CT,"Naugatuck, Connecticut",0,0,0,0,0,0,1720,2590,2830,4274,6218,10541,12722,15051,14315.0,15388,17455,19511.0,23034.0,26456.0,30625.0,30989.0,31862.0
11181,20337,US,108785,41.2938888889,-72.3825,,Census,Town,CT,"Old Saybrook, Connecticut",0,0,0,0,0,0,0,1105,1215,1302,1484,1431,1516,1463,1643.0,1985,2499,5274.0,8468.0,9287.0,9552.0,10367.0,10242.0
11312,7688,US,123762,41.2280555556,-72.9922222222,,Census,Borough,CT,"Woodmont, Connecticut",0,0,0,0,0,0,0,0,0,0,0,0,194,220,531.0,748,0,0.0,2114.0,1797.0,1770.0,1711.0,1488.0
11509,9023,US,108803,41.4994444444,-72.9752777778,,Census,Town,CT,"Prospect, Connecticut",0,0,0,0,0,0,666,574,551,492,445,562,539,266,531.0,1006,1896,4367.0,6543.0,6807.0,7775.0,8707.0,9405.0
11601,13946,US,108852,41.9833333333,-72.45,,Census,Town,CT,"Somers, Connecticut",0,0,0,1306,0,0,1508,1517,1247,1242,1407,1593,1653,1673,1917.0,2114,2631,3702.0,6893.0,8473.0,9108.0,10417.0,11444.0
11706,14657,US,108782,41.3805555556,-72.5763888889,,Census,Town,CT,"Killingworth, Connecticut",0,0,0,2342,0,0,1107,1126,856,748,582,651,660,531,482.0,1230,677,1098.0,2435.0,3976.0,4814.0,6018.0,6525.0
11816,13381,US,108767,41.6166666667,-73.1166666667,,Census,Town,CT,"Watertown, Connecticut",0,0,0,1439,0,0,1533,1587,1698,1897,2323,3100,3850,6050,8192.0,8787,10699,14837.0,18610.0,19489.0,20456.0,21661.0,22514.0
11920,27918,US,108713,,,,Census,Town,CT,"Enfield, Connecticut",0,0,0,2065,0,0,4460,4997,6322,6755,7199,6699,9719,11719,13404.0,13561,15464,31464.0,46189.0,42695.0,45532.0,45212.0,44654.0
11974,18743,US,108802,41.43,-73.1347222222,,Census,Town,CT,"Oxford, Connecticut",0,0,0,1683,0,0,1564,1269,1338,1120,902,952,1020,998,1141.0,1375,2037,3292.0,4480.0,6634.0,8685.0,9821.0,12683.0
12331,17876,US,108703,41.85,-72.7333333333,,Census,Town,CT,"Bloomfield, Connecticut",0,0,0,0,0,0,1412,1401,1473,1346,1308,1513,1821,2394,3247.0,4309,5746,13613.0,18301.0,18608.0,19483.0,19587.0,20486.0
12688,32369,US,256924,41.3041666667,-73.1380555556,,Census,City,CT,"Shelton, Connecticut",2742,2792,2770,2805,1371,1326,1301,1477,1527,2499,4006,5572,6545,9475,10113.0,10971,12694,18190.0,27165.0,31314.0,35418.0,38101.0,39559.0
12797,32259,US,87973,,,,Census,US County,CT,"Middlesex County, Connecticut",18828,19874,20723,22405,24844,24879,27216,30859,36099,35589,39524,41760,45637,47550,51388.0,55999,67332,88865.0,114816.0,129017.0,143196.0,155071.0,165676.0
12803,23194,US,108690,41.2658333333,-73.3008333333,,Census,Town,CT,"Easton, Connecticut",0,0,0,0,0,0,1432,1350,1288,1145,1001,960,1052,1017,1013.0,1262,2165,3407.0,4885.0,5962.0,6303.0,7272.0,7490.0
13177,40664,US,87976,,,,Census,US County,CT,"New London County, Connecticut",32918,34888,34707,35943,42201,44463,51821,61731,66570,73152,76634,82758,91253,104611,118966.0,125224,144821,185745.0,230654.0,238409.0,254957.0,259088.0,274055.0
13334,19835,US,108836,41.4830555556,-72.2663888889,,Census,Town,CT,"Salem, Connecticut",0,0,0,1053,0,0,764,830,717,574,481,468,443,424,403.0,504,618,925.0,1453.0,2335.0,3310.0,3858.0,4151.0
13414,42215,US,87972,,,,Census,US County,CT,"Litchfield County, Connecticut",38635,41214,41375,41267,42858,40448,45253,47318,48727,52044,53542,63672,70260,76262,82556.0,87041,98872,119856.0,144091.0,156769.0,174092.0,182193.0,189927.0
13812,64399,US,149532,41.0511111111,-73.4791666667,,Census,Town,CT,"Darien, Connecticut",0,0,0,1126,0,0,1454,1705,1808,1949,2276,3116,3946,4184,6951.0,9222,11767,18437.0,20336.0,18892.0,18196.0,19607.0,20732.0
13892,14405,US,108780,41.4661111111,-72.5441666667,,Census,Town,CT,"Haddam, Connecticut",0,0,0,2478,0,0,2279,2307,2071,2419,2095,2015,1958,1736,1755.0,2069,2636,3466.0,4934.0,6383.0,6769.0,7157.0,8346.0
13925,33181,US,256932,41.675,-72.7872222222,,Census,City,CT,"New Britain, Connecticut",0,0,0,0,0,0,0,0,0,11800,16519,25998,43916,59316,68128.0,68685,73726,82201.0,83441.0,73840.0,75491.0,71538.0,73206.0
13954,10295,US,108866,41.8936111111,-72.0969444444,,Census,Town,CT,"Eastford, Connecticut",0,0,0,0,0,0,1127,1005,984,855,561,523,513,496,529.0,496,598,746.0,922.0,1028.0,1314.0,1618.0,1749.0
14005,32561,US,108699,41.2255555556,-73.3705555556,,Census,Town,CT,"Weston, Connecticut",2469,2680,2618,2767,2997,2561,1056,1117,1054,918,772,840,831,703,670.0,1053,1988,4039.0,7417.0,8284.0,8648.0,10037.0,10179.0
14305,8598,US,108838,41.5833333333,-71.8333333333,,Census,Town,CT,"Voluntown, Connecticut",0,0,0,1116,0,0,1064,1055,1052,1186,1060,872,779,656,651.0,723,825,1028.0,1452.0,1637.0,2113.0,2528.0,2603.0
14717,51010,US,108740,41.8527777778,-72.6430555556,,Census,Town,CT,"Windsor, Connecticut",0,0,0,3008,0,0,3294,2278,2783,3058,2954,3614,4178,5620,8290.0,10068,11833,19467.0,22502.0,25204.0,27817.0,28237.0,29044.0
14769,12489,US,108857,41.9880555556,-72.1613888889,,Census,Town,CT,"Union, Connecticut",631,767,752,757,711,669,728,732,627,539,431,428,322,267,196.0,234,261,383.0,443.0,546.0,612.0,693.0,854.0
15099,8559,US,108765,41.7363888889,-73.3422222222,,Census,Town,CT,"Warren, Connecticut",0,0,0,875,0,0,830,710,673,639,477,432,412,350,303.0,328,437,600.0,827.0,1027.0,1226.0,1254.0,1461.0
15151,13058,US,108810,41.55,-72.1833333333,,Census,Town,CT,"Bozrah, Connecticut",0,0,0,1085,1079,1067,867,1216,984,1155,1005,799,861,858,859.0,904,1154,1590.0,2036.0,2135.0,2297.0,2357.0,2627.0
15196,9624,US,108858,41.8369444444,-72.4605555556,,Census,Town,CT,"Vernon, Connecticut",0,0,0,966,0,0,2900,3838,5446,6915,8808,8483,9087,8898,8703.0,8978,10115,16961.0,27237.0,27974.0,29841.0,28063.0,29179.0
15402,12668,US,108835,41.5166666667,-72.0,,Census,Town,CT,"Preston, Connecticut",0,0,0,1899,0,0,1842,2092,2161,2523,2555,2807,1917,2743,3928.0,4206,1775,4992.0,3593.0,4644.0,5006.0,4688.0,4726.0
15766,76309,US,256956,41.2955555556,-72.8625,,Census,Town,CT,"East Haven, Connecticut",0,0,0,1237,0,0,2987,2292,2714,3057,955,1167,1795,3520,7815.0,9094,12212,21388.0,25120.0,25036.0,26144.0,28189.0,29257.0
15823,20706,US,108712,41.9166666667,-72.5577777778,,Census,Town,CT,"East Windsor, Connecticut",0,0,0,3400,0,3600,2633,2580,2882,3019,2890,3158,3362,3741,3815.0,3967,4859,7500.0,8513.0,8925.0,10081.0,9818.0,11162.0
15826,8937,US,108837,41.6238888889,-72.075,,Census,Town,CT,"Sprague, Connecticut",0,0,0,0,0,0,0,0,3463,3207,1106,1339,2551,2500,2539.0,2285,2320,2509.0,2912.0,2996.0,3008.0,2971.0,2984.0
15984,23688,US,108732,41.9833333333,-72.6833333333,,Census,Town,CT,"Suffield, Connecticut",0,0,0,0,0,0,2962,3260,3277,3225,3169,3521,3841,4070,4346.0,4475,4895,6779.0,8634.0,9294.0,11427.0,13552.0,15735.0
16061,9880,US,33891115,41.3344,-71.9058,,Census,Borough,CT,"Stonington (borough), Connecticut",0,0,0,0,0,0,0,0,0,0,0,2278,2083,2100,2006.0,1826,1739,1622.0,1413.0,1228.0,1100.0,1032.0,929.0
16112,35325,US,108829,41.4666666667,-71.8666666667,,Census,Town,CT,"North Stonington, Connecticut",0,0,0,2624,0,0,1936,1913,1759,1769,1463,1240,1100,1144,1135.0,1236,1367,1982.0,3748.0,4219.0,4884.0,4991.0,5297.0
16631,26983,US,669680,41.5769444444,-73.4083333333,,Census,Town,CT,"New Milford, Connecticut",0,0,0,3830,0,0,4508,3535,3586,3907,3917,4804,5010,4781,4700.0,5559,5799,8318.0,14601.0,19420.0,23629.0,27121.0,28142.0
17117,4133,US,2808540,41.9534,-72.303,,Census,Census-designated place,CT,"Stafford Springs, Connecticut",0,0,0,0,0,0,0,0,0,0,0,2640,3059,3383,3492.0,3401,3396,3322.0,3339.0,3392.0,4100.0,0.0,4988.0
17294,15675,US,108717,41.9622222222,-72.8394444444,,Census,Xcodeh's personal hotbox.,CT,"Granby, Connecticut",0,0,0,3012,0,0,2498,1720,1517,1340,1251,1299,1383,1342,1388.0,1544,2693,4968.0,6150.0,7956.0,9369.0,10347.0,11282.0
17393,22460,US,108694,41.3361111111,-73.2258333333,,Census,Town,CT,"Monroe, Connecticut",0,0,0,0,1522,1351,1442,1382,1226,1157,994,1043,1002,1161,1221.0,1728,2892,6402.0,12047.0,14010.0,16896.0,19247.0,19479.0
17515,14490,US,108742,41.9291666667,-72.9722222222,,Census,Town,CT,"Barkhamsted, Connecticut",0,0,0,1592,0,0,1524,1272,1439,1297,1130,864,865,719,697.0,724,946,1370.0,2066.0,2935.0,3369.0,3494.0,3799.0
17601,162363,US,53825,41.31,-72.9236111111,"[[y2016,129934]]", USA,City,CT,"New Haven, Connecticut",4487,4049,5772,7147,10180,12960,20345,39267,50840,62882,86045,108027,133605,162537,162665.0,160605,164443,152048.0,137707.0,126021.0,130474.0,123626.0,129779.0
17679,10398,US,108706,41.7586111111,-72.9577777778,,Census,Town,CT,"Burlington, Connecticut",0,0,0,1360,0,0,1161,1031,1319,1224,1302,1218,1319,1109,1082.0,1246,1846,2790.0,4070.0,5660.0,7026.0,8190.0,9301.0
17723,56297,US,108691,41.1758333333,-73.2719444444,,Census,Town,CT,"Fairfield, Connecticut",0,0,0,4151,0,3654,3614,4379,5645,3748,3868,4489,6134,11475,17218.0,21135,30489,46183.0,56487.0,54849.0,53418.0,57340.0,59404.0
17844,20362,US,108849,41.7883333333,-72.2288888889,,Census,Town,CT,"Mansfield, Connecticut",0,0,0,0,0,2276,2517,2165,2401,2154,1911,1827,1977,2574,3349.0,4559,10008,14638.0,19994.0,20634.0,21103.0,20720.0,26543.0
17933,15634,US,33819866,41.2944444444,-72.5275,,Census,Town,CT,"Clinton, Connecticut",0,0,0,0,0,0,1344,1427,1404,1402,1384,1429,1274,1217,1574.0,1791,2466,4166.0,10267.0,11195.0,12767.0,13094.0,13260.0
18376,29933,US,87978,,,,Census,US County,CT,"Tolland County, Connecticut",13251,14319,13779,14330,18702,17980,20091,20709,22000,24112,25081,24523,26459,27216,28659.0,31866,44709,68737.0,103440.0,114823.0,128699.0,136364.0,152691.0
18577,21622,US,380087,41.7472222222,-73.1897222222,,Census,Town,CT,"Litchfield, Connecticut",20342,4285,4639,4610,4456,4038,3953,3200,3113,3410,3304,3214,3005,3180,3574.0,4029,4964,6264.0,7399.0,7605.0,8365.0,8316.0,8466.0
18705,11307,US,108867,41.7833333333,-72.0666666667,,Census,Town,CT,"Hampton, Connecticut",0,0,0,1313,0,0,946,936,891,827,632,629,583,475,511.0,535,672,934.0,1129.0,1322.0,1578.0,1758.0,1863.0
18743,16605,US,108809,41.3541666667,-73.0113888889,,Census,Town,CT,"Woodbridge, Connecticut",0,0,0,1988,0,0,912,872,829,926,926,852,878,1170,1630.0,2262,2822,5182.0,7673.0,7761.0,7924.0,8983.0,8990.0
18761,18890,US,108854,41.9833333333,-72.3166666667,,Census,Town,CT,"Stafford, Connecticut",0,0,0,2269,0,0,2940,3397,3405,4455,4535,4297,5233,5407,5949.0,5835,6471,7476.0,8680.0,9268.0,11091.0,11307.0,12087.0
18817,78627,US,87965,,,,Census,US County,CT,"Fairfield County, Connecticut",36290,38208,41050,42739,47010,49917,59775,77476,95276,112042,150081,184203,245322,320936,386702.0,418384,504342,653589.0,792814.0,807143.0,827645.0,882567.0,916829.0
18933,22963,US,256966,41.2738888889,-72.9677777778,,Census,City,CT,"West Haven, Connecticut",0,0,0,0,0,0,0,0,0,0,0,0,0,0,25808.0,30021,32010,43002.0,52851.0,53184.0,54021.0,52360.0,55564.0
19049,25411,US,108819,41.6325,-72.24,,Census,Town,CT,"Lebanon, Connecticut",0,0,0,0,0,0,1901,2174,2211,1845,1670,1521,1528,1343,1436.0,1467,1654,2434.0,3804.0,4762.0,6041.0,6907.0,7308.0
19357,8869,US,108840,41.7327777778,-72.3747222222,,Census,Town,CT,"Andover, Connecticut",0,0,0,0,0,0,500,517,461,428,401,385,371,389,430.0,560,1034,1771.0,2099.0,2144.0,2540.0,3036.0,3303.0
19453,23801,US,108804,41.3841666667,-73.0869444444,,Census,Town,CT,"Seymour, Connecticut",0,0,0,0,0,0,1677,1749,2122,2318,3300,3541,4786,6781,6890.0,6754,7832,10100.0,12776.0,13434.0,14288.0,15454.0,16540.0
19588,22882,US,33820409,41.5991666667,-72.5905555556,,Census,Town,CT,"Portland, Connecticut",0,0,0,0,0,0,2836,3657,4693,4157,4687,3856,3425,3644,3930.0,4321,5186,7496.0,8812.0,8383.0,8418.0,8732.0,9508.0
20212,23920,US,108826,41.3541666667,-71.9663888889,,Census,Census-designated place,CT,"Mystic, Connecticut",0,0,0,0,0,0,0,0,0,0,0,0,0,0,0.0,0,0,0.0,0.0,0.0,2618.0,4001.0,4205.0
20437,29915,US,108715,41.6869444444,-72.5447222222,,Census,Town,CT,"Glastonbury, Connecticut",0,0,0,3114,0,3007,3390,3363,3560,3580,3457,4260,4796,5592,5783.0,6632,8818,14497.0,20651.0,24327.0,27901.0,31876.0,34427.0
20557,9982,US,108843,41.6911111111,-72.3072222222,,Census,Town,CT,"Columbia, Connecticut",0,0,0,0,0,0,876,832,891,757,740,655,646,706,648.0,853,1327,2163.0,3129.0,3386.0,4510.0,4971.0,5485.0
20715,15696,US,108791,41.4255555556,-72.9925,,Census,Town,CT,"Bethany, Connecticut",0,0,0,0,0,0,914,974,1135,637,550,517,495,411,480.0,706,1318,2384.0,3857.0,4330.0,4608.0,5040.0,5563.0
20781,13157,US,108848,41.65,-72.3833333333,,Census,Town,CT,"Hebron, Connecticut",0,0,0,2094,0,0,1345,1425,1279,1243,1039,1016,894,915,879.0,999,1320,1819.0,3815.0,5453.0,7079.0,8610.0,9686.0
20794,42290,US,87974,,,,Census,US County,CT,"New Haven County, Connecticut",30703,32162,37064,39616,43847,48619,65588,97345,121257,156523,209058,269163,337282,415214,463449.0,484316,545784,660315.0,744948.0,761337.0,804219.0,824008.0,862477.0
21099,16284,US,255857,41.7613888889,-72.6152777778,,Census,Town,CT,"East Hartford, Connecticut",0,0,0,3375,0,0,2497,2951,3007,3500,4455,6406,8138,11648,17125.0,18615,29933,43977.0,57583.0,52563.0,50452.0,49575.0,51252.0
21201,10043,US,108863,41.8,-72.1333333333,,Census,Town,CT,"Chaplin, Connecticut",0,0,0,0,0,0,796,781,704,627,542,529,435,385,414.0,489,712,1230.0,1621.0,1793.0,2048.0,2250.0,2305.0
21209,9143,US,108756,42.0225,-73.2908333333,,Census,Town,CT,"North Canaan, Connecticut",0,0,0,0,0,0,0,1426,1695,1537,1683,1803,2171,1933,2287.0,2304,2647,2836.0,3045.0,3185.0,3284.0,3350.0,3315.0
21213,35035,US,256933,41.6872222222,-72.73,,Census,Town,CT,"Newington, Connecticut",0,0,0,0,0,0,0,0,0,934,953,1041,1689,2381,4572.0,5449,9110,17664.0,26037.0,28841.0,29208.0,29306.0,30562.0
21609,17222,US,33819989,41.5666666667,-72.5,,Census,Town,CT,"East Hampton, Connecticut",0,0,0,3159,0,0,1525,1766,2771,1967,1949,2271,2390,2394,2616.0,2955,4000,5403.0,7078.0,8572.0,10428.0,13352.0,12959.0
21633,12568,US,108749,41.8513888889,-73.2358333333,,Census,Town,CT,"Goshen, Connecticut",0,0,0,1585,0,0,1457,1381,1223,1093,972,835,675,675,683.0,778,940,1288.0,1351.0,1706.0,2329.0,2697.0,2976.0
21681,38184,US,108766,41.6533333333,-73.3183333333,,Census,Town,CT,"Washington, Connecticut",0,0,0,1487,0,0,1832,1659,1563,1590,1633,1820,1747,1619,1775.0,2089,2227,2603.0,3121.0,3657.0,3905.0,3596.0,3578.0
21852,13120,US,108861,41.7880555556,-71.9497222222,,Census,Town,CT,"Brooklyn, Connecticut",0,0,0,1254,0,0,1514,2136,2354,2308,2628,2358,1858,1655,2250.0,2403,2652,3312.0,4965.0,5691.0,6681.0,7173.0,8210.0
22198,13634,US,108873,41.9061111111,-71.8702777778,,Census,Town,CT,"Putnam, Connecticut",0,0,0,0,0,0,0,2722,4192,5827,6512,7348,7280,8397,8099.0,8692,9304,8412.0,8598.0,8580.0,9031.0,9002.0,9584.0
23127,10683,US,108818,41.6072222222,-71.9797222222,,Census,Borough,CT,"Jewett City, Connecticut",0,0,0,0,0,0,0,0,0,0,1934,2224,3023,3196,4436.0,3682,3702,3608.0,3372.0,3294.0,3349.0,3053.0,3487.0
23205,14656,US,108771,41.4022222222,-72.4825,,Census,Town,CT,"Chester, Connecticut",0,0,0,0,0,0,992,1015,1094,1177,1301,1328,1419,1675,1463.0,1676,1920,2520.0,2982.0,3068.0,3417.0,3743.0,3994.0
23231,33900,US,87979,,,,Census,US County,CT,"Windham County, Connecticut",28881,28222,28611,31684,27082,28080,31081,34747,38518,43856,45158,46861,48361,52815,54086.0,56223,61759,68572.0,84515.0,92312.0,102525.0,109091.0,118428.0
23319,65836,US,256957,41.5366666667,-72.7947222222,,Census,City,CT,"Meriden, Connecticut",0,0,0,1309,0,0,0,0,8893,15540,21652,24296,27265,29867,38481.0,39494,44088,51850.0,55959.0,57118.0,59479.0,58244.0,60868.0
23381,138541,US,53678,41.7625,-72.6741666667,,Census,State capital of connecticut,CT,"Hartford, Connecticut",2683,3523,3955,4726,7074,9468,17966,29152,37180,42015,53230,79850,98915,138036,164072.0,166267,177397,162178.0,158017.0,136392.0,139739.0,121578.0,124775.0
23440,63465,US,256925,41.0527777778,-73.5388888889,,Census,City,CT,"Stamford, Connecticut",0,0,0,0,0,0,0,0,0,2540,10396,15997,25138,35096,46346.0,47938,74293,92713.0,108798.0,102466.0,108056.0,117083.0,122643.0
23620,13886,US,108722,41.6352777778,-72.4872222222,,Census,Town,CT,"Marlborough, Connecticut",0,0,0,1954,0,0,832,682,476,391,582,322,302,303,319.0,476,901,1961.0,2991.0,4746.0,5535.0,5709.0,6404.0
23714,48079,US,380061,41.2044444444,-73.1297222222,,Census,Town,CT,"Stratford, Connecticut",0,0,0,3438,0,0,2040,2294,3032,4251,2608,3657,5712,12347,19212.0,22580,33428,45012.0,49775.0,50541.0,49389.0,49976.0,51384.0
23787,18471,US,108702,41.6138888889,-72.7725,,Census,Town,CT,"Berlin, Connecticut",2465,2702,2798,2877,3037,3411,1869,2146,2436,2385,2600,3448,3728,4298,4875.0,5230,7470,11250.0,14149.0,15121.0,16787.0,18215.0,19866.0
23807,28987,US,256944,41.8,-73.1166666667,,Census,City,CT,"Torrington, Connecticut",1400,1417,1586,1449,1651,1707,1916,2278,2893,3327,4283,8360,15483,20623,26040.0,26988,27820,30045.0,31952.0,30987.0,33687.0,35202.0,36383.0
23822,18216,US,149211,41.3741666667,-73.395,,Unknown,Town,CT,"Bethel, Connecticut",0,0,0,0,0,0,0,1711,2311,2727,3401,3327,3792,3201,3886.0,4105,5104,8200.0,10945.0,16004.0,17541.0,18067.0,18584.0
23878,32406,US,108814,41.3530555556,-72.2294444444,,Census,Town,CT,"East Lyme, Connecticut",0,0,0,0,0,0,1382,1506,1506,1731,2048,1836,1916,2291,2575.0,3338,3870,6782.0,11399.0,13870.0,15340.0,18118.0,19159.0
24099,37185,US,233764,41.6811111111,-72.9405555556,,Census,City,CT,"Bristol, Connecticut",2462,2722,1428,1362,1707,2109,2884,3436,3788,5347,7382,6268,9527,20620,28451.0,30167,35961,45499.0,55487.0,57370.0,60640.0,60062.0,60477.0
24908,182080,US,6466,,,,Census,US State,CT,Connecticut,237946,251002,261942,275248,297675,309978,370792,460147,537454,622700,746258,908420,1114756,1380631,1606903.0,1709242,2007280,2535234.0,3031709.0,3107576.0,3287116.0,3405565.0,3574097.0
25141,47969,US,108695,41.1468,-73.4949,,Census,New england town,CT,"New Canaan, Connecticut",0,0,1599,1689,1830,0,2600,2771,2497,2673,2701,2968,3667,3895,5456.0,6221,8001,13466.0,17451.0,17931.0,17864.0,19395.0,19738.0
25650,29209,US,108777,41.35,-72.4166666667,,Census,Town,CT,"Essex, Connecticut",0,0,0,0,0,0,950,1764,1669,1855,2035,2530,2745,2815,2777.0,2859,3491,4057.0,4911.0,5078.0,5904.0,6505.0,6683.0
25743,14259,US,108872,41.8666666667,-71.9833333333,,Census,Town,CT,"Pomfret, Connecticut",0,0,0,2042,0,0,1805,1673,1488,1470,1471,1831,1857,1454,1617.0,1710,2018,2136.0,2529.0,2775.0,3102.0,3798.0,4247.0
25862,13427,US,108868,41.8313888889,-71.8502777778,,Census,Town,CT,"Killingly, Connecticut",0,0,0,2803,0,3685,4543,4926,5712,6921,7027,6835,6564,8178,8852.0,9547,10015,11298.0,13573.0,14519.0,15889.0,16472.0,17370.0
26061,35414,US,4073829,41.4,-73.2833333333,"[[y1756,1253],[y1774,2229],[y1782,2404],[y2016,27865]]", USA,Town,CT,"Newtown, Connecticut",2764,2903,2834,2879,3096,3189,3338,3578,3681,4013,3539,3276,3012,2751,2635.0,4023,7448,11373.0,16942.0,19107.0,20779.0,25031.0,27560.0
26210,10264,US,108750,41.7544444444,-73.0569444444,,Census,Town,CT,"Harwinton, Connecticut",0,0,0,1500,0,0,1175,1044,1044,1016,943,1213,1440,2020,949.0,1112,1858,3344.0,4318.0,4889.0,5228.0,5283.0,5642.0
26337,7398,US,108768,41.925,-73.1030555556,,Census,Town,CT,"Winchester, Connecticut",0,0,0,1601,0,0,2179,3513,4096,5142,6183,7763,8679,9019,8674.0,8482,10535,10496.0,11106.0,10841.0,11524.0,10664.0,11242.0
26543,16453,US,108790,41.4386111111,-73.0555555556,,Census,Town,CT,"Beacon Falls, Connecticut",0,0,0,0,0,0,0,0,0,379,505,623,1160,1593,1693.0,1756,2067,2886.0,3546.0,3995.0,5083.0,5246.0,6049.0
26579,19861,US,108776,41.4833333333,-72.4,,Census,Town,CT,"East Haddam, Connecticut",0,0,0,2572,0,0,2610,3056,2951,3032,2599,2485,2422,2312,2114.0,2217,2554,3637.0,4676.0,5621.0,6676.0,8333.0,9126.0
26764,10978,US,108751,41.6938888889,-73.2105555556,,Census,Town,CT,"Morris, Connecticut",0,0,0,0,0,0,0,769,701,627,584,535,681,499,481.0,606,799,1190.0,1609.0,1899.0,2039.0,2301.0,2388.0
27336,11435,US,108800,41.5275,-73.1233333333,,Census,Town,CT,"Middlebury, Connecticut",0,0,0,838,0,0,763,664,696,687,566,736,836,1067,1449.0,2173,3318,4785.0,5542.0,5995.0,6145.0,6451.0,7575.0
27352,11172,US,108773,41.6097222222,-72.6630555556,,Census,Town,CT,"Cromwell, Connecticut",0,0,0,0,0,0,0,0,1856,1640,1987,2031,2188,2454,2814.0,3281,4286,6780.0,7400.0,10265.0,12286.0,12871.0,14005.0
27576,20050,US,108795,41.2833333333,-72.6833333333,,Census,Town,CT,"Guilford, Connecticut",0,0,0,4131,0,0,2653,2624,2576,2782,2780,2785,3001,2803,3117.0,3544,5092,7913.0,12033.0,17375.0,19848.0,21398.0,22375.0
27615,37975,US,84080,41.4686111111,-73.3919444444,,Census,Town,CT,"Brookfield, Connecticut",0,0,0,1159,0,0,1359,1224,1193,1152,989,1046,1101,896,926.0,1345,1688,3405.0,9688.0,12872.0,14113.0,15664.0,16452.0
27841,13367,US,108698,41.5833333333,-73.5,,Census,Town,CT,"Sherman, Connecticut",0,0,949,957,947,938,984,911,846,828,668,658,569,533,391.0,477,549,825.0,1459.0,2281.0,2809.0,3827.0,3581.0
27864,14219,US,108783,41.5175,-72.7122222222,,Census,Town,CT,"Middlefield, Connecticut",0,0,0,0,0,0,0,0,1053,928,1002,845,1036,1047,1204.0,1230,1983,3255.0,4132.0,3796.0,3925.0,4203.0,4425.0
28038,81991,US,23747575,41.1863888889,-73.1955555556,,Census,City,CT,"Bridgeport, Connecticut",0,0,1089,1500,2800,3294,7560,13299,18969,27643,48866,70996,102054,143555,146716.0,147121,158709,156748.0,156542.0,142546.0,141686.0,139529.0,144229.0
28047,23202,US,108770,41.5619444444,-73.2094444444,,Census,Town,CT,"Woodbury, Connecticut",0,0,0,1885,0,0,2150,2037,1931,2149,1815,1988,1860,1698,1744.0,1998,2564,3910.0,5869.0,6942.0,8131.0,9198.0,9975.0
28950,68462,US,149527,41.4022222222,-73.4711111111,"[[y1756,1527],[y2016,84992]]", USA,City,CT,"Danbury, Connecticut",3031,3180,3606,3873,4311,4504,5964,7234,8753,11666,19473,19474,23502,22325,26955.0,27921,30337,39382.0,50781.0,60470.0,65585.0,74848.0,80893.0
29420,33977,US,108714,41.7277777778,-72.8402777778,"[[y1756,3707],[y1774,6069],[y1782,5542]]", USA,Town,CT,"Farmington, Connecticut",2696,2809,2748,3042,1901,2041,2630,3144,2616,3017,3179,3331,3478,3844,4548.0,5313,7026,10813.0,14390.0,16407.0,20608.0,23641.0,25340.0
29485,38385,US,275138,41.5622222222,-72.6508333333,,Census,City,CT,"Middletown, Connecticut",0,0,2014,2618,0,3511,4211,5182,6923,6826,9013,9589,11851,13638,24554.0,26495,29711,33250.0,36924.0,39040.0,42762.0,43167.0,47648.0
29538,15180,US,108762,41.8666666667,-73.45,,Census,Town,CT,"Sharon, Connecticut",0,0,0,2573,0,0,2507,2556,2441,2580,2149,1982,1880,1585,1710.0,1611,1889,2141.0,2491.0,2623.0,2928.0,2968.0,2782.0
29653,36400,US,353938,41.3052777778,-73.5013888889,,Census,Town,CT,"Ridgefield, Connecticut",1947,2025,2103,2310,2305,2474,2337,2213,1919,2028,2235,2626,3118,2707,3580.0,3900,4356,8165.0,18188.0,20120.0,20919.0,23643.0,24638.0
29718,12533,US,108752,41.8413888889,-73.0041666667,,Census,Town,CT,"New Hartford, Connecticut",0,0,0,1685,0,0,2643,2758,3078,3302,3160,3424,2144,1781,1834.0,1836,2395,3033.0,3970.0,4884.0,5769.0,6088.0,6970.0
29798,15549,US,256937,41.925,-72.6494444444,,Census,Town,CT,"Windsor Locks, Connecticut",0,0,0,0,0,0,0,1587,2154,2332,2758,3062,3715,3554,4073.0,4347,5221,11411.0,15080.0,12190.0,12358.0,12043.0,12498.0
29914,17978,US,108711,41.9466666667,-72.7411111111,"[[y2012,5055]]",Census,Town,CT,"East Granby, Connecticut",0,0,0,0,0,0,0,833,853,754,661,684,797,1056,1003.0,1225,1327,2434.0,3532.0,4102.0,4302.0,4745.0,5161.0
30020,16907,US,108860,41.8833333333,-72.1666666667,,Unknown,Town,CT,"Ashford, Connecticut",0,0,0,0,2661,2651,1295,1231,1241,1041,778,757,668,673,726.0,704,845,1315.0,2156.0,3221.0,3765.0,4098.0,4317.0
30029,18008,US,108856,41.8721805556,-72.3694611111,,Census,Town,CT,"Tolland, Connecticut",0,0,0,1597,0,0,1406,1310,1216,1169,1037,1036,1126,1040,1064.0,1192,1659,2950.0,7857.0,9694.0,11001.0,13146.0,15052.0
30039,15768,US,108841,41.7641666667,-72.4375,,Census,Town,CT,"Bolton, Connecticut",0,0,0,731,0,0,600,683,576,512,452,457,433,448,504.0,728,1279,2933.0,3691.0,3951.0,4575.0,5017.0,4980.0
30719,33733,US,882717,41.3485,-72.0775,,Census,Town,CT,"Groton, Connecticut",0,4302,4451,4664,4805,2953,3833,4450,5124,5128,5539,5962,6495,9227,10722.0,10910,21896,29937.0,38244.0,41062.0,45144.0,39907.0,40115.0
30748,21226,US,108847,41.9166666667,-72.4577777778,,Census,Town,CT,"Ellington, Connecticut",0,0,0,1196,0,0,1399,1510,1452,1569,1539,1829,1999,2127,2253.0,2479,3099,5580.0,7707.0,9711.0,11197.0,12921.0,15602.0
31132,20343,US,108730,41.8322222222,-72.5697222222,,Census,Town,CT,"South Windsor, Connecticut",0,0,0,0,0,0,1638,1789,1688,1902,1736,2014,2251,2142,2535.0,2863,4066,9460.0,15553.0,17198.0,22090.0,24412.0,25709.0
31184,34016,US,255856,41.3266666667,-73.0822222222,,Census,City,CT,"Derby, Connecticut",2994,1878,2051,2088,2253,2851,3824,5443,2103,3026,4413,7930,8991,11238,10788.0,10287,10259,12132.0,12599.0,12346.0,12199.0,12391.0,12902.0
31201,39837,US,87970,41.81,-72.73,,Census,US County,CT,"Hartford County, Connecticut",38149,42147,44733,47264,51131,55629,69967,89962,109007,125382,147180,195480,250182,336027,421097.0,450189,539661,689555.0,816737.0,807766.0,851783.0,857183.0,894014.0
31347,14594,US,108748,41.8452777778,-73.3313888889,,Census,Town,CT,"Cornwall, Connecticut",0,0,0,1661,0,0,2041,1953,1772,1583,1283,1175,1016,834,878.0,907,896,1051.0,1177.0,1288.0,1414.0,1434.0,1420.0
