,article_length,country,id,lat,lon,poptype,settlement_type,state,title,y1790,y1800,y1810,y1820,y1830,y1840,y1850,y1860,y1870,y1880,y1890,y1900,y1910,y1920,y1930,y1940,y1950,y1960,y1970,y1980,y1990,y2000,y2010
4,9876,US,109528,28.4977777778,-81.3330555556,Census,Census-designated place,FL,"Conway, Florida",0,0,0,0,0,0,0,0,0,0,0,0,0,0,0.0,0,0,0.0,8642.0,24027,13159,14394.0,13467.0
29,9332,US,109698,28.0580555556,-81.9094444444,Census,CDP,FL,"Combee Settlement, Florida",0,0,0,0,0,0,0,0,0,0,0,0,0,0,0.0,0,0,2697.0,4963.0,5400,5463,5436.0,5577.0
34,8069,US,109657,28.25,-82.1655555556,Census,CDP,FL,"Zephyrhills North, Florida",0,0,0,0,0,0,0,0,0,0,0,0,0,0,0.0,0,0,0.0,0.0,1710,2320,2544.0,0.0
56,8495,US,109706,28.0619444444,-81.8536111111,Census,CDP,FL,"Fussels Corner, Florida",0,0,0,0,0,0,0,0,0,0,0,0,0,0,0.0,0,0,0.0,0.0,0,3840,5313.0,0.0
139,11900,US,108983,29.8641666667,-82.1366666667,Census,City,FL,"Hampton, Florida",0,0,0,0,0,0,0,0,0,0,0,198,265,286,311.0,478,386,340.0,386.0,466,296,431.0,500.0
141,13273,US,109817,30.1144444444,-83.5825,Census,City,FL,"Perry, Florida",0,0,0,0,0,0,0,0,0,0,0,0,1012,1956,2744.0,2668,2797,8030.0,7701.0,8254,7151,6847.0,7017.0
206,9344,US,109284,30.7097222222,-84.9258333333,Census,Town,FL,"Sneads, Florida",0,0,0,0,0,0,0,0,0,0,0,368,506,492,637.0,727,1074,1399.0,1550.0,1690,1746,1919.0,1849.0
212,14307,US,109360,29.4816666667,-82.8622222222,Census,City,FL,"Chiefland, Florida",0,0,0,0,0,0,0,0,0,0,0,0,0,0,421.0,572,843,1459.0,1965.0,1986,1917,1993.0,2245.0
240,12957,US,109478,25.6705555556,-80.4361111111,Census,CDP,FL,"The Hammocks, Florida",0,0,0,0,0,0,0,0,0,0,0,0,0,0,0.0,0,0,0.0,0.0,0,10897,47379.0,51003.0
252,25365,US,109690,28.15,-82.75,Census,City,FL,"Tarpon Springs, Florida",0,0,0,0,0,0,0,0,0,0,327,541,2212,2105,3414.0,3402,4323,6768.0,7118.0,13251,17906,21003.0,23484.0
372,64521,US,109162,30.4333333333,-87.2,Census,City,FL,"Pensacola, Florida",0,0,0,0,0,0,2164,2876,3347,6845,11750,17747,22982,31035,31579.0,37449,43479,56752.0,59507.0,57619,58165,56255.0,51923.0
387,10320,US,109835,28.9261111111,-81.2869444444,Census,City,FL,"Orange City, Florida",0,0,0,0,0,0,0,0,0,0,0,365,490,497,572.0,489,797,1598.0,1777.0,2795,5347,6604.0,10599.0
430,22082,US,109521,28.676075,-81.510618,Census,City,FL,"Apopka, Florida",0,0,0,0,0,0,0,0,0,0,490,218,410,798,1134.0,1312,2254,3578.0,4045.0,6019,13512,26642.0,41542.0
439,10574,US,109276,30.9486111111,-85.3963888889,Census,Town,FL,"Campbellton, Florida",0,0,0,0,0,0,0,0,0,0,0,0,0,277,314.0,311,307,309.0,304.0,336,202,212.0,230.0
471,10738,US,109675,27.8161111111,-82.7152777778,Census,Town,FL,"Kenneth City, Florida",0,0,0,0,0,0,0,0,0,0,0,0,0,0,0.0,0,0,2114.0,3862.0,4344,4462,4400.0,4980.0
473,8346,US,109339,26.5636111111,-81.9097222222,Census,CDP,FL,"McGregor, Florida",0,0,0,0,0,0,0,0,0,0,0,0,0,0,0.0,0,0,0.0,0.0,0,6504,7136.0,0.0
514,21831,US,60579,28.9005555556,-82.5936111111,Census,City,FL,"Crystal River, Florida",0,0,0,0,0,0,0,0,0,0,208,0,663,944,869.0,927,1026,1423.0,1696.0,2778,4044,3485.0,3108.0
525,25943,US,109799,27.2758333333,-80.355,Census,City,FL,"Port St. Lucie, Florida",0,0,0,0,0,0,0,0,0,0,0,0,0,0,0.0,0,0,0.0,330.0,14690,55866,88769.0,164603.0
535,24191,US,109212,28.4788888889,-82.5477777778,Census,Census-designated place,FL,"Spring Hill, Florida",0,0,0,0,0,0,0,0,0,0,0,0,0,0,0.0,0,0,0.0,0.0,6468,31117,69078.0,98621.0
598,13026,US,108961,29.8166666667,-82.6,Census,City,FL,"High Springs, Florida",0,0,0,0,0,0,0,0,0,0,0,1562,1468,1719,1864.0,2010,2088,2329.0,2787.0,2491,3144,3863.0,5350.0
607,14237,US,108986,29.9472222222,-82.1080555556,Census,City,FL,"Starke, Florida",0,0,0,0,0,0,0,0,0,292,669,972,1135,1023,1339.0,1480,2944,4806.0,4848.0,5306,5226,5593.0,5449.0
694,24294,US,3419111,28.5536111111,-82.3886111111,Census,City,FL,"Brooksville, Florida",0,0,0,0,0,0,0,0,0,0,512,641,979,1011,1405.0,1607,1818,3301.0,4060.0,5582,7440,7264.0,7719.0
791,121255,US,84504,27.7730555556,-82.64,Census,City,FL,"St. Petersburg, Florida",0,0,0,0,0,0,0,0,0,0,273,1575,4127,14237,40425.0,60812,96738,181298.0,216159.0,238647,238629,248232.0,244769.0
805,34546,US,109456,25.8950222222,-80.1857472222,Census,City,FL,"North Miami, Florida",0,0,0,0,0,0,0,0,0,0,0,0,0,0,0.0,1973,10734,28708.0,34767.0,42566,49998,59880.0,58786.0
829,8834,US,109582,26.675,-80.0733333333,Census,Town,FL,"Cloud Lake, Florida",0,0,0,0,0,0,0,0,0,0,0,0,0,0,0.0,0,132,148.0,136.0,160,121,167.0,135.0
890,8901,US,109274,30.9288888889,-85.1169444444,Census,Town,FL,"Bascom, Florida",0,0,0,0,0,0,0,0,0,0,0,0,0,0,0.0,0,0,0.0,87.0,134,90,106.0,121.0
1023,6106,US,40447357,30.4163888889,-84.2805555556,Census,Former CDP,FL,"Bond-South City, Florida",0,0,0,0,0,0,0,0,0,0,0,0,0,0,0.0,0,4611,1148.0,0.0,0,0,0.0,0.0
1027,34416,US,109064,26.2347222222,-80.1255555556,Census,City,FL,"Pompano Beach, Florida",0,0,0,0,0,0,0,0,0,0,0,0,269,636,2614.0,4427,5682,15992.0,38587.0,52618,72411,78191.0,99845.0
1095,17713,US,109740,30.6302777778,-87.0463888889,Census,City,FL,"Milton, Florida",0,0,0,0,0,0,0,1815,1014,1058,1455,1204,831,1594,1466.0,1851,2040,4108.0,5360.0,7206,7216,7045.0,8826.0
1096,37030,US,109827,28.905,-81.2111111111,Census,City,FL,"Deltona, Florida",0,0,0,0,0,0,0,0,0,0,0,0,0,0,0.0,0,0,0.0,4868.0,15710,50828,69543.0,85182.0
1145,13911,US,109480,25.7452777778,-80.3661111111,Census,CDP,FL,"University Park, Florida",0,0,0,0,0,0,0,0,0,0,0,0,0,0,0.0,0,0,0.0,0.0,0,0,26538.0,26995.0
1193,28578,US,109178,30.5833333333,-84.5833333333,Census,City,FL,"Quincy, Florida",0,0,0,0,0,0,0,0,743,639,681,847,3204,3118,3788.0,3888,6505,8874.0,8334.0,8591,7444,6982.0,7972.0
1235,10844,US,108984,29.7872222222,-82.0330555556,Census,City,FL,"Keystone Heights, Florida",0,0,0,0,0,0,0,0,0,0,0,0,0,0,107.0,145,307,655.0,800.0,1056,1315,1349.0,1350.0
1236,17905,US,109319,26.3497222222,-81.7908333333,Census,City,FL,"Bonita Springs, Florida",0,0,0,0,0,0,0,0,0,0,0,0,0,0,0.0,0,0,0.0,1932.0,5435,13600,32797.0,43914.0
1244,25360,US,109306,28.8063888889,-81.6430555556,Census,City,FL,"Mount Dora, Florida",0,0,0,0,0,0,0,0,0,0,0,0,0,623,612.0,831,636,790.0,974.0,1250,1432,1635.0,1680.0
1264,9151,US,109773,28.6480555556,-81.3463888889,Census,Census-designated place (CDP) &amp; unincorporated community,FL,"Fern Park, Florida",0,0,0,0,0,0,0,0,0,0,0,0,0,0,0.0,0,0,0.0,0.0,8890,8294,8318.0,0.0
1319,39839,US,73649,28.3,-82.44,Census,US County,FL,"Pasco County, Florida",0,0,0,0,0,0,0,0,0,0,4249,6054,7502,8802,10574.0,13981,20529,36785.0,75955.0,193643,281131,344765.0,464697.0
1394,11499,US,109113,28.85,-82.4833333333,Census,Census-designated place,FL,"Lecanto, Florida",0,0,0,0,0,0,0,0,0,0,0,0,0,0,0.0,0,0,0.0,0.0,0,1243,5161.0,5882.0
1405,17919,US,72362,29.8,-84.82,Census,US County,FL,"Franklin County, Florida",0,0,0,0,0,1030,1561,1904,1256,1791,3308,4890,5201,5318,6283.0,5991,5814,6576.0,7065.0,7661,8967,11057.0,11549.0
1464,17200,US,109034,25.9866666667,-80.1461111111,Census,Unknown,FL,"Hallandale Beach, Florida",0,0,0,0,0,0,0,0,0,0,0,0,0,0,1012.0,1827,3886,10483.0,23849.0,36517,30996,34282.0,37113.0
1565,7663,US,109601,26.9475,-80.0747222222,Census,Town,FL,"Jupiter Inlet Colony, Florida",0,0,0,0,0,0,0,0,0,0,0,0,0,0,0.0,0,0,242.0,396.0,378,405,368.0,400.0
1572,9865,US,109160,30.42,-87.3025,Census,Census-designated place,FL,"Myrtle Grove, Florida",0,0,0,0,0,0,0,0,0,0,0,0,0,0,0.0,0,0,0.0,16186.0,14238,17402,17211.0,15870.0
1637,22283,US,108975,30.1744444444,-85.6644444444,Census,City,FL,"Panama City, Florida",0,0,0,0,0,0,0,0,0,0,0,0,422,1722,5402.0,11610,25814,33275.0,32096.0,33346,34378,36417.0,36484.0
1651,8921,US,109672,27.9077777778,-82.825,Census,Census-designated place,FL,"Harbor Bluffs, Florida",0,0,0,0,0,0,0,0,0,0,0,0,0,0,0.0,0,0,0.0,0.0,0,2659,2807.0,2860.0
1658,22488,US,73616,29.28,-82.79,Census,US County,FL,"Levy County, Florida",0,0,0,0,0,0,465,1781,2018,5767,6586,8603,10361,9921,12456.0,12550,10637,10364.0,12756.0,19870,25923,34450.0,40801.0
1729,10623,US,109446,25.5716666667,-80.3316666667,Census,neighborhood,FL,"Lakes by the Bay, Florida",0,0,0,0,0,0,0,0,0,0,0,0,0,0,0.0,0,0,0.0,0.0,0,5615,9055.0,0.0
1785,134569,US,53846,25.7752777778,-80.2088888889,Census,Metropolitan City,FL,Miami,0,0,0,0,0,0,0,0,0,0,0,1681,5471,29571,110637.0,172172,249276,291688.0,334859.0,346681,358548,362470.0,399457.0
1978,17377,US,109846,30.7166666667,-86.1166666667,Census,City,FL,"DeFuniak Springs, Florida",0,0,0,0,0,0,0,0,0,0,672,0,2017,2097,2636.0,2570,3077,5282.0,4966.0,5563,5120,5089.0,5177.0
1991,9209,US,109279,30.7119444444,-85.0180555556,Census,Town,FL,"Grand Ridge, Florida",0,0,0,0,0,0,0,0,0,0,0,0,0,0,0.0,0,0,415.0,512.0,591,536,792.0,892.0
2080,9325,US,109852,30.4430555556,-85.8808333333,Census,Town,FL,"Ebro, Florida",0,0,0,0,0,0,0,0,0,0,0,0,0,0,0.0,0,0,0.0,125.0,233,255,250.0,270.0
2118,10906,US,109512,30.4122222222,-86.6591666667,Census,City,FL,"Mary Esther, Florida",0,0,0,0,0,0,0,0,0,0,0,0,0,0,0.0,0,332,780.0,3192.0,3530,4139,4055.0,3851.0
2122,11613,US,108960,29.5880555556,-82.0838888889,Census,City,FL,"Hawthorne, Florida",0,0,0,0,0,0,0,0,0,0,0,296,324,543,600.0,741,1058,1167.0,1126.0,1303,1305,1415.0,1417.0
2164,110558,US,100582,28.4158333333,-81.2988888889,Census,City,FL,"Orlando, Florida",0,0,0,0,0,0,0,0,0,0,2856,2481,3894,9282,27330.0,36736,52367,88135.0,99006.0,128251,164693,185951.0,238300.0
2183,19939,US,109450,25.9116666667,-80.325,Census,Town,FL,"Miami Lakes, Florida",0,0,0,0,0,0,0,0,0,0,0,0,0,0,0.0,0,0,0.0,0.0,9809,12750,22676.0,29361.0
2193,21525,US,109442,25.6666666667,-80.3566666667,Census,CDP &amp; unincorporated community,FL,"Kendall, Florida",0,0,0,0,0,0,0,0,0,0,0,0,0,0,0.0,0,0,0.0,35497.0,73758,87271,75226.0,75371.0
2212,23790,US,73627,27.08,-80.4,Census,US County,FL,"Martin County, Florida",0,0,0,0,0,0,0,0,0,0,0,0,0,0,5111.0,6295,7807,16932.0,28035.0,64014,100900,126731.0,146318.0
2214,8815,US,109808,28.6113888889,-82.0583333333,Census,City,FL,"Webster, Florida",0,0,0,0,0,0,0,0,0,0,0,0,301,361,514.0,454,569,366.0,739.0,856,746,805.0,785.0
2284,9177,US,109849,30.9786111111,-86.3116666667,Census,Town,FL,"Paxton, Florida",0,0,0,0,0,0,0,0,0,0,0,0,0,0,0.0,0,0,215.0,243.0,659,600,656.0,644.0
2287,17715,US,109233,27.8377777778,-82.3741666667,Census,Census-designated place,FL,"Gibsonton, Florida",0,0,0,0,0,0,0,0,0,0,0,0,0,0,0.0,0,0,0.0,0.0,0,7706,8752.0,14234.0
2348,9564,US,109545,28.4747222222,-81.4208333333,Census,Census-designated place,FL,"Oak Ridge, Florida",0,0,0,0,0,0,0,0,0,0,0,0,0,0,0.0,0,0,0.0,0.0,15477,15388,22349.0,22685.0
2362,11954,US,109399,27.0572222222,-80.1136111111,Census,Town,FL,"Jupiter Island, Florida",0,0,0,0,0,0,0,0,0,0,0,0,0,0,0.0,0,0,114.0,295.0,364,549,620.0,817.0
2432,18761,US,109704,27.7516666667,-81.7966666667,Census,City,FL,"Fort Meade, Florida",0,0,0,0,0,0,0,0,0,105,267,261,1165,2029,1981.0,1992,2803,4014.0,4374.0,5546,4976,5691.0,5626.0
2495,100374,US,109697,27.8925,-81.8397222222,Census,City,FL,"Bartow, Florida",0,0,0,0,0,0,0,0,0,386,1386,1983,2662,4101,5269.0,6158,8694,12849.0,12891.0,14780,14716,15340.0,17298.0
2713,65832,US,109495,24.5591666667,-81.7840305556,Census,City,FL,"Key West, Florida",0,0,0,0,0,688,2367,2832,5016,9890,18080,17114,19945,18749,12831.0,12927,26433,33956.0,29312.0,24382,24832,25478.0,24649.0
2782,26920,US,109426,25.4513888889,-80.4844444444,Census,City,FL,"Florida City, Florida",0,0,0,0,0,0,0,0,0,0,0,0,0,355,452.0,752,1547,4114.0,5133.0,6174,5806,7843.0,11245.0
2791,10444,US,109239,27.9894444444,-82.3044444444,Census,Census-designated place,FL,"Mango, Florida",0,0,0,0,0,0,0,0,0,0,0,0,0,0,0.0,0,0,0.0,0.0,0,8700,8842.0,11313.0
2818,10566,US,109257,30.7258333333,-85.9377777778,Census,Town,FL,"Ponce de Leon, Florida",0,0,0,0,0,0,0,0,0,0,0,0,0,0,0.0,0,0,0.0,288.0,454,406,457.0,598.0
2922,8892,US,109636,28.3227777778,-82.6838888889,Census,CDP,FL,"Bayonet Point, Florida",0,0,0,0,0,0,0,0,0,0,0,0,0,0,0.0,0,0,0.0,0.0,16455,21860,23577.0,0.0
2965,6439,US,109595,26.468118,-80.129152,Census,,FL,"High Point, Palm Beach County, Florida",0,0,0,0,0,0,0,0,0,0,0,0,0,0,0.0,0,0,0.0,0.0,0,2288,2191.0,0.0
2977,7574,US,109273,30.6947222222,-85.3930555556,Census,Town,FL,"Alford, Florida",0,0,0,0,0,0,0,0,0,0,0,0,0,207,221.0,283,375,380.0,402.0,548,472,466.0,489.0
2980,9840,US,108985,30.0827888889,-82.122575,Census,City,FL,"Lawtey, Florida",0,0,0,0,0,0,0,0,0,0,0,0,492,372,554.0,427,576,623.0,636.0,692,676,656.0,730.0
3048,19478,US,109578,26.5280555556,-80.0763888889,Census,City,FL,"Boynton Beach, Florida",0,0,0,0,0,0,0,0,0,0,0,0,0,0,1053.0,1326,2542,10467.0,18115.0,35624,46194,60389.0,68217.0
3064,14868,US,109739,30.9511111111,-87.1519444444,Census,Town,FL,"Jay, Florida",0,0,0,0,0,0,0,0,0,0,0,0,0,0,0.0,0,547,672.0,646.0,633,666,579.0,533.0
3065,14994,US,109181,29.615,-82.8177777778,Census,City,FL,"Trenton, Florida",0,0,0,0,0,0,0,0,0,0,0,0,304,400,706.0,773,904,941.0,1074.0,1131,1287,1617.0,1999.0
3068,9458,US,108978,30.1958333333,-85.6966666667,Census,Census-designated place,FL,"Pretty Bayou, Florida",0,0,0,0,0,0,0,0,0,0,0,0,0,0,0.0,0,0,0.0,0.0,3340,3839,3519.0,3206.0
3074,14794,US,109193,26.75,-80.9333333333,Census,City,FL,"Clewiston, Florida",0,0,0,0,0,0,0,0,0,0,0,0,0,0,0.0,1338,2499,3114.0,3896.0,5219,6085,6460.0,7155.0
3175,18310,US,109549,28.5741666667,-81.5305555556,Census,City,FL,"Ocoee, Florida",0,0,0,0,0,0,0,0,0,0,0,0,0,0,794.0,702,1370,2628.0,3937.0,7803,12778,24391.0,35579.0
3261,47151,US,108989,28.1519444444,-80.595,Census,City,FL,"Cocoa Beach, Florida",0,0,0,0,0,0,0,0,0,0,0,0,0,0,31.0,49,246,3475.0,9952.0,10926,12123,12482.0,11231.0
3466,13903,US,109579,26.5088888889,-80.0541666667,Census,Town,FL,"Briny Breezes, Florida",0,0,0,0,0,0,0,0,0,0,0,0,0,0,0.0,0,0,0.0,481.0,387,400,411.0,601.0
3515,11178,US,109674,27.8505555556,-82.8433333333,Census,Town,FL,"Indian Shores, Florida",0,0,0,0,0,0,0,0,0,0,0,0,0,0,0.0,0,198,296.0,791.0,984,1405,1705.0,1420.0
3541,8314,US,109640,28.3780555556,-82.1977777778,Census,CDP,FL,"Dade City North, Florida",0,0,0,0,0,0,0,0,0,0,0,0,0,0,0.0,0,0,0.0,1837.0,3151,3058,3319.0,0.0
3564,9447,US,109228,27.9938888889,-82.2194444444,Census,CDP,FL,"Dover, Florida",0,0,0,0,0,0,0,0,0,0,0,0,0,0,0.0,0,0,0.0,2094.0,2354,2626,2798.0,3702.0
3614,12755,US,109467,25.5355555556,-80.3975,Census,CDP &amp; unincorporated community,FL,"Princeton, Florida",0,0,0,0,0,0,0,0,0,0,0,0,0,0,0.0,0,0,1719.0,0.0,0,7073,10090.0,22038.0
3664,7502,US,109016,25.9916666667,-80.1916666667,Census,neighborhood,FL,"Carver Ranches, West Park, Florida",0,0,0,0,0,0,0,0,0,0,0,0,0,0,0.0,0,0,0.0,5515.0,0,0,4299.0,0.0
3668,19211,US,108998,28.0883333333,-80.6669444444,Census,Town,FL,"Melbourne Village, Florida",0,0,0,0,0,0,0,0,0,0,0,0,0,0,0.0,0,0,458.0,597.0,1004,591,706.0,662.0
3741,13821,US,72372,27.49,-81.81,Census,US County,FL,"Hardee County, Florida",0,0,0,0,0,0,0,0,0,0,0,0,0,0,10348.0,10158,10073,12370.0,14889.0,19379,19499,26938.0,27731.0
3804,14504,US,109503,30.6877777778,-81.925,Census,Town,FL,"Hilliard, Florida",0,0,0,0,0,0,0,0,0,0,0,0,0,0,0.0,0,607,1075.0,1205.0,1869,1751,2702.0,3086.0
3820,11961,US,109177,30.494878,-84.46259,Census,City,FL,"Midway, Gadsden County, Florida",0,0,0,0,0,0,0,0,0,0,0,0,0,0,0.0,0,0,0.0,0.0,0,852,1446.0,3004.0
3909,22653,US,109778,28.7019444444,-81.345,Census,City,FL,"Longwood, Florida",0,0,0,0,0,0,0,0,0,0,57,0,0,106,318.0,406,717,1689.0,3203.0,10029,13316,13745.0,13657.0
3940,11977,US,72373,26.55,-81.17,Census,US County,FL,"Hendry County, Florida",0,0,0,0,0,0,0,0,0,0,0,0,0,0,3492.0,5237,6051,8119.0,11859.0,18599,25773,36210.0,39140.0
3962,13680,US,109285,30.5447222222,-83.8672222222,Census,City,FL,"Monticello, Florida",0,0,0,0,0,0,329,1083,1052,0,1218,1076,1829,1704,1901.0,2042,2264,2490.0,2473.0,2994,2573,2533.0,2506.0
3988,26702,US,109359,29.1455555556,-83.0416666667,Census,City,FL,"Cedar Key, Florida",0,0,0,0,0,0,0,0,440,0,0,739,864,695,1066.0,988,900,668.0,714.0,700,668,790.0,702.0
4016,9855,US,109755,27.2897222222,-82.5133333333,Census,Census-designated place,FL,"Ridge Wood Heights, Florida",0,0,0,0,0,0,0,0,0,0,0,0,0,0,0.0,0,0,0.0,2528.0,3951,4851,5028.0,4795.0
4020,12769,US,109327,26.4322222222,-81.8094444444,Census,Village,FL,"Estero, Florida",0,0,0,0,0,0,0,0,0,0,0,0,0,0,0.0,0,0,0.0,0.0,0,0,0.0,0.0
4139,9430,US,108981,30.17,-85.7558333333,Census,Census-designated place,FL,"Upper Grand Lagoon, Florida",0,0,0,0,0,0,0,0,0,0,0,0,0,0,0.0,0,0,0.0,0.0,3314,7855,10889.0,13963.0
4142,47008,US,109433,25.8605555556,-80.2938888889,Census,City,FL,"Hialeah, Florida",0,0,0,0,0,0,0,0,0,0,0,0,0,0,2600.0,3958,19676,66972.0,102452.0,145254,188004,226419.0,224669.0
4160,23420,US,74648,27.38,-80.44,Census,US County,FL,"St. Lucie County, Florida",0,0,0,0,0,0,0,0,0,0,0,0,4075,7886,7057.0,11871,20180,39294.0,50836.0,87182,150171,192695.0,277789.0
4164,17492,US,109497,24.7263888889,-81.0402777778,Census,City,FL,"Marathon, Florida",0,0,0,0,0,0,0,0,0,0,0,0,0,0,0.0,0,0,0.0,4397.0,7568,8857,10255.0,8297.0
4242,11147,US,108969,30.2122222222,-85.6061111111,Census,Census-designated place,FL,"Cedar Grove, Florida",0,0,0,0,0,0,0,0,0,0,0,0,0,0,0.0,0,0,676.0,689.0,1104,1479,5367.0,0.0
4275,12338,US,109783,28.6933333333,-81.2788888889,Census,City,FL,"Winter Springs, Florida",0,0,0,0,0,0,0,0,0,0,0,0,0,0,0.0,0,0,609.0,1161.0,10475,22151,31666.0,33282.0
4329,8824,US,109735,29.4961111111,-81.6002777778,Census,Town,FL,"Pomona Park, Florida",0,0,0,0,0,0,0,0,0,0,0,0,301,350,400.0,316,443,516.0,578.0,791,663,789.0,912.0
4359,11334,US,109379,27.5097222222,-82.7158333333,Census,City,FL,"Holmes Beach, Florida",0,0,0,0,0,0,0,0,0,0,0,0,0,0,0.0,0,137,1143.0,2699.0,4018,4810,4966.0,3836.0
4373,27009,US,23210284,26.9158333333,-82.0477777778,Census,City,FL,"Punta Gorda, Florida",0,0,0,0,0,0,0,0,0,0,262,860,1012,1295,1833.0,1889,1915,3157.0,3879.0,6797,10747,14344.0,16641.0
4396,4507,US,2415820,28.0138888889,-82.4011111111,Census,Unincorporated community,FL,"Del Rio, Florida",0,0,0,0,0,0,0,0,0,0,0,0,0,0,0.0,0,0,0.0,0.0,7409,8248,0.0,0.0
4408,10146,US,108977,30.1294444444,-85.6008333333,Census,City,FL,"Parker, Florida",0,0,0,0,0,0,0,0,0,0,0,0,0,0,0.0,0,0,2669.0,4212.0,4298,4598,4623.0,4317.0
4522,10001,US,109741,30.5992,-87.1614,Census,CDP,FL,"Pace, Florida",0,0,0,0,0,0,0,0,0,0,0,0,0,0,0.0,0,0,0.0,1776.0,5006,6277,7393.0,20039.0
4527,12760,US,109383,27.5222222222,-82.5783333333,Census,City,FL,"Palmetto, Florida",0,0,0,0,0,0,0,0,0,0,224,569,773,2046,3043.0,3491,4103,5556.0,7422.0,8637,9268,12571.0,12606.0
4551,38429,US,109422,25.8081444444,-80.3533222222,Census,City,FL,"Doral, Florida",0,0,0,0,0,0,0,0,0,0,0,0,0,0,0.0,0,0,0.0,0.0,0,3126,20438.0,45704.0
4555,25591,US,109220,27.4955555556,-81.4444444444,Census,City,FL,"Sebring, Florida",0,0,0,0,0,0,0,0,0,0,0,0,0,812,2912.0,3155,5006,6939.0,7223.0,8736,8900,9667.0,10491.0
4559,22023,US,109708,28.1116666667,-81.6286111111,Census,City,FL,"Haines City, Florida",0,0,0,0,0,0,0,0,0,0,0,0,0,651,3037.0,3890,5630,9135.0,8956.0,10799,11683,13174.0,20535.0
4621,18519,US,109144,,,Census,City,FL,"Arcadia, Florida",0,0,0,0,0,0,0,0,0,0,0,799,1736,3479,4082.0,4055,4764,5889.0,5658.0,6002,6488,6604.0,7637.0
4623,19237,US,109025,26.0813888889,-80.2802777778,Census,Town,FL,"Davie, Florida",0,0,0,0,0,0,0,0,0,0,0,0,0,0,0.0,0,0,0.0,5859.0,20500,47217,75720.0,91992.0
4648,12121,US,109853,30.6216666667,-85.7116666667,Census,City,FL,"Vernon, Florida",0,0,0,0,0,0,0,0,0,0,0,141,0,0,331.0,539,610,624.0,691.0,885,778,743.0,687.0
4652,23791,US,109824,29.0225,-81.2863888889,Census,City,FL,"DeLand, Florida",0,0,0,0,0,0,0,0,0,0,1113,1449,2812,3324,5246.0,7041,8652,10775.0,11641.0,15354,16491,20904.0,27031.0
4691,46509,US,109734,29.6477777778,-81.6513888889,Census,City,FL,"Palatka, Florida",0,0,0,0,0,0,0,613,720,1616,3039,3301,3779,5102,6500.0,7140,9176,11028.0,9444.0,10175,10201,10033.0,10558.0
4722,15955,US,72365,29.73,-82.8,Census,US County,FL,"Gilchrist County, Florida",0,0,0,0,0,0,0,0,0,0,0,0,0,0,4137.0,4250,3499,2868.0,3551.0,5767,9667,14437.0,16939.0
4870,14726,US,109629,26.5916666667,-80.0375,Census,Town,FL,"South Palm Beach, Florida",0,0,0,0,0,0,0,0,0,0,0,0,0,0,0.0,0,0,113.0,188.0,1304,1480,699.0,1171.0
4911,8949,US,109554,28.4608333333,-81.3916666667,Census,Census-designated place,FL,"Sky Lake, Florida",0,0,0,0,0,0,0,0,0,0,0,0,0,0,0.0,0,0,0.0,0.0,6692,6202,5651.0,6153.0
4926,20565,US,109052,25.9788888889,-80.2825,Census,City,FL,"Miramar, Florida",0,0,0,0,0,0,0,0,0,0,0,0,0,0,0.0,0,0,5485.0,23997.0,32813,40663,72739.0,122041.0
4961,23449,US,73625,30.61,-81.77,Census,US County,FL,"Nassau County, Florida",0,0,0,0,0,1892,2164,3644,4247,6635,8294,9654,10525,11340,9375.0,10826,12811,17189.0,20626.0,32894,43941,57663.0,73314.0
5137,20469,US,109623,26.7058333333,-80.2266666667,Census,Village,FL,"Royal Palm Beach, Florida",0,0,0,0,0,0,0,0,0,0,0,0,0,0,0.0,0,0,11.0,475.0,3423,14589,21523.0,34140.0
5149,43205,US,73610,,,Census,US County,FL,"Lee County, Florida",0,0,0,0,0,0,0,0,0,0,1414,3071,6294,9540,14990.0,17488,23404,54539.0,105216.0,205266,335113,440888.0,618754.0
5153,27742,US,109225,27.9333333333,-82.2833333333,Census,Census-designated place,FL,"Brandon, Florida",0,0,0,0,0,0,0,0,0,0,0,0,0,0,0.0,0,0,1665.0,12749.0,41826,57985,77895.0,103483.0
5198,35366,US,75113,29.05,-81.15,Census,US County,FL,"Volusia County, Florida",0,0,0,0,0,0,0,1158,1723,3294,8467,10003,16510,23374,42757.0,53710,74229,125319.0,169487.0,258762,370712,443343.0,494593.0
5352,12258,US,109188,30.6030555556,-83.1022222222,Census,Town,FL,"Jennings, Florida",0,0,0,0,0,0,0,0,0,0,0,0,480,628,561.0,499,549,516.0,582.0,749,712,833.0,878.0
5512,12614,US,109237,28.0813888889,-82.4780555556,Census,Census-designated place,FL,"Lake Magdalene, Florida",0,0,0,0,0,0,0,0,0,0,0,0,0,0,0.0,0,0,0.0,9266.0,13331,15973,28755.0,28509.0
5522,9100,US,109669,27.8688888889,-82.6247222222,Census,former Census-designated place (CDP); Unincorporated community,FL,"Gandy, Florida",0,0,0,0,0,0,0,0,0,0,0,0,0,0,0.0,0,0,0.0,0.0,0,3164,2031.0,0.0
5596,9515,US,109226,28.1463888889,-82.5155555556,Census,Census-designated place,FL,"Cheval, Florida",0,0,0,0,0,0,0,0,0,0,0,0,0,0,0.0,0,0,0.0,0.0,0,0,7602.0,10702.0
5630,6761,US,109085,26.1305555556,-80.1791666667,Census,CDP,FL,"Washington Park, Florida",0,0,0,0,0,0,0,0,0,0,0,0,0,0,0.0,0,0,0.0,0.0,7240,6930,1257.0,1672.0
5648,19155,US,72385,30.8,-85.21,Census,US County,FL,"Jackson County, Florida",0,0,0,0,0,4681,6639,10209,9528,14372,17544,23377,29821,31224,31969.0,34428,34645,36208.0,34434.0,39154,41375,46755.0,49746.0
5689,18992,US,72388,30.42,-83.9,Census,US County,FL,"Jefferson County, Florida",0,0,0,0,0,5713,7718,9876,13398,16065,15757,16195,17210,14502,13408.0,12032,10413,9543.0,8778.0,10703,11296,12902.0,14761.0
5756,53907,US,109719,28.0411111111,-81.9588888889,Census,City,FL,"Lakeland, Florida",0,0,0,0,0,0,0,0,0,0,552,1180,3719,7062,18554.0,22068,30851,41350.0,42803.0,47406,70576,78452.0,97422.0
5829,13596,US,109149,30.3038888889,-81.975,Census,Town,FL,"Baldwin, Florida",0,0,0,0,0,0,0,0,0,0,0,0,0,470,749.0,1002,1048,1272.0,1408.0,1526,1450,1634.0,1425.0
5841,27296,US,109830,29.2438888889,-81.0463888889,Census,City,FL,"Holly Hill, Florida",0,0,0,0,0,0,0,0,0,0,0,0,207,332,1146.0,1665,3232,4182.0,8191.0,9953,11141,12119.0,11659.0
6035,17588,US,109539,28.3775,-81.5216666667,Census,City,FL,"Lake Buena Vista, Florida",0,0,0,0,0,0,0,0,0,0,0,0,0,0,0.0,0,0,0.0,12.0,98,1776,16.0,10.0
6066,21010,US,109553,28.5816666667,-81.4694444444,Census,Census-designated place,FL,"Pine Hills, Florida",0,0,0,0,0,0,0,0,0,0,0,0,0,0,0.0,0,0,0.0,13882.0,35771,35322,41764.0,60076.0
6165,19520,US,72375,27.34,-81.34,Census,US County,FL,"Highlands County, Florida",0,0,0,0,0,0,0,0,0,0,0,0,0,0,9192.0,9246,13636,21338.0,29507.0,47526,68432,87366.0,98786.0
6264,9146,US,109850,30.7755555556,-85.8105555556,Census,Town,FL,"Caryville, Florida",0,0,0,0,0,0,0,0,0,0,0,0,0,440,1022.0,279,525,730.0,724.0,633,631,218.0,411.0
6357,22435,US,109464,25.6666666667,-80.3,Census,Village,FL,"Pinecrest, Florida",0,0,0,0,0,0,0,0,0,0,0,0,0,0,0.0,0,0,0.0,0.0,0,0,19055.0,18223.0
6375,17256,US,109455,25.8455722222,-80.1535444444,Census,City,FL,"North Bay Village, Florida",0,0,0,0,0,0,0,0,0,0,0,0,0,0,0.0,0,198,2006.0,4831.0,4920,5383,6733.0,7137.0
6377,21774,US,1276168,26.0586111111,-80.3372222222,Census,Town,FL,"Southwest Ranches, Florida",0,0,0,0,0,0,0,0,0,0,0,0,0,0,0.0,0,0,0.0,0.0,0,0,6779.0,7345.0
6459,16725,US,109834,28.8847222222,-80.8469444444,Census,City,FL,"Oak Hill, Florida",0,0,0,0,0,0,0,0,0,0,0,0,0,0,457.0,509,683,758.0,747.0,938,917,1378.0,1792.0
6487,11193,US,109544,28.3747222222,-81.3638888889,Census,Census-designated place,FL,"Meadow Woods, Florida",0,0,0,0,0,0,0,0,0,0,0,0,0,0,0.0,0,0,0.0,0.0,0,4876,11286.0,25558.0
6501,28673,US,109600,26.9261111111,-80.105,Census,Town,FL,"Jupiter, Florida",0,0,0,0,0,0,0,0,0,0,0,0,0,0,176.0,215,313,1058.0,3136.0,9868,24986,39328.0,55156.0
6525,19301,US,72352,27.19,-81.81,Census,US County,FL,"DeSoto County, Florida",0,0,0,0,0,0,0,0,0,0,4944,8047,14200,25434,7745.0,7792,9242,11683.0,13060.0,19039,23865,32209.0,34862.0
6571,11757,US,109476,25.755,-80.4036111111,Census,CDP,FL,"Tamiami, Florida",0,0,0,0,0,0,0,0,0,0,0,0,0,0,0.0,0,0,0.0,0.0,17607,33845,54788.0,55271.0
6619,10802,US,75112,30.04,-82.37,Census,US County,FL,"Union County, Florida",0,0,0,0,0,0,0,0,0,0,0,0,0,0,7428.0,7094,8906,6043.0,8112.0,10166,10252,13442.0,15535.0
6628,89919,US,74643,,,Census,US County,FL,"Pinellas County, Florida",0,0,0,0,0,0,0,0,0,0,0,0,0,28265,62149.0,91852,159249,374665.0,522329.0,728531,851659,921482.0,916542.0
6657,15966,US,109488,24.9358333333,-80.6136111111,Census,Village of Islands,FL,"Islamorada, Florida",0,0,0,0,0,0,0,0,0,0,0,0,0,0,0.0,0,0,0.0,1251.0,1441,1220,6846.0,6119.0
6771,11927,US,109335,26.6083333333,-81.6391666667,Census,CDP,FL,"Lehigh Acres, Florida",0,0,0,0,0,0,0,0,0,0,0,0,0,0,0.0,0,0,0.0,4394.0,9604,13611,33430.0,86784.0
6802,9298,US,109277,30.7969444444,-85.3761111111,Census,Town,FL,"Cottondale, Florida",0,0,0,0,0,0,0,0,0,0,0,0,0,438,550.0,719,747,849.0,765.0,1056,900,869.0,933.0
6912,35161,US,109416,25.7166666667,-80.2722222222,Census,City,FL,"Coral Gables, Florida",0,0,0,0,0,0,0,0,0,0,0,0,0,0,5697.0,8294,19837,34793.0,42494.0,43241,40091,42249.0,46780.0
6943,9447,US,109615,26.525,-80.0505555556,Census,Town,FL,"Ocean Ridge, Florida",0,0,0,0,0,0,0,0,0,0,0,0,0,0,0.0,37,67,209.0,1074.0,1355,1570,1636.0,1786.0
6967,9977,US,109190,27.6377777778,-81.8255555556,Census,City,FL,"Bowling Green, Florida",0,0,0,0,0,0,0,0,0,0,0,0,422,692,1025.0,950,884,1171.0,1357.0,2310,1836,2755.0,2930.0
7000,10419,US,109116,30.1772222222,-81.7416666667,Census,Census-designated place,FL,"Bellair-Meadowbrook Terrace, Florida",0,0,0,0,0,0,0,0,0,0,0,0,0,0,0.0,0,0,0.0,0.0,12144,15606,16539.0,13343.0
7029,10487,US,108979,30.1655555556,-85.6105555556,Census,City,FL,"Springfield, Florida",0,0,0,0,0,0,0,0,0,0,0,0,0,0,0.0,1188,1084,4628.0,5949.0,7220,8715,8810.0,8903.0
7120,13593,US,109459,25.7263888889,-80.345,Census,CDP,FL,"Olympia Heights, Florida",0,0,0,0,0,0,0,0,0,0,0,0,0,0,0.0,0,0,0.0,0.0,33112,37792,13452.0,13488.0
7135,9640,US,109394,29.3708333333,-82.1983333333,Census,Town,FL,"Reddick, Florida",0,0,0,0,0,0,0,0,0,0,0,0,498,312,363.0,392,433,594.0,305.0,657,554,571.0,506.0
7158,20599,US,75104,28.71,-82.08,Census,US County,FL,"Sumter County, Florida",0,0,0,0,0,0,0,1549,2952,4686,5363,6187,6696,7851,10644.0,11041,11330,11869.0,14839.0,24272,31577,53345.0,93420.0
7241,12019,US,109315,28.9330555556,-81.6644444444,Census,City,FL,"Umatilla, Florida",0,0,0,0,0,0,0,0,0,0,0,0,283,640,907.0,1149,1312,1717.0,1600.0,1872,2350,2214.0,3456.0
7308,42176,US,109676,27.9094444444,-82.7872222222,Census,Unknown,FL,"Largo, Florida",0,0,0,0,0,0,0,0,0,0,0,0,291,599,1429.0,1031,1547,5302.0,24230.0,57958,65674,69371.0,77648.0
7455,19980,US,109639,28.3613888889,-82.1933333333,Census,City,FL,"Dade City, Florida",0,0,0,0,0,0,0,0,0,0,321,509,1066,1296,1811.0,2561,3006,4759.0,4241.0,4923,5633,6188.0,6437.0
7490,44890,US,109002,27.9979222222,-80.6700083333,Census,City,FL,"Palm Bay, Florida",0,0,0,0,0,0,0,0,0,0,0,0,0,0,0.0,0,0,2808.0,7176.0,18560,62632,79413.0,103190.0
7498,15028,US,109246,27.9922222222,-82.2766666667,Census,Census-designated place,FL,"Seffner, Florida",0,0,0,0,0,0,0,0,0,0,0,0,0,0,0.0,0,0,0.0,0.0,0,5371,5467.0,7579.0
7550,8532,US,109587,26.6736111111,-80.0758333333,Census,Town,FL,"Glen Ridge, Florida",0,0,0,0,0,0,0,0,0,0,0,0,0,0,0.0,0,126,226.0,216.0,235,207,276.0,219.0
7551,10046,US,109531,28.4869444444,-81.3733333333,Census,City,FL,"Edgewood, Florida",0,0,0,0,0,0,0,0,0,0,0,0,0,0,103.0,34,217,436.0,392.0,1034,1062,1901.0,2503.0
7552,10180,US,109243,27.8963888889,-82.3633333333,Census,Census-designated place,FL,"Progress Village, Florida",0,0,0,0,0,0,0,0,0,0,0,0,0,0,0.0,0,0,0.0,2573.0,0,0,2482.0,5392.0
7639,8375,US,16122551,25.8022222222,-80.19,Census,Neighborhood of Miami,FL,Edgewater (Miami),0,0,0,0,0,0,0,0,0,0,0,0,0,0,0.0,0,0,0.0,0.0,0,0,14819.0,21826.0
7677,10867,US,109612,26.7580555556,-80.0738888889,Census,Town,FL,"Mangonia Park, Florida",0,0,0,0,0,0,0,0,0,0,0,0,0,0,0.0,0,348,594.0,827.0,1419,1453,1283.0,1888.0
7701,19918,US,109515,30.4444444444,-86.5819444444,Census,Town,FL,"Shalimar, Florida",0,0,0,0,0,0,0,0,0,0,0,0,0,0,0.0,0,694,754.0,578.0,390,341,718.0,717.0
7706,31120,US,109509,30.4202777778,-86.6166666667,Census,City,FL,"Fort Walton Beach, Florida",0,0,0,0,0,0,0,0,0,0,0,0,0,0,0.0,0,2463,12147.0,19994.0,20829,21471,19973.0,19507.0
7727,7548,US,109593,26.3858333333,-80.1844444444,Census,unincorporated place,FL,"Hamptons at Boca Raton, Florida",0,0,0,0,0,0,0,0,0,0,0,0,0,0,0.0,0,0,0.0,0.0,0,11686,11306.0,0.0
7731,12763,US,109839,29.0947222222,-80.9425,Census,Town,FL,"Ponce Inlet, Florida",0,0,0,0,0,0,0,0,0,0,0,0,0,0,0.0,0,0,0.0,328.0,1003,1704,2513.0,3032.0
7739,28876,US,109460,25.9012194444,-80.2508222222,Census,City,FL,"Opa-locka, Florida",0,0,0,0,0,0,0,0,0,0,0,0,0,0,339.0,497,5271,9810.0,11902.0,14460,15283,14951.0,15219.0
7792,44913,US,73622,27.4986666667,-82.5747222222,Census,US County,FL,"Manatee County, Florida",0,0,0,0,0,0,0,854,1931,3544,2895,4663,9550,18712,22502.0,26098,34704,69168.0,97115.0,148442,211707,264002.0,322833.0
7807,14530,US,109453,25.5166666667,-80.4166666667,Census,CDP,FL,"Naranja, Florida",0,0,0,0,0,0,0,0,0,0,0,0,0,0,0.0,0,0,2309.0,0.0,0,5790,4034.0,8303.0
7835,7372,US,109575,26.6597222222,-80.6825,Census,unincorporated place,FL,"Belle Glade Camp, Florida",0,0,0,0,0,0,0,0,0,0,0,0,0,0,0.0,0,1497,1658.0,1892.0,1645,1616,1141.0,0.0
7859,12046,US,109525,28.4644444444,-81.3502777778,Census,City,FL,"Belle Isle, Florida",0,0,0,0,0,0,0,0,0,0,0,0,0,0,0.0,0,0,2344.0,2705.0,2848,5272,5531.0,5988.0
7904,21581,US,109451,25.8652388889,-80.1883333333,Census,Village,FL,"Miami Shores, Florida",0,0,0,0,0,0,0,0,0,0,0,0,0,0,612.0,1956,5086,8865.0,9425.0,9244,10084,10380.0,10493.0
7905,13946,US,109412,25.8718388889,-80.1819805556,Census,Village,FL,"Biscayne Park, Florida",0,0,0,0,0,0,0,0,0,0,0,0,0,0,0.0,500,2009,2911.0,2717.0,3088,3068,3269.0,3055.0
7998,8562,US,109594,26.6902777778,-80.1208333333,Census,Town,FL,"Haverhill, Florida",0,0,0,0,0,0,0,0,0,0,0,0,0,0,0.0,0,0,442.0,1034.0,1249,1058,1454.0,1873.0
8122,23581,US,108991,28.087861,-80.568857,Census,Town,FL,"Indialantic, Florida",0,0,0,0,0,0,0,0,0,0,0,0,0,0,0.0,0,0,1653.0,2685.0,2883,2844,2944.0,2720.0
8137,34194,US,109780,28.6597222222,-81.1958333333,Census,City,FL,"Oviedo, Florida",0,0,0,0,0,0,0,0,0,0,0,0,0,0,1042.0,1356,1601,1926.0,1870.0,3074,11114,26316.0,33342.0
8150,18943,US,72003,30.32,-82.27,Census,US County,FL,"Baker County, Florida",0,0,0,0,0,0,0,0,1325,2303,3333,4516,4805,5622,6273.0,6510,6313,7363.0,9242.0,15289,18486,22259.0,27115.0
8211,12404,US,73635,27.39,-80.89,Census,US County,FL,"Okeechobee County, Florida",0,0,0,0,0,0,0,0,0,0,0,0,0,2132,4129.0,3000,3454,6424.0,11233.0,20264,29627,35910.0,39996.0
8241,72073,US,27905225,,,Census,US County,FL,"Miami-Dade County, Florida",0,0,0,0,0,446,159,83,85,257,861,4955,11933,42753,142955.0,267739,495084,935047.0,1267792.0,1625781,1937094,2253362.0,2496435.0
8363,61563,US,109790,29.8947222222,-81.3144444444,Census,City,FL,"St. Augustine, Florida",0,0,0,0,1708,2450,1934,1914,1717,2293,4742,4272,5494,6192,12111.0,12090,13555,14734.0,12352.0,11985,11692,11592.0,12975.0
8537,12235,US,109253,27.7097222222,-82.3177777778,Census,Census-designated place,FL,"Wimauma, Florida",0,0,0,0,0,0,0,0,0,0,0,0,0,0,400.0,557,440,576.0,0.0,1477,2932,4246.0,6373.0
8551,11070,US,109089,30.5716666667,-85.1275,Census,Town,FL,"Altha, Florida",0,0,0,0,0,0,0,0,0,0,0,0,0,0,0.0,0,434,413.0,423.0,478,497,506.0,536.0
8601,15227,US,109254,30.7833333333,-85.6833333333,Census,City,FL,"Bonifay, Florida",0,0,0,0,0,0,0,0,0,0,0,0,922,1230,1292.0,1924,2252,2222.0,2068.0,2534,2612,4078.0,2793.0
8643,14699,US,109716,28.0936111111,-81.725,Census,City,FL,"Lake Alfred, Florida",0,0,0,0,0,0,0,0,0,0,0,0,0,317,629.0,920,1270,2191.0,2847.0,3134,3622,3890.0,5015.0
8646,12663,US,109493,24.7244444444,-81.0180555556,Census,town,FL,"Key Colony Beach, Florida",0,0,0,0,0,0,0,0,0,0,0,0,0,0,0.0,0,0,66.0,371.0,977,977,788.0,797.0
8681,9115,US,109158,30.4372222222,-87.2305555556,Census,Census-designated place,FL,"Goulding, Florida",0,0,0,0,0,0,0,0,0,0,0,0,0,0,0.0,0,0,0.0,0.0,5352,4159,4484.0,4102.0
8684,23778,US,109681,27.8522222222,-82.7072222222,Census,City,FL,"Pinellas Park, Florida",0,0,0,0,0,0,0,0,0,0,0,0,0,134,465.0,691,2924,10848.0,22287.0,32811,43426,45658.0,49079.0
8715,22699,US,109766,27.1,-82.4333333333,Census,City,FL,"Venice, Florida",0,0,0,0,0,0,0,0,0,0,0,0,0,0,309.0,507,727,3444.0,6648.0,12153,16922,17764.0,20748.0
8729,12090,US,109692,27.7688888889,-82.7683333333,Census,City,FL,"Treasure Island, Florida",0,0,0,0,0,0,0,0,0,0,0,0,0,0,0.0,0,75,3506.0,6120.0,6316,7266,7450.0,6705.0
8819,7425,US,109588,26.7002777778,-80.1675,Census,unincorporated place,FL,"Golden Lakes, Florida",0,0,0,0,0,0,0,0,0,0,0,0,0,0,0.0,0,0,0.0,0.0,0,3867,6694.0,0.0
8876,13188,US,109523,28.455,-81.5055555556,Census,Census-designated place,FL,"Bay Hill, Florida",0,0,0,0,0,0,0,0,0,0,0,0,0,0,0.0,0,0,0.0,0.0,0,5346,5177.0,4884.0
8888,48838,US,74644,27.96,-81.7,Census,US County,FL,"Polk County, Florida",0,0,0,0,0,0,0,0,3169,3181,7905,12472,24148,38661,72291.0,86665,123997,195139.0,227222.0,321652,405382,483924.0,602095.0
8927,23122,US,75116,30.15,-84.38,Census,US County,FL,"Wakulla County, Florida",0,0,0,0,0,0,1955,2839,2506,2723,3117,5149,4802,5129,5468.0,5463,5258,5257.0,6308.0,10887,14202,22863.0,30776.0
8977,10237,US,109259,27.7666666667,-80.5986111111,Census,City,FL,"Fellsmere, Florida",0,0,0,0,0,0,0,0,0,0,0,0,0,333,356.0,643,649,732.0,813.0,1161,2179,3813.0,5197.0
9010,13321,US,109391,29.05,-82.45,Census,City,FL,"Dunnellon, Florida",0,0,0,0,0,0,0,0,0,0,532,700,1227,1185,1194.0,1066,1110,1079.0,1146.0,1427,1624,1898.0,1733.0
9067,13891,US,109483,25.7572222222,-80.2966666667,Census,City,FL,"West Miami, Florida",0,0,0,0,0,0,0,0,0,0,0,0,0,0,0.0,0,4043,5296.0,5494.0,6076,5727,5863.0,5965.0
9086,9559,US,109591,26.4902777778,-80.0611111111,Census,Town,FL,"Gulf Stream, Florida",0,0,0,0,0,0,0,0,0,0,0,0,0,0,0.0,93,163,176.0,408.0,475,690,716.0,786.0
9138,6129,US,21690855,28.0111111111,-82.5169444444,Census,Unincorporated community,FL,"Leto, Florida",0,0,0,0,0,0,0,0,0,0,0,0,0,0,0.0,0,0,0.0,8458.0,9003,10347,0.0,0.0
9144,16140,US,109217,27.5944444444,-81.5033333333,Census,City,FL,"Avon Park, Florida",0,0,0,0,0,0,0,0,0,0,0,0,0,890,3355.0,3125,4612,6073.0,6712.0,8026,8042,8542.0,8836.0
9193,33206,US,1178908,25.9421222222,-80.2699194444,Census,City,FL,"Miami Gardens, Florida",0,0,0,0,0,0,0,0,0,0,0,0,0,0,0.0,0,0,0.0,0.0,0,0,124656.0,107167.0
9256,10721,US,109733,29.6227777778,-81.8947222222,Census,Town,FL,"Interlachen, Florida",0,0,0,0,0,0,0,0,0,0,207,147,263,177,235.0,251,297,349.0,478.0,848,1160,1475.0,1403.0
9261,20762,US,72348,30.23,-82.63,Census,US County,FL,"Columbia County, Florida",0,0,0,0,0,2102,4808,4646,7335,9589,12877,17094,17689,14290,14638.0,16859,18216,20077.0,25250.0,35399,42613,56513.0,67531.0
9263,24361,US,109061,26.0125,-80.3136111111,Census,City,FL,"Pembroke Pines, Florida",0,0,0,0,0,0,0,0,0,0,0,0,0,0,0.0,0,0,1429.0,15496.0,35776,65452,137427.0,154750.0
9314,10144,US,109506,30.4216666667,-86.6091666667,Census,Town,FL,"Cinco Bayou, Florida",0,0,0,0,0,0,0,0,0,0,0,0,0,0,0.0,0,0,643.0,362.0,202,322,377.0,383.0
9320,10439,US,109818,30.0216666667,-82.3408333333,Census,city,FL,"Lake Butler, Union County, Florida",0,0,0,0,0,0,0,0,0,0,0,431,685,756,886.0,923,1040,1311.0,1598.0,1830,2116,1927.0,1897.0
9338,10422,US,109406,27.2,-80.2,Census,Town,FL,"Sewall's Point, Florida",0,0,0,0,0,0,0,0,0,0,0,0,0,0,0.0,0,0,151.0,298.0,1187,1588,1946.0,1996.0
9387,18814,US,109656,28.2372222222,-82.1794444444,Census,City,FL,"Zephyrhills, Florida",0,0,0,0,0,0,0,0,0,0,0,0,0,577,748.0,1252,1826,2887.0,3369.0,5742,8220,10833.0,13288.0
9469,10152,US,109392,29.4494444444,-82.2205555556,Census,Town,FL,"McIntosh, Florida",0,0,0,0,0,0,0,0,0,0,0,0,0,440,272.0,397,247,258.0,287.0,404,411,453.0,452.0
9504,10854,US,109191,27.5461111111,-81.8144444444,Census,City,FL,"Wauchula, Florida",0,0,0,0,0,0,0,0,0,0,0,0,1099,2081,2574.0,2710,2872,3411.0,3007.0,3296,3253,4368.0,5001.0
9599,6066,US,109461,25.9211111111,-80.2627777778,Census,Neighborhood of Miami Gardens,FL,"Opa-locka North, Florida",0,0,0,0,0,0,0,0,0,0,0,0,0,0,0.0,0,0,0.0,0.0,5721,6568,6224.0,0.0
9692,13963,US,109516,30.5,-86.5,Census,City,FL,"Valparaiso, Florida",0,0,0,0,0,0,0,0,0,0,0,0,0,0,99.0,221,1047,5975.0,6504.0,6142,4672,6408.0,5036.0
9701,6995,US,109069,26.0975,-80.1897222222,Census,neighborhood,FL,Riverland Village,0,0,0,0,0,0,0,0,0,0,0,0,0,0,0.0,0,0,0.0,5512.0,5919,5376,2108.0,0.0
9752,47446,US,73640,,,Census,US County,FL,"Orange County, Florida",0,0,0,0,0,73,466,987,2195,6618,12584,11374,19107,19890,49737.0,70074,114950,263540.0,344311.0,471016,677491,896344.0,1145956.0
9758,12149,US,72370,30.49,-82.95,Census,US County,FL,"Hamilton County, Florida",0,0,0,0,0,1464,2511,4154,5749,6790,8507,11881,11825,9873,9454.0,9778,8981,7705.0,7787.0,8761,10930,13327.0,14799.0
9787,8426,US,109330,26.7122222222,-81.7380555556,Census,CDP,FL,"Fort Myers Shores, Florida",0,0,0,0,0,0,0,0,0,0,0,0,0,0,0.0,0,0,0.0,0.0,4426,5460,5793.0,0.0
9808,11887,US,109573,26.5933333333,-80.1044444444,Census,City,FL,"Atlantis, Florida",0,0,0,0,0,0,0,0,0,0,0,0,0,0,0.0,0,0,2.0,425.0,1325,1653,2005.0,2005.0
9848,12045,US,109614,26.8183333333,-80.0636111111,Census,Village,FL,"North Palm Beach, Florida",0,0,0,0,0,0,0,0,0,0,0,0,0,0,0.0,0,0,2684.0,9035.0,11344,11343,12064.0,12015.0
9991,8489,US,109800,27.3225,-80.3341666667,Census,Census-designated place,FL,"River Park, Florida",0,0,0,0,0,0,0,0,0,0,0,0,0,0,0.0,0,0,0.0,0.0,0,4874,5175.0,0.0
9993,56312,US,72378,27.91,-82.35,Census,US County,FL,"Hillsborough County, Florida",0,0,0,0,0,452,2377,2981,3216,5814,14941,36013,78374,88257,153519.0,180148,249894,397788.0,490265.0,646960,834054,998948.0,1229226.0
9997,10221,US,109121,29.9811111111,-81.81,Census,Town,FL,"Penney Farms, Florida",0,0,0,0,0,0,0,0,0,0,0,0,0,0,825.0,370,445,545.0,561.0,630,609,580.0,749.0
10055,8485,US,109325,26.5380555556,-81.9016666667,Census,CDP,FL,"Cypress Lake, Florida",0,0,0,0,0,0,0,0,0,0,0,0,0,0,0.0,0,0,0.0,0.0,8721,10491,12072.0,0.0
10078,39323,US,109328,26.6166666667,-81.8333333333,Census,City,FL,"Fort Myers, Florida",0,0,0,0,0,0,0,0,0,0,575,943,2463,3678,9082.0,10604,13195,22523.0,27351.0,36638,45206,48208.0,62298.0
10109,10360,US,109768,27.0475,-82.2688888889,Census,Census-designated place,FL,"Warm Mineral Springs, Florida",0,0,0,0,0,0,0,0,0,0,0,0,0,0,0.0,0,0,0.0,0.0,0,4041,4811.0,5061.0
10158,9058,US,109767,27.0705555556,-82.4077777778,Census,Census-designated place,FL,"Venice Gardens, Florida",0,0,0,0,0,0,0,0,0,0,0,0,0,0,0.0,0,0,0.0,0.0,6568,7701,7466.0,7104.0
10195,10088,US,109550,28.5444444444,-81.4616666667,Census,Census-designated place &amp; Unincorporated community,FL,"Orlo Vista, Florida",0,0,0,0,0,0,0,0,0,0,0,0,0,0,0.0,0,0,0.0,0.0,6474,5990,6047.0,6123.0
10199,6609,US,109408,25.9661111111,-80.2052777778,Census,Neighborhood of Miami Gardens,FL,"Andover, Florida",0,0,0,0,0,0,0,0,0,0,0,0,0,0,0.0,0,0,0.0,0.0,0,6251,8489.0,0.0
10228,17397,US,109283,30.7763888889,-85.2380555556,Census,City,FL,"Marianna, Florida",0,0,0,0,0,0,356,440,663,586,926,900,1915,2499,3372.0,5079,5845,7152.0,7282.0,7006,6292,6230.0,6102.0
10250,10714,US,109146,29.6352777778,-83.1247222222,Census,Town,FL,"Cross City, Florida",0,0,0,0,0,0,0,0,0,0,0,0,0,0,1071.0,1869,1522,1857.0,2268.0,2154,2041,1775.0,1728.0
10267,9910,US,109568,28.2605555556,-81.4502777778,Census,CDP,FL,"Campbell, Florida",0,0,0,0,0,0,0,0,0,0,0,0,0,0,0.0,0,0,0.0,0.0,2941,3884,2677.0,2479.0
10271,12916,US,109079,26.2125,-80.25,Census,City,FL,"Tamarac, Florida",0,0,0,0,0,0,0,0,0,0,0,0,0,0,0.0,0,0,0.0,5193.0,29376,44822,55588.0,60427.0
10297,15186,US,109685,28.005,-82.695,Census,City,FL,"Safety Harbor, Florida",0,0,0,0,0,0,0,0,0,0,0,0,0,429,765.0,694,894,1787.0,3103.0,6461,15124,17203.0,16884.0
10325,13600,US,109238,28.1394444444,-82.4619444444,Census,Census-designated place,FL,"Lutz, Florida",0,0,0,0,0,0,0,0,0,0,0,0,0,0,0.0,0,0,0.0,0.0,5555,10552,17081.0,19344.0
10339,25512,US,109381,27.3969444444,-82.6447222222,Census,Town,FL,"Longboat Key, Florida",0,0,0,0,0,0,0,0,0,0,0,0,0,0,0.0,0,0,1000.0,2850.0,4843,5937,7603.0,6888.0
10346,34165,US,74652,,,Census,US County,FL,"Sarasota County, Florida",0,0,0,0,0,0,0,0,0,0,0,0,0,0,12440.0,16106,28827,76895.0,120413.0,202251,277776,325957.0,379448.0
10356,157142,US,72008,,,Census,US County,FL,"Brevard County, Florida",0,0,0,0,0,0,0,246,1216,1478,3401,5158,4717,8505,13283.0,16142,23653,111435.0,230006.0,272959,398978,476320.0,543376.0
10395,13833,US,109060,25.9844444444,-80.1772222222,Census,Town,FL,"Pembroke Park, Florida",0,0,0,0,0,0,0,0,0,0,0,0,0,0,0.0,0,0,569.0,2949.0,5326,4933,6299.0,6102.0
10408,9607,US,109714,28.0169444444,-81.7777777778,Census,CDP,FL,"Jan Phyl Village, Florida",0,0,0,0,0,0,0,0,0,0,0,0,0,0,0.0,0,0,0.0,1340.0,2785,5308,5633.0,0.0
10413,11911,US,109186,30.1141666667,-85.1986111111,Census,City,FL,"Wewahitchka, Florida",0,0,0,0,0,0,0,0,0,0,0,0,0,0,584.0,1022,1289,1436.0,1733.0,1742,1779,1722.0,1981.0
10491,31086,US,109832,29.0305555556,-80.9252777778,Census,City,FL,"New Smyrna Beach, Florida",0,0,0,0,0,0,0,0,0,119,287,543,1121,2007,4149.0,4402,5775,8781.0,10580.0,13557,16543,20048.0,22464.0
10497,8484,US,109648,28.26,-82.6905555556,Census,CDP,FL,"New Port Richey East, Florida",0,0,0,0,0,0,0,0,0,0,0,0,0,0,0.0,0,0,0.0,2758.0,6147,9683,9916.0,0.0
10516,9347,US,109305,28.5994444444,-81.6761111111,Census,Town,FL,"Montverde, Florida",0,0,0,0,0,0,0,0,0,0,0,0,0,0,297.0,312,293,374.0,308.0,397,890,882.0,1463.0
10533,12040,US,109702,28.0208333333,-81.6208333333,Census,Town,FL,"Dundee, Florida",0,0,0,0,0,0,0,0,0,0,0,0,0,0,615.0,694,1152,1554.0,1660.0,2227,2335,2912.0,3717.0
10535,12939,US,109215,28.5155555556,-82.5786111111,Census,City,FL,"Weeki Wachee, Florida",0,0,0,0,0,0,0,0,0,0,0,0,0,0,0.0,0,0,0.0,76.0,8,53,12.0,12.0
10584,12625,US,109438,25.8791666667,-80.1311111111,Census,Village,FL,"Indian Creek, Florida",0,0,0,0,0,0,0,0,0,0,0,0,0,0,0.0,0,44,60.0,82.0,103,44,33.0,86.0
10679,22018,US,109057,26.1763888889,-80.1444444444,Census,City,FL,"Oakland Park, Florida",0,0,0,0,0,0,0,0,0,0,0,0,0,0,463.0,815,1295,5331.0,16261.0,22944,26326,30966.0,41363.0
10691,13485,US,109447,25.4941666667,-80.4361111111,Census,CDP,FL,"Leisure City, Florida",0,0,0,0,0,0,0,0,0,0,0,0,0,0,0.0,0,0,3001.0,0.0,17905,19379,22152.0,0.0
10806,15444,US,74646,29.91,-81.41,Census,US County,FL,"St. Johns County, Florida",0,0,0,0,0,2694,2525,3038,2618,4535,8712,9165,13208,13061,18676.0,20012,24998,30034.0,30727.0,51303,83829,123135.0,190039.0
10877,17848,US,109167,29.4741666667,-81.1269444444,Census,City,FL,"Flagler Beach, Florida",0,0,0,0,0,0,0,0,0,0,0,0,0,0,198.0,133,374,970.0,1042.0,2208,3820,4954.0,4484.0
10907,9228,US,108966,30.2761111111,-82.1613888889,Census,Town,FL,"Glen St. Mary, Florida",0,0,0,0,0,0,0,0,0,0,0,0,0,0,0.0,0,0,329.0,357.0,462,480,473.0,437.0
10911,9534,US,109762,27.0458333333,-82.415,Census,Census-designated place,FL,"South Venice, Florida",0,0,0,0,0,0,0,0,0,0,0,0,0,0,0.0,0,0,0.0,4680.0,8075,11951,13539.0,13949.0
10945,12877,US,109294,28.8586111111,-81.9130555556,Census,City,FL,"Fruitland Park, Florida",0,0,0,0,0,0,0,0,0,0,0,0,0,0,270.0,362,551,774.0,1359.0,2259,2754,3186.0,4078.0
10987,28324,US,58062,29.21,-82.06,Census,US County,FL,"Marion County, Florida",0,0,0,0,0,0,3338,8609,10804,13046,20796,24403,26941,23968,29578.0,31243,38187,51616.0,69030.0,122488,194833,258916.0,331298.0
11030,6884,US,109608,26.7369444444,-80.1125,Census,unincorporated place,FL,"Lakeside Green, Florida",0,0,0,0,0,0,0,0,0,0,0,0,0,0,0.0,0,0,0.0,0.0,0,2994,3311.0,0.0
11046,13519,US,73621,30.45,-83.47,Census,US County,FL,"Madison County, Florida",0,0,0,0,0,2644,5490,7779,11121,14798,14316,15446,16919,16516,15614.0,16190,14197,14154.0,13481.0,14894,16569,18733.0,19224.0
11057,79939,US,109634,26.7097222222,-80.0641666667,Census,City,FL,"West Palm Beach, Florida",0,0,0,0,0,0,0,0,0,0,244,564,1743,8659,26610.0,33693,43162,56208.0,57375.0,63305,67643,82103.0,99919.0
11175,9601,US,109263,27.7761111111,-80.4133333333,Census,Town,FL,"Orchid, Florida",0,0,0,0,0,0,0,0,0,0,0,0,0,0,0.0,0,0,0.0,8.0,19,10,140.0,415.0
11180,10230,US,108962,29.85,-82.4,Census,Town,FL,"LaCrosse, Florida",0,0,0,0,0,0,0,0,0,0,0,0,0,0,374.0,192,146,165.0,365.0,170,122,143.0,360.0
11190,16764,US,109695,28.0669444444,-81.7952777778,Census,City,FL,"Auburndale, Florida",0,0,0,0,0,0,0,0,0,0,0,0,0,715,1849.0,2723,3763,5595.0,5386.0,6501,8858,11032.0,13507.0
11250,27608,US,108987,28.3883333333,-80.6036111111,Census,City,FL,"Cape Canaveral, Florida",0,0,0,0,0,0,0,0,0,0,0,0,0,0,0.0,0,0,0.0,4258.0,5733,8014,8829.0,9912.0
11253,24487,US,109407,27.1922222222,-80.2430555556,Census,City,FL,"Stuart, Florida",0,0,0,0,0,0,0,0,0,0,0,0,0,778,1924.0,2438,2912,4791.0,4820.0,9467,11936,14633.0,15593.0
11283,10813,US,655998,24.5977777778,-81.6566666667,Census,Census-designated place (CDP) &amp; Unincorporated community,FL,Big Coppitt Key,0,0,0,0,0,0,0,0,0,0,0,0,0,0,0.0,0,0,0.0,0.0,1856,2388,2595.0,0.0
11287,9954,US,108982,29.8888888889,-82.3313888889,Census,Town,FL,"Brooker, Florida",0,0,0,0,0,0,0,0,0,0,0,0,0,0,0.0,0,277,292.0,340.0,429,312,352.0,338.0
11342,10124,US,109660,27.8191666667,-82.7766666667,Census,Census-designated place,FL,"Bay Pines, Florida",0,0,0,0,0,0,0,0,0,0,0,0,0,0,0.0,0,0,0.0,0.0,5757,4171,3065.0,2931.0
11386,16465,US,109265,27.7827777778,-80.4822222222,Census,City,FL,"Sebastian, Florida",0,0,0,0,0,0,0,0,0,0,0,0,0,0,386.0,425,376,698.0,825.0,2831,10205,16181.0,21929.0
11439,10988,US,109677,27.7958333333,-82.7905555556,Census,City,FL,"Madeira Beach, Florida",0,0,0,0,0,0,0,0,0,0,0,0,0,0,0.0,0,916,3943.0,4177.0,4520,4225,4511.0,4263.0
11442,9515,US,109668,27.905,-82.6736111111,Census,Census-designated place,FL,"Feather Sound, Florida",0,0,0,0,0,0,0,0,0,0,0,0,0,0,0.0,0,0,0.0,0.0,0,2690,3597.0,3420.0
11459,15184,US,109671,27.7505555556,-82.7086111111,Census,City,FL,"Gulfport, Florida",0,0,0,0,0,0,0,0,0,0,0,0,0,0,851.0,1581,3702,9730.0,9976.0,11180,11727,12527.0,12029.0
11465,17437,US,109169,29.5380555556,-81.2233333333,Census,City,FL,"Palm Coast, Florida",0,0,0,0,0,0,0,0,0,0,0,0,0,0,0.0,0,0,0.0,0.0,2837,14287,32732.0,75180.0
11530,12649,US,109109,28.8072222222,-82.55,Census,Census-designated place,FL,"Homosassa Springs, Florida",0,0,0,0,0,0,0,0,0,0,0,0,0,0,0.0,0,0,0.0,0.0,0,6271,12458.0,13791.0
11540,9928,US,109200,28.4863888889,-82.6577777778,Census,Census-designated place,FL,"Hernando Beach, Florida",0,0,0,0,0,0,0,0,0,0,0,0,0,0,0.0,0,0,0.0,0.0,0,1767,2185.0,2299.0
11844,21303,US,109019,26.275,-80.1847222222,Census,City,FL,"Coconut Creek, Florida",0,0,0,0,0,0,0,0,0,0,0,0,0,0,0.0,0,0,0.0,1359.0,6288,27485,43566.0,52909.0
11845,13105,US,109366,29.3869444444,-82.4466666667,Census,City,FL,"Williston, Florida",0,0,0,0,0,0,0,0,0,0,0,184,371,823,940.0,890,1323,1582.0,1939.0,2240,2179,2297.0,2768.0
12200,8830,US,2287748,28.3308333333,-81.3516666667,Census,CDP,FL,"Buenaventura Lakes, Florida",0,0,0,0,0,0,0,0,0,0,0,0,0,0,0.0,0,0,0.0,0.0,0,14148,21778.0,26079.0
12234,10611,US,109737,30.5958333333,-87.0355555556,Census,CDP,FL,"Bagdad, Florida",0,0,0,0,0,0,0,0,0,0,0,0,0,0,0.0,0,0,0.0,0.0,1479,1457,1490.0,0.0
12347,14998,US,75118,30.61,-86.17,Census,US County,FL,"Walton County, Florida",0,0,0,0,0,1461,1817,3037,3041,4201,4816,9346,16460,12119,14576.0,14246,14725,15576.0,16087.0,21300,27760,40601.0,55043.0
12401,16474,US,109131,25.9405555556,-81.7147222222,Census,City,FL,"Marco Island, Florida",0,0,0,0,0,0,0,0,0,0,0,0,0,0,0.0,0,0,0.0,0.0,4694,9493,14879.0,16413.0
12413,9218,US,109477,25.6694444444,-80.4011111111,Census,CDP,FL,"The Crossings, Florida",0,0,0,0,0,0,0,0,0,0,0,0,0,0,0.0,0,0,0.0,0.0,11986,22290,23557.0,22758.0
12423,10630,US,109628,26.6663888889,-80.7188888889,Census,City,FL,"South Bay, Florida",0,0,0,0,0,0,0,0,0,0,0,0,0,0,0.0,0,1050,1631.0,2958.0,3886,3558,3859.0,4876.0
12424,11199,US,108957,29.7791666667,-82.4797222222,Census,City,FL,"Alachua, Florida",0,0,0,0,0,0,0,0,0,0,0,0,610,778,865.0,1081,1116,1974.0,2252.0,3561,4529,6098.0,9059.0
12436,10166,US,109296,28.7161111111,-81.7744444444,Census,Town,FL,"Howey-in-the-Hills, Florida",0,0,0,0,0,0,0,0,0,0,0,0,0,0,338.0,203,188,402.0,466.0,626,724,956.0,1098.0
12444,16528,US,108963,29.5063888889,-82.2819444444,Census,Town,FL,"Micanopy, Florida",0,0,0,0,0,0,0,0,0,432,494,645,613,546,725.0,720,612,658.0,759.0,737,612,653.0,600.0
12487,31462,US,109566,28.5961111111,-81.3466666667,Census,City,FL,"Winter Park, Florida",0,0,0,0,0,0,0,0,0,0,270,366,570,1078,3686.0,4715,8250,17162.0,21895.0,22339,22242,24090.0,27852.0
12505,5556,US,22152093,26.0211111111,-80.1838888889,Census,neighborhood,FL,"West Hollywood (Hollywood, Florida)",0,0,0,0,0,0,0,0,0,0,0,0,0,0,0.0,0,1196,0.0,0.0,0,0,0.0,0.0
12530,10019,US,109231,28.0152777778,-82.5072222222,Census,Census-designated place,FL,"Egypt Lake-Leto, Florida",0,0,0,0,0,0,0,0,0,0,0,0,0,0,0.0,0,0,0.0,0.0,0,0,32782.0,35282.0
12664,12326,US,109842,29.1652777778,-81.0091666667,Census,City,FL,"South Daytona, Florida",0,0,0,0,0,0,0,0,0,0,0,0,0,0,0.0,571,692,1954.0,4979.0,11252,12482,13177.0,12252.0
12778,10934,US,109249,28.01,-82.5727777778,Census,Census-designated place,FL,"Town 'n' Country, Florida",0,0,0,0,0,0,0,0,0,0,0,0,0,0,0.0,0,0,0.0,19453.0,37834,60946,72523.0,78422.0
12786,9885,US,109711,27.8652777778,-81.5658333333,Census,Village,FL,"Highland Park, Florida",0,0,0,0,0,0,0,0,0,0,0,0,0,0,0.0,75,52,94.0,88.0,184,155,244.0,230.0
12814,13631,US,109805,28.8002777778,-82.0688888889,Census,City,FL,"Coleman, Florida",0,0,0,0,0,0,0,0,0,0,0,0,387,640,786.0,764,849,921.0,614.0,1022,857,647.0,703.0
12861,12239,US,109428,25.84,-80.2355555556,Census,CDP,FL,"Gladeview, Florida",0,0,0,0,0,0,0,0,0,0,0,0,0,0,0.0,0,0,0.0,0.0,18919,15637,14468.0,11535.0
12899,9990,US,109682,27.8116666667,-82.8116666667,Census,Town,FL,"Redington Beach, Florida",0,0,0,0,0,0,0,0,0,0,0,0,0,0,0.0,0,384,1368.0,1583.0,1708,1626,1539.0,1427.0
12904,14571,US,109482,25.8569444444,-80.2369444444,Census,CDP,FL,"West Little River, Florida",0,0,0,0,0,0,0,0,0,0,0,0,0,0,0.0,0,0,0.0,0.0,32492,33575,32498.0,34699.0
12906,13066,US,109787,29.7166666667,-81.5083333333,Census,Town,FL,"Hastings, Florida",0,0,0,0,0,0,0,0,0,0,0,0,399,761,673.0,1035,577,617.0,628.0,636,595,521.0,580.0
12908,10676,US,109059,26.3152777778,-80.2405555556,Census,City,FL,"Parkland, Florida",0,0,0,0,0,0,0,0,0,0,0,0,0,0,0.0,0,0,0.0,165.0,545,3558,13835.0,23962.0
12923,13793,US,109218,27.2963888889,-81.3647222222,Census,Town,FL,"Lake Placid, Florida",0,0,0,0,0,0,0,0,0,0,0,0,0,0,582.0,340,417,1007.0,656.0,963,1158,1668.0,2223.0
13046,15226,US,109120,30.1686111111,-81.7086111111,Census,Town,FL,"Orange Park, Florida",0,0,0,0,0,0,0,0,0,134,228,245,372,333,661.0,668,1502,2624.0,5019.0,8766,9488,9081.0,8412.0
13053,9874,US,109663,27.9194444444,-82.8163888889,Census,City,FL,"Belleair Bluffs, Florida",0,0,0,0,0,0,0,0,0,0,0,0,0,0,0.0,0,0,0.0,1910.0,2522,2128,2243.0,2031.0
13138,8955,US,109854,30.6322222222,-85.5891666667,Census,Town,FL,"Wausau, Florida",0,0,0,0,0,0,0,0,0,0,0,0,0,0,0.0,0,0,0.0,288.0,347,313,398.0,383.0
13161,18182,US,109680,28.0838888889,-82.7538888889,Census,Census-designated place,FL,"Palm Harbor, Florida",0,0,0,0,0,0,0,0,0,0,0,0,0,0,0.0,0,0,0.0,0.0,5215,50256,59248.0,57439.0
13255,15139,US,109712,27.8241666667,-81.5330555556,Census,Town,FL,"Hillcrest Heights, Florida",0,0,0,0,0,0,0,0,0,0,0,0,0,0,71.0,96,91,138.0,154.0,177,221,266.0,254.0
13275,66786,US,109449,25.813025,-80.1340638889,Census,City,FL,"Miami Beach, Florida",0,0,0,0,0,0,0,0,0,0,0,0,0,644,6494.0,28012,46282,63145.0,87072.0,96298,92639,87933.0,87779.0
13302,21015,US,74651,30.7,-87.02,Census,US County,FL,"Santa Rosa County, Florida",0,0,0,0,0,0,2883,5480,3312,6645,7961,10293,14897,13670,14083.0,16085,18554,29547.0,37741.0,55988,81608,117743.0,151372.0
13365,8420,US,109336,26.6461111111,-81.9130555556,Census,CDP,FL,"Lochmoor Waterway Estates, Florida",0,0,0,0,0,0,0,0,0,0,0,0,0,0,0.0,0,0,0.0,0.0,0,4091,3858.0,0.0
13430,27158,US,109409,25.9644444444,-80.1358333333,Census,City,FL,"Aventura, Florida",0,0,0,0,0,0,0,0,0,0,0,0,0,0,0.0,0,0,0.0,0.0,9698,14914,25267.0,35762.0
13479,10907,US,109590,26.6280555556,-80.1352777778,Census,City,FL,"Greenacres, Florida",0,0,0,0,0,0,0,0,0,0,0,0,0,0,329.0,304,531,1026.0,1731.0,8780,18683,27569.0,37573.0
13500,11155,US,109358,29.4488888889,-82.6363888889,Census,Town,FL,"Bronson, Florida",0,0,0,0,0,0,0,0,0,0,291,0,0,0,694.0,758,624,707.0,698.0,853,875,964.0,1113.0
13503,13817,US,109441,25.7083333333,-80.4116666667,Census,CDP,FL,"Kendale Lakes, Florida",0,0,0,0,0,0,0,0,0,0,0,0,0,0,0.0,0,0,0.0,0.0,32789,48524,56901.0,56148.0
13523,14995,US,109222,27.7719444444,-82.4108333333,Census,Census-designated place,FL,"Apollo Beach, Florida",0,0,0,0,0,0,0,0,0,0,0,0,0,0,0.0,0,0,0.0,1042.0,4014,6025,7444.0,14055.0
13537,10308,US,109619,26.7780555556,-80.0344444444,Census,Town,FL,"Palm Beach Shores, Florida",0,0,0,0,0,0,0,0,0,0,0,0,0,0,0.0,0,0,885.0,1214.0,1232,1040,1269.0,1142.0
13545,10316,US,108968,30.1422222222,-85.5777777778,Census,City,FL,"Callaway, Florida",0,0,0,0,0,0,0,0,0,0,0,0,0,0,0.0,0,0,950.0,3240.0,7154,12253,14233.0,14405.0
13589,15573,US,109020,26.0447222222,-80.2894444444,Census,City,FL,"Cooper City, Florida",0,0,0,0,0,0,0,0,0,0,0,0,0,0,0.0,0,0,550.0,2535.0,10140,20791,27939.0,28547.0
13629,10038,US,109443,25.7055555556,-80.4405555556,Census,Census-designated place (CDP),FL,"Kendall West, Florida",0,0,0,0,0,0,0,0,0,0,0,0,0,0,0.0,0,0,0.0,0.0,0,6038,38034.0,36154.0
13767,8288,US,123823,28.034348,-81.910527,Census,CDP,FL,"Crystal Lake, Polk County, Florida",0,0,0,0,0,0,0,0,0,0,0,0,0,0,0.0,0,0,3172.0,6227.0,6827,5300,5341.0,0.0
13830,29081,US,109617,26.715,-80.0394444444,Census,Town,FL,"Palm Beach, Florida",0,0,0,0,0,0,0,0,0,0,0,0,0,1135,1707.0,3747,3886,6055.0,9086.0,9729,9814,10468.0,8348.0
13899,21469,US,109616,26.8247222222,-80.6597222222,Census,City,FL,"Pahokee, Florida",0,0,0,0,0,0,0,0,0,0,0,0,0,0,2256.0,4766,4472,4709.0,5663.0,6346,6822,5985.0,5649.0
13925,8572,US,109589,26.5041666667,-80.1047222222,Census,Village,FL,"Golf, Florida",0,0,0,0,0,0,0,0,0,0,0,0,0,0,0.0,0,0,35.0,50.0,110,234,230.0,252.0
13942,10690,US,109662,27.9247222222,-82.8394444444,Census,City,FL,"Belleair Beach, Florida",0,0,0,0,0,0,0,0,0,0,0,113,0,0,0.0,0,0,563.0,952.0,1643,2070,1751.0,1560.0
13955,21438,US,72006,29.95,-82.17,Census,US County,FL,"Bradford County, Florida",0,0,0,0,0,0,0,3820,3671,6112,7516,10295,14090,12503,9405.0,8717,11457,12446.0,14625.0,20023,22515,26088.0,28520.0
13961,11982,US,109622,26.78,-80.0672222222,Census,City,FL,"Riviera Beach, Florida",0,0,0,0,0,0,0,0,0,0,0,0,0,0,811.0,1981,4065,13046.0,21401.0,26489,27639,29884.0,32488.0
14013,10201,US,109164,30.4275,-87.2608333333,Census,Census-designated place,FL,"West Pensacola, Florida",0,0,0,0,0,0,0,0,0,0,0,0,0,0,0.0,0,0,0.0,20924.0,24371,22107,21939.0,21339.0
14033,7432,US,109414,25.9219444444,-80.2344444444,Census,Neighborhood of Miami Gardens,FL,"Bunche Park, Florida",0,0,0,0,0,0,0,0,0,0,0,0,0,0,0.0,0,0,0.0,5773.0,0,4388,3972.0,0.0
14076,14219,US,109401,27.2405555556,-80.2244444444,Census,Town,FL,"Ocean Breeze, Florida",0,0,0,0,0,0,0,0,0,0,0,0,0,0,0.0,0,0,0.0,714.0,466,519,463.0,355.0
14084,15402,US,109154,30.9777777778,-87.2613888889,Census,Town,FL,"Century, Florida",0,0,0,0,0,0,0,0,0,0,0,0,0,0,0.0,0,395,462.0,329.0,495,1989,1714.0,1698.0
14127,8939,US,109707,28.1130555556,-81.9711111111,Census,Unincorporated community,FL,"Gibsonia, Florida",0,0,0,0,0,0,0,0,0,0,0,0,0,0,0.0,0,0,0.0,0.0,5011,5168,4507.0,0.0
14137,62715,US,44745,26.3686111111,-80.1,Census,City,FL,"Boca Raton, Florida",0,0,0,0,0,0,0,0,0,0,0,0,0,0,447.0,723,992,6961.0,28506.0,49447,61492,74764.0,84394.0
14170,26923,US,109507,30.7541666667,-86.5727777778,Census,City,FL,"Crestview, Florida",0,0,0,0,0,0,0,0,0,0,0,0,0,500,930.0,2252,5003,7467.0,7952.0,7617,9886,14766.0,20978.0
14233,20291,US,109452,25.8197222222,-80.2911111111,Census,City,FL,"Miami Springs, Florida",0,0,0,0,0,0,0,0,0,0,0,0,0,0,402.0,898,5108,11229.0,13279.0,12350,13268,13712.0,13809.0
14241,16292,US,109723,27.8988888889,-81.9741666667,Census,City,FL,"Mulberry, Florida",0,0,0,0,0,0,0,0,0,0,0,0,1418,1499,2029.0,1502,2024,2922.0,2701.0,2932,2988,3230.0,3817.0
14273,23671,US,109063,26.1244444444,-80.2494444444,Census,City,FL,"Plantation, Florida",0,0,0,0,0,0,0,0,0,0,0,0,0,0,0.0,0,0,4772.0,23523.0,48653,66692,82934.0,84955.0
14303,18526,US,109010,28.0777777778,-80.6652777778,Census,City,FL,"West Melbourne, Florida",0,0,0,0,0,0,0,0,0,0,0,0,0,0,0.0,0,0,2266.0,3050.0,5078,8399,9824.0,18355.0
14377,21971,US,109718,27.9047222222,-81.5841666667,Census,City,FL,"Lake Wales, Florida",0,0,0,0,0,0,0,0,0,0,0,0,0,796,3401.0,5024,6821,8346.0,8240.0,8466,9670,10194.0,14225.0
14391,10019,US,109281,30.8944444444,-85.4097222222,Census,City,FL,"Jacob City, Florida",0,0,0,0,0,0,0,0,0,0,0,0,0,0,0.0,0,0,0.0,0.0,0,261,281.0,250.0
14395,33253,US,109245,27.7147222222,-82.4336111111,Census,Census-designated place,FL,"Ruskin, Florida",0,0,0,0,0,0,0,0,0,0,0,0,0,0,0.0,0,0,1894.0,2414.0,5117,6046,8321.0,17208.0
14410,12159,US,109232,27.8527777778,-82.2086111111,Census,Census-designated place,FL,"FishHawk, Florida",0,0,0,0,0,0,0,0,0,0,0,0,0,0,0.0,0,0,0.0,0.0,0,0,1991.0,14087.0
14478,21633,US,109242,28.0166666667,-82.1333333333,Census,City,FL,"Plant City, Florida",0,0,0,0,0,0,0,0,0,0,349,720,2481,3729,6800.0,7491,9230,15711.0,15451.0,17064,22754,29915.0,34721.0
14533,17061,US,109411,25.8875,-80.1358333333,Census,Town,FL,"Bay Harbor Islands, Florida",0,0,0,0,0,0,0,0,0,0,0,0,0,0,0.0,0,296,3249.0,4619.0,4869,4703,5146.0,5628.0
14540,8566,US,109354,26.555,-81.8691666667,Census,CDP,FL,"Villas, Florida",0,0,0,0,0,0,0,0,0,0,0,0,0,0,0.0,0,0,0.0,0.0,8724,9898,11346.0,0.0
14555,9754,US,108958,29.5313888889,-82.5197222222,Census,City,FL,"Archer, Florida",0,0,0,0,0,0,0,0,0,0,0,0,468,420,576.0,517,586,707.0,898.0,1230,1372,1289.0,1118.0
14562,9012,US,108970,30.2027777778,-85.6205555556,Census,Unincorporated Place,FL,"Hiland Park, Florida",0,0,0,0,0,0,0,0,0,0,0,0,0,0,0.0,0,0,0.0,3691.0,4763,3865,999.0,0.0
14587,8477,US,109348,26.4744444444,-81.8155555556,Census,CDP,FL,"San Carlos Park, Florida",0,0,0,0,0,0,0,0,0,0,0,0,0,0,0.0,0,0,0.0,0.0,3950,11785,16317.0,0.0
14594,6041,US,109445,25.9655555556,-80.2538888889,Census,Neighborhood of Miami Gardens,FL,"Lake Lucerne, Florida",0,0,0,0,0,0,0,0,0,0,0,0,0,0,0.0,0,0,0.0,0.0,9762,9478,9132.0,0.0
14636,8656,US,109382,27.5397222222,-82.5630555556,Census,CDP,FL,"Memphis, Florida",0,0,0,0,0,0,0,0,0,0,0,0,0,0,0.0,0,0,2647.0,3207.0,5501,6760,7264.0,0.0
14656,20926,US,72383,27.7,-80.58,Census,US County,FL,"Indian River County, Florida",0,0,0,0,0,0,0,0,0,0,0,0,0,0,6724.0,8957,11872,25309.0,35992.0,59896,90208,112947.0,138028.0
14710,15400,US,109049,26.2463888889,-80.2122222222,Census,City,FL,"Margate, Florida",0,0,0,0,0,0,0,0,0,0,0,0,0,0,0.0,0,0,2646.0,8867.0,35900,42985,53909.0,53284.0
14715,14741,US,109651,28.3366666667,-82.275,Census,City,FL,"San Antonio, Florida",0,0,0,0,0,0,0,0,0,0,0,0,131,262,322.0,267,286,479.0,473.0,529,776,655.0,1138.0
14729,32991,US,109435,25.4711888889,-80.4681222222,Census,City,FL,"Homestead, Florida",0,0,0,0,0,0,0,0,0,0,0,0,0,1307,2319.0,3154,4573,9152.0,13674.0,20668,26866,31909.0,60512.0
14764,10894,US,109494,25.1066666667,-80.43,Census,CDP,FL,"Key Largo, Florida",0,0,0,0,0,0,0,0,0,0,0,0,0,0,0.0,0,0,0.0,2866.0,7447,11336,12971.0,10433.0
14851,37094,US,109322,26.6397222222,-81.9825,Census,City,FL,"Cape Coral, Florida",0,0,0,0,0,0,0,0,0,0,0,0,0,0,0.0,0,0,0.0,10193.0,32103,74991,102286.0,154305.0
14852,10574,US,109184,26.8333333333,-81.1,Census,City,FL,"Moore Haven, Florida",0,0,0,0,0,0,0,0,0,0,0,0,0,623,612.0,831,636,790.0,974.0,1250,1432,1635.0,1680.0
14867,13672,US,109845,30.1591666667,-84.2072222222,Census,City,FL,"St. Marks, Florida",0,0,0,0,0,0,0,0,0,0,0,0,0,0,217.0,0,0,0.0,366.0,286,307,272.0,293.0
14899,25660,US,72354,,,Census,US County,FL,"Duval County, Florida",0,0,0,0,1970,4156,4539,5074,11921,19431,26800,39733,75163,113540,155503.0,210143,304029,455411.0,528865.0,571003,672971,778879.0,864263.0
14996,5633,US,6069146,28.0169444444,-82.4952777778,Census,Unincorporated community,FL,"Egypt Lake, Florida",0,0,0,0,0,0,0,0,0,0,0,0,0,0,0.0,0,0,0.0,7556.0,11032,14580,0.0,0.0
15126,31797,US,72000,29.6833333333,-82.3666666667,Census,US County,FL,"Alachua County, Florida",0,0,0,0,0,2282,2524,8232,17328,16462,22934,32245,34305,31689,34365.0,38607,57026,74074.0,104764.0,151348,181596,217955.0,247336.0
15151,14329,US,109530,28.6186111111,-81.3833333333,Census,Town,FL,"Eatonville, Florida",0,0,0,0,0,0,0,0,0,0,0,125,108,125,136.0,0,0,857.0,2024.0,2185,2170,2432.0,2159.0
15196,12774,US,109812,28.8586111111,-82.0386111111,Census,City,FL,"Wildwood, Florida",0,0,0,0,0,0,0,0,0,0,419,244,329,480,1409.0,1346,2019,2170.0,2082.0,2665,3421,3924.0,6709.0
15313,11397,US,109821,29.9338888889,-82.4244444444,Census,Town,FL,"Worthington Springs, Florida",0,0,0,0,0,0,0,0,0,0,0,0,0,0,0.0,0,0,0.0,214.0,220,178,193.0,181.0
15384,11635,US,109513,30.5161111111,-86.4716666667,Census,City,FL,"Niceville, Florida",0,0,0,0,0,0,0,0,0,0,0,0,0,0,0.0,948,2497,4517.0,4155.0,8543,10507,11684.0,12749.0
15387,14136,US,109163,30.3858333333,-87.2897222222,Census,CDP,FL,"Warrington, Florida",0,0,0,0,0,0,0,0,0,0,0,0,0,0,0.0,0,13570,16752.0,15848.0,15792,16040,15207.0,14531.0
15443,8748,US,109797,27.3644444444,-80.3086111111,Census,CDP,FL,"Indian River Estates, Florida",0,0,0,0,0,0,0,0,0,0,0,0,0,0,0.0,0,0,0.0,0.0,0,4858,5793.0,6220.0
15446,11724,US,109609,26.5827777778,-80.0575,Census,town,FL,"Lantana, Florida",0,0,0,0,0,0,0,0,0,0,0,0,0,0,188.0,234,773,5021.0,7126.0,8048,8392,9437.0,10423.0
15447,15380,US,109822,29.1758333333,-80.9830555556,Census,City,FL,"Daytona Beach Shores, Florida",0,0,0,0,0,0,0,0,0,0,0,0,0,0,0.0,0,0,0.0,768.0,1324,2335,4299.0,4247.0
15545,10628,US,109236,28.1275,-82.5891666667,Census,Census-designated place,FL,"Keystone, Florida",0,0,0,0,0,0,0,0,0,0,0,0,0,0,0.0,0,0,0.0,0.0,0,0,14627.0,24039.0
15572,11319,US,109730,29.4361111111,-81.5138888889,Census,City,FL,"Crescent City, Florida",0,0,0,0,0,0,0,0,0,0,554,352,677,838,955.0,1124,1393,1629.0,1734.0,1722,1859,1776.0,1577.0
15612,88918,US,109028,26.1333333333,-80.15,Census,City,FL,"Fort Lauderdale, Florida",0,0,0,0,0,0,0,0,0,0,0,91,336,2257,8668.0,17996,36328,83648.0,139122.0,153279,149238,152397.0,165521.0
15613,173413,US,60613,30.3369444444,-81.6613888889,Census,Consolidated citycounty,FL,"Jacksonville, Florida",0,0,0,0,0,0,1045,2118,6912,7650,17201,28429,57699,91558,129549.0,173065,204275,201030.0,528865.0,540920,635230,735503.0,821784.0
15640,9864,US,109597,26.5627777778,-80.0522222222,Census,Town,FL,"Hypoluxo, Florida",0,0,0,0,0,0,0,0,0,0,0,0,0,0,0.0,0,0,114.0,336.0,573,830,2015.0,2588.0
15675,13207,US,109686,27.8386111111,-82.785,Census,City,FL,"Seminole, Florida",0,0,0,0,0,0,0,0,0,0,0,0,0,0,0.0,0,0,0.0,0.0,4586,9251,10890.0,17233.0
15688,8069,US,109659,28.2327777778,-82.2047222222,Census,CDP,FL,"Zephyrhills West, Florida",0,0,0,0,0,0,0,0,0,0,0,0,0,0,0.0,0,0,0.0,0.0,3698,4249,5242.0,0.0
15752,17200,US,109124,25.8588888889,-81.3847222222,Census,City,FL,"Everglades City, Florida",0,0,0,0,0,0,0,0,0,0,0,0,0,0,172.0,518,625,552.0,462.0,524,321,479.0,400.0
15835,9407,US,109688,27.7544444444,-82.74,Census,City,FL,"South Pasadena, Florida",0,0,0,0,0,0,0,0,0,0,0,0,0,0,0.0,0,23,651.0,2465.0,4188,5644,5778.0,4964.0
15859,21288,US,73641,,,Census,US County,FL,"Osceola County, Florida",0,0,0,0,0,0,0,0,0,0,3133,3444,5507,7195,10699.0,10119,11406,19029.0,25267.0,49287,107728,172493.0,268685.0
15905,9952,US,109661,27.935,-82.81,Census,Town,FL,"Belleair, Florida",0,0,0,0,0,0,0,0,0,0,0,0,0,0,212.0,218,961,2456.0,2962.0,3673,3968,4067.0,3869.0
15931,10951,US,109153,30.4705555556,-87.2491666667,Census,Census-designated place,FL,"Brent, Florida",0,0,0,0,0,0,0,0,0,0,0,0,0,0,0.0,0,0,0.0,0.0,21872,21624,22257.0,21804.0
15982,17141,US,72353,29.59,-83.19,Census,US County,FL,"Dixie County, Florida",0,0,0,0,0,0,0,0,0,0,0,0,0,0,6419.0,7018,3928,4479.0,5480.0,7751,10585,13827.0,16422.0
15986,10864,US,109813,29.9616666667,-82.9272222222,Census,Town,FL,"Branford, Florida",0,0,0,0,0,0,0,0,0,0,335,0,26,708,498.0,684,753,663.0,820.0,622,670,695.0,712.0
16023,9687,US,109371,30.4194444444,-83.2997222222,Census,Town,FL,"Lee, Florida",0,0,0,0,0,0,0,0,0,0,0,0,0,199,185.0,258,228,243.0,240.0,297,306,352.0,352.0
16117,20671,US,109024,26.055,-80.1530555556,Census,City,FL,"Dania Beach, Florida",0,0,0,0,0,0,0,0,0,0,0,0,369,762,1674.0,2902,4540,7065.0,9013.0,11796,13024,20061.0,29639.0
16120,9314,US,109535,28.6127777778,-81.2941666667,Census,Census-designated place,FL,"Goldenrod, Florida",0,0,0,0,0,0,0,0,0,0,0,0,0,0,0.0,0,0,0.0,0.0,13682,12362,12871.0,12039.0
16136,10469,US,109717,28.0466666667,-81.6222222222,Census,Town,FL,"Lake Hamilton, Florida",0,0,0,0,0,0,0,0,0,0,0,0,0,0,399.0,344,604,930.0,1165.0,1552,1128,1304.0,1231.0
16157,8585,US,109065,26.2852777778,-80.1025,Census,neighborhood,FL,"Pompano Beach Highlands, Florida",0,0,0,0,0,0,0,0,0,0,0,0,0,0,0.0,0,0,0.0,5014.0,16154,17915,6505.0,0.0
16179,55466,US,109756,27.3372222222,-82.5352777778,Census,City,FL,"Sarasota, Florida",0,0,0,0,0,0,0,0,0,0,0,0,840,2149,8398.0,11141,18896,34083.0,40237.0,48868,50961,52715.0,51917.0
16182,11983,US,109090,30.4430555556,-85.0452777778,Census,City,FL,"Blountstown, Florida",0,0,0,0,0,0,0,0,0,0,0,0,546,863,1270.0,1931,2118,2375.0,2384.0,2632,2404,2444.0,2514.0
16236,9496,US,109241,28.15,-82.3447222222,Census,Census-designated place,FL,"Pebble Creek, Florida",0,0,0,0,0,0,0,0,0,0,0,0,0,0,0.0,0,0,0.0,0.0,0,0,4824.0,7622.0
16246,24061,US,75103,,,Census,US County,FL,"Seminole County, Florida",0,0,0,0,0,0,0,0,0,0,0,0,0,10986,18735.0,22304,26883,54947.0,83692.0,179752,287529,365196.0,422718.0
16275,20489,US,72004,30.24,-85.63,Census,US County,FL,"Bay County, Florida",0,0,0,0,0,0,0,0,0,0,0,0,0,11407,12091.0,20686,42689,67131.0,75283.0,97740,126994,148217.0,168852.0
16285,29152,US,109150,30.2841666667,-81.3961111111,Census,City,FL,"Jacksonville Beach, Florida",0,0,0,0,0,0,0,0,0,0,0,0,249,357,409.0,3566,6430,12049.0,12779.0,15462,17839,20990.0,21362.0
16317,15290,US,109647,28.2488888889,-82.7177777778,Census,City,FL,"New Port Richey, Florida",0,0,0,0,0,0,0,0,0,0,0,0,0,0,758.0,920,1512,3520.0,6098.0,11196,14044,16117.0,14911.0
16319,9001,US,109542,28.6252777778,-81.4369444444,Census,Census-designated place,FL,"Lockhart, Florida",0,0,0,0,0,0,0,0,0,0,0,0,0,0,0.0,0,0,0.0,5809.0,10569,11636,12944.0,13060.0
16333,13211,US,109529,28.4561111111,-81.4930555556,Census,Census-designated place,FL,"Dr. Phillips, Florida",0,0,0,0,0,0,0,0,0,0,0,0,0,0,0.0,0,0,0.0,0.0,0,7963,9548.0,10981.0
16339,13282,US,109751,27.0661111111,-82.1719444444,Census,City,FL,"North Port, Florida",0,0,0,0,0,0,0,0,0,0,0,0,0,0,0.0,0,0,178.0,2244.0,6205,11973,22797.0,57357.0
16356,9138,US,123794,27.7075,-80.3822222222,Census,Town,FL,"Indian River Shores, Florida",0,0,0,0,0,0,0,0,0,0,0,0,0,0,0.0,0,0,19.0,76.0,1254,2278,3448.0,3901.0
16395,9272,US,109147,29.4405555556,-83.2888888889,Census,Town,FL,"Horseshoe Beach, Florida",0,0,0,0,0,0,0,0,0,0,0,0,0,0,0.0,0,0,0.0,124.0,304,252,206.0,169.0
16415,16122,US,109173,30.7,-84.8333333333,Census,City,FL,"Chattahoochee, Florida",0,0,0,0,0,0,0,0,0,0,383,0,0,0,5624.0,7110,8473,9699.0,7944.0,5332,4382,3287.0,3652.0
16422,15263,US,109047,26.2747222222,-80.0894444444,Census,City,FL,"Lighthouse Point, Florida",0,0,0,0,0,0,0,0,0,0,0,0,0,0,0.0,0,0,2453.0,9071.0,11488,10378,10767.0,10344.0
16447,8335,US,109256,30.9816666667,-85.6194444444,Census,Town,FL,"Noma, Florida",0,0,0,0,0,0,0,0,0,0,0,0,0,0,0.0,0,0,0.0,0.0,113,207,213.0,211.0
16455,11840,US,109248,28.0561111111,-82.2927777778,Census,Census-designated place,FL,"Thonotosassa, Florida",0,0,0,0,0,0,0,0,0,0,0,0,0,0,0.0,0,0,0.0,0.0,0,0,6091.0,13014.0
16472,19906,US,109098,26.9902777778,-82.1058333333,Census,City,FL,"Port Charlotte, Florida",0,0,0,0,0,0,0,0,0,0,0,0,0,0,0.0,0,0,3197.0,10789.0,25770,41535,46451.0,54392.0
16494,35870,US,109038,26.0213888889,-80.175,Census,City,FL,"Hollywood, Florida",0,0,0,0,0,0,0,0,0,0,0,0,0,0,2689.0,6239,14351,35237.0,106873.0,121323,121697,139357.0,140768.0
16569,10719,US,109496,24.8266666667,-80.8138888889,Census,City,FL,"Layton, Florida",0,0,0,0,0,0,0,0,0,0,0,0,0,0,0.0,0,0,0.0,100.0,88,183,186.0,184.0
16592,11332,US,109297,28.9291666667,-81.9308333333,Census,Town,FL,"Lady Lake, Florida",0,0,0,0,0,0,0,0,0,0,0,0,0,0,233.0,309,331,335.0,382.0,1193,8071,11828.0,13926.0
16619,7507,US,22704686,29.2333333333,-81.0147222222,Census,NHRP,FL,"Seabreeze, Florida",0,0,0,0,0,0,0,0,0,0,0,0,308,571,0.0,0,0,0.0,0.0,0,0,0.0,0.0
16650,11522,US,123791,28.0580555556,-82.5152777778,Census,Census-designated place,FL,"Carrollwood (CDP), Florida",0,0,0,0,0,0,0,0,0,0,0,0,0,0,0.0,0,0,0.0,0.0,0,0,33519.0,33365.0
16678,12936,US,108974,29.9413888889,-85.4063888889,Census,City,FL,"Mexico Beach, Florida",0,0,0,0,0,0,0,0,0,0,0,0,0,0,0.0,0,0,0.0,588.0,632,992,1017.0,1072.0
16762,19102,US,109475,25.7993111111,-80.3736222222,Census,City,FL,"Sweetwater, Miami-Dade County, Florida",0,0,0,0,0,0,0,0,0,0,0,0,0,0,0.0,0,230,645.0,3357.0,8067,13909,14226.0,13499.0
16776,10397,US,109462,25.9327777778,-80.3327777778,Census,CDP,FL,"Palm Springs North, Florida",0,0,0,0,0,0,0,0,0,0,0,0,0,0,0.0,0,0,0.0,0.0,5838,5300,5460.0,0.0
16798,10757,US,109258,30.7677777778,-85.8522222222,Census,Town,FL,"Westville, Florida",0,0,0,0,0,0,0,0,0,0,0,0,0,0,0.0,0,0,0.0,0.0,343,257,221.0,289.0
16919,196295,US,18933066,,,Census,US State,FL,Florida,0,0,0,0,34730,54477,87445,140424,187748,269493,391422,528542,752619,968470,1468211.0,1897414,2771305,4951560.0,6789443.0,9746324,12937926,15982378.0,18801310.0
17060,11877,US,109673,27.8958333333,-82.8475,Census,City,FL,"Indian Rocks Beach, Florida",0,0,0,0,0,0,0,0,0,0,0,0,0,0,0.0,0,0,1940.0,2666.0,3717,3963,5072.0,4113.0
17079,9915,US,109003,28.1908333333,-80.6594444444,Census,Town,FL,"Palm Shores, Florida",0,0,0,0,0,0,0,0,0,0,0,0,0,0,0.0,0,0,0.0,202.0,77,210,794.0,900.0
17097,7288,US,109013,26.0986111111,-80.2075,Census,CDP,FL,"Broadview Park, Florida",0,0,0,0,0,0,0,0,0,0,0,0,0,0,0.0,0,0,0.0,6049.0,6022,6109,6798.0,7125.0
17204,9580,US,109255,30.9811111111,-85.6469444444,Census,Town,FL,"Esto, Florida",0,0,0,0,0,0,0,0,0,0,0,0,340,269,190.0,213,217,148.0,210.0,304,253,356.0,364.0
17249,13020,US,109372,30.4666666667,-83.4166666667,Census,City,FL,"Madison, Florida",0,0,0,0,0,0,0,423,924,756,781,849,1560,1952,2189.0,2730,3150,3239.0,3737.0,3487,3345,3061.0,2843.0
17293,8903,US,109280,30.8736111111,-85.1625,Census,Town,FL,"Greenwood, Florida",0,0,0,0,0,0,0,0,0,0,0,0,0,0,0.0,0,0,427.0,449.0,577,474,735.0,686.0
17296,26741,US,108988,28.3694444444,-80.7438888889,Census,City,FL,"Cocoa, Florida",0,0,0,0,0,0,0,0,0,0,312,382,613,1445,2164.0,3098,4245,12294.0,16110.0,16096,17722,16412.0,17140.0
17324,12438,US,72369,29.9,-85.24,Census,US County,FL,"Gulf County, Florida",0,0,0,0,0,0,0,0,0,0,0,0,0,0,3182.0,6951,7460,9937.0,10096.0,10658,11504,13332.0,15863.0
17400,10479,US,109234,28.0994444444,-82.5252777778,Census,Census-designated place,FL,"Northdale, Florida",0,0,0,0,0,0,0,0,0,0,0,0,0,0,0.0,0,0,0.0,0.0,0,16318,20461.0,22079.0
17435,10359,US,109678,27.8208333333,-82.8227777778,Census,Town,FL,"North Redington Beach, Florida",0,0,0,0,0,0,0,0,0,0,0,0,0,0,0.0,0,0,346.0,768.0,1156,1135,1474.0,1417.0
17492,9515,US,109598,26.8733333333,-80.0541666667,Census,Town,FL,"Juno Beach, Florida",0,0,0,0,0,0,0,0,0,0,0,0,0,0,0.0,0,0,249.0,747.0,1142,2121,3262.0,3176.0
17512,6499,US,109454,25.9469444444,-80.2108333333,Census,Neighborhood of Miami Gardens,FL,"Norland, Florida",0,0,0,0,0,0,0,0,0,0,0,0,0,0,0.0,0,0,0.0,14973.0,19471,22109,22995.0,0.0
17569,14577,US,109519,27.2333333333,-80.8333333333,Census,City,FL,"Okeechobee, Florida",0,0,0,0,0,0,0,0,0,0,0,0,0,900,1795.0,1658,1849,2947.0,3715.0,4225,4943,5376.0,5621.0
17579,10127,US,109596,26.3997222222,-80.0683333333,Census,Town,FL,"Highland Beach, Florida",0,0,0,0,0,0,0,0,0,0,0,0,0,0,0.0,0,52,65.0,624.0,2030,3209,3775.0,3539.0
17582,21394,US,109564,28.4966666667,-81.5338888889,Census,Town,FL,"Windermere, Florida",0,0,0,0,0,0,0,0,0,0,0,0,0,0,181.0,163,317,576.0,894.0,1302,1371,1897.0,2462.0
17626,13107,US,75122,30.61,-85.67,Census,US County,FL,"Washington County, Florida",0,0,0,0,0,859,1950,2154,2302,4089,6426,10154,16403,11828,12180.0,12302,11888,11249.0,11453.0,14509,16919,20973.0,24896.0
17696,13889,US,109045,26.1561111111,-80.145,Census,Village,FL,"Lazy Lake, Florida",0,0,0,0,0,0,0,0,0,0,0,0,0,0,0.0,0,0,49.0,48.0,31,33,38.0,24.0
17714,19052,US,109838,29.2416666667,-81.4566666667,Census,Town,FL,"Pierson, Florida",0,0,0,0,0,0,0,0,0,0,0,0,0,0,624.0,541,657,716.0,654.0,1085,2988,2596.0,1736.0
17740,10015,US,109487,25.7238888889,-80.3688888889,Census,CDP,FL,"Westwood Lakes, Florida",0,0,0,0,0,0,0,0,0,0,0,0,0,0,0.0,0,0,22517.0,12811.0,11478,11522,12005.0,11838.0
17770,11080,US,109227,28.0708333333,-82.5583333333,Census,Census-designated place,FL,"Citrus Park, Florida",0,0,0,0,0,0,0,0,0,0,0,0,0,0,0.0,0,0,0.0,0.0,0,0,20226.0,24252.0
17795,18727,US,109836,29.2863888889,-81.075,Census,City,FL,"Ormond Beach, Florida",0,0,0,0,0,0,0,0,0,0,239,595,780,1292,1517.0,1914,3418,8658.0,14063.0,21436,29721,36301.0,38137.0
17824,12763,US,109738,30.357144,-87.1638568333,Census,City,FL,"Gulf Breeze, Florida",0,0,0,0,0,0,0,0,0,0,0,0,0,0,0.0,0,0,0.0,4190.0,5478,5530,5665.0,5763.0
17850,10886,US,108973,30.2397222222,-85.6480555556,Census,City,FL,"Lynn Haven, Florida",0,0,0,0,0,0,0,0,0,0,0,0,0,874,928.0,1246,1787,3078.0,4044.0,6239,9298,12451.0,18493.0
17910,9949,US,109240,27.9280555556,-82.3788888889,Census,Census-designated place,FL,"Palm River-Clair Mel, Florida",0,0,0,0,0,0,0,0,0,0,0,0,0,0,0.0,0,0,0.0,8536.0,14447,13691,17589.0,21024.0
17917,9011,US,109577,26.3361111111,-80.1611111111,Census,unincorporated place,FL,"Boca Pointe, Florida",0,0,0,0,0,0,0,0,0,0,0,0,0,0,0.0,0,0,0.0,0.0,0,2174,3302.0,0.0
18001,11559,US,109823,28.8813888889,-81.3241666667,Census,City,FL,"DeBary, Florida",0,0,0,0,0,0,0,0,0,0,0,0,0,0,0.0,0,0,2362.0,3154.0,4980,7176,15559.0,19320.0
18040,6072,US,109470,25.9355555556,-80.2319444444,Census,Neighborhood of Miami Gardens,FL,"Scott Lake, Florida",0,0,0,0,0,0,0,0,0,0,0,0,0,0,0.0,0,0,0.0,0.0,14154,14588,14401.0,0.0
18095,8141,US,109664,27.915,-82.8461111111,Census,Town,FL,"Belleair Shore, Florida",0,0,0,0,0,0,0,0,0,0,0,0,0,0,0.0,0,0,61.0,124.0,80,60,0.0,109.0
18102,2852,US,6203062,27.45,-82.55,Census,unincorporated community,FL,"Oneco, Florida",0,0,0,0,0,0,0,0,0,0,0,0,0,772,0.0,0,0,1530.0,3246.0,6417,0,0.0,0.0
18128,14770,US,3544294,25.6271861111,-80.3207027778,Census,Village,FL,"Palmetto Bay, Florida",0,0,0,0,0,0,0,0,0,0,0,0,0,0,0.0,0,0,0.0,0.0,0,0,24469.0,23410.0
18158,14147,US,109055,26.2158333333,-80.2244444444,Census,City,FL,"North Lauderdale, Florida",0,0,0,0,0,0,0,0,0,0,0,0,0,0,0.0,0,0,0.0,1213.0,18653,26506,32264.0,41023.0
18179,35332,US,109349,26.4397222222,-82.0805555556,Census,City,FL,"Sanibel, Florida",0,0,0,0,0,0,0,0,0,0,0,0,0,0,0.0,0,0,0.0,0.0,3363,5468,6064.0,6469.0
18199,80556,US,57700,30.455,-84.2533333333,Census,State capital,FL,"Tallahassee, Florida",0,0,0,0,0,1616,0,1932,2023,2494,2934,2981,5018,5637,10700.0,16240,27237,48174.0,72624.0,81548,124773,150624.0,181376.0
18273,32114,US,72015,28.85,-82.52,Census,US County,FL,"Citrus County, Florida",0,0,0,0,0,0,0,0,0,0,2394,5391,6731,5220,5516.0,5846,6111,9268.0,19196.0,54703,93515,118085.0,141236.0
18275,9428,US,109168,29.6675,-81.2136111111,Census,Town,FL,"Marineland, Florida",0,0,0,0,0,0,0,0,0,0,0,0,0,0,0.0,0,9,9.0,13.0,31,21,6.0,16.0
18289,30387,US,109375,27.4833333333,-82.5833333333,Census,City,FL,"Bradenton, Florida",0,0,0,0,0,0,0,0,0,0,0,0,1886,3868,5986.0,7444,13604,19380.0,21040.0,30228,43779,49504.0,49546.0
18382,25820,US,109247,28.0352777778,-82.3891666667,Census,City,FL,"Temple Terrace, Florida",0,0,0,0,0,0,0,0,0,0,0,0,0,0,0.0,215,433,3812.0,7347.0,11097,16444,20918.0,24541.0
18496,13446,US,109176,30.6241666667,-84.415,Census,Town,FL,"Havana, Florida",0,0,0,0,0,0,0,0,0,0,0,0,432,448,1169.0,1221,1634,2090.0,2022.0,2782,1654,1713.0,1754.0
18509,10578,US,109417,25.7466666667,-80.3044444444,Census,Census-designated place (CDP) &amp; Unincorporated community,FL,"Coral Terrace, Florida",0,0,0,0,0,0,0,0,0,0,0,0,0,0,0.0,0,0,0.0,0.0,22702,23255,24380.0,24376.0
18544,11063,US,109384,27.4744444444,-82.5427777778,Census,CDP,FL,"Samoset, Florida",0,0,0,0,0,0,0,0,0,0,0,0,0,0,0.0,0,1617,4824.0,4070.0,5747,3119,3440.0,0.0
18608,10029,US,109420,25.6272222222,-80.3208333333,Census,neighborhood,FL,"Cutler, Florida",0,0,0,0,0,0,0,0,0,0,0,0,0,0,0.0,0,0,0.0,0.0,15593,16201,17390.0,0.0
18618,26293,US,109444,25.6902777778,-80.165,Census,Village,FL,"Key Biscayne, Florida",0,0,0,0,0,0,0,0,0,0,0,0,0,0,0.0,0,0,0.0,0.0,0,0,10507.0,12344.0
18631,36997,US,109132,26.15,-81.8,Census,City,FL,"Naples, Florida",0,0,0,0,0,0,0,0,0,0,0,0,0,0,391.0,1253,1465,4656.0,12042.0,17581,19508,20981.0,19539.0
18653,13515,US,109448,25.809175,-80.2966972222,Census,Town,FL,"Medley, Florida",0,0,0,0,0,0,0,0,0,0,0,0,0,0,0.0,0,106,112.0,351.0,537,663,1098.0,838.0
18775,17298,US,108997,28.0677777778,-80.5616666667,Census,Town,FL,"Melbourne Beach, Florida",0,0,0,0,0,0,0,0,0,0,0,0,0,0,72.0,90,230,1004.0,2262.0,2713,3021,3335.0,3101.0
18786,8861,US,109386,27.5008333333,-82.6138888889,Census,CDP,FL,"West Bradenton, Florida",0,0,0,0,0,0,0,0,0,0,0,0,0,0,0.0,0,0,0.0,0.0,6162,8767,4444.0,0.0
18801,6415,US,40261860,30.4308333333,-87.2530555556,Census,Unincorporated community,FL,"Brownsville, Escambia County, Florida",0,0,0,0,0,0,0,0,0,0,0,0,0,0,0.0,0,20269,38417.0,0.0,0,0,0.0,0.0
18901,11093,US,109180,29.5841666667,-82.9241666667,Census,City,FL,"Fanning Springs, Florida",0,0,0,0,0,0,0,0,0,0,0,0,0,0,0.0,0,0,0.0,115.0,314,493,737.0,764.0
19018,15357,US,109565,28.5602777778,-81.5841666667,Census,City,FL,"Winter Garden, Florida",0,0,0,0,0,0,0,0,0,0,0,0,351,1021,2023.0,3060,3503,5513.0,5153.0,6789,9745,14351.0,34568.0
19106,12428,US,109840,29.1188888889,-81.0027777778,Census,City,FL,"Port Orange, Florida",0,0,0,0,0,0,0,0,0,0,0,0,0,380,678.0,662,1201,1801.0,3781.0,18756,35317,45823.0,56048.0
19173,82127,US,73647,,,Census,US County,FL,"Palm Beach County, Florida",0,0,0,0,0,0,0,0,0,0,0,0,5577,18654,51781.0,79989,114688,228106.0,348753.0,576863,863518,1131184.0,1320134.0
19188,3889,US,6275931,26.1380555556,-81.7666666667,Census,Unincorporated community,FL,"East Naples, Florida",0,0,0,0,0,0,0,0,0,0,0,0,0,0,0.0,0,0,0.0,6155.0,11127,22950,25000.0,0.0
19230,18502,US,72379,30.87,-85.81,Census,US County,FL,"Holmes County, Florida",0,0,0,0,0,0,1205,1386,1572,2170,4336,7762,11557,12850,12924.0,15447,13988,10844.0,10720.0,14723,15778,18564.0,19927.0
19238,10654,US,9346907,27.9341666667,-80.5658333333,Census,Town,FL,"Grant-Valkaria, Florida",0,0,0,0,0,0,0,0,0,0,0,0,0,0,0.0,0,0,0.0,0.0,0,0,0.0,3850.0
19276,16799,US,109291,28.5475,-81.7494444444,Census,City,FL,"Clermont, Florida",0,0,0,0,0,0,0,0,0,0,0,0,0,496,1086.0,1631,2168,3313.0,3661.0,5461,6910,9333.0,28742.0
19346,25668,US,109457,25.9302777778,-80.1697222222,Census,City,FL,"North Miami Beach, Florida",0,0,0,0,0,0,0,0,0,0,0,0,0,0,0.0,871,2129,21405.0,30544.0,36553,35359,40786.0,41523.0
19400,30968,US,109793,27.4388888889,-80.3355555556,Census,City,FL,"Fort Pierce, Florida",0,0,0,0,0,0,0,0,0,0,0,0,1333,2115,4803.0,8040,13502,25256.0,29721.0,33802,36830,37516.0,41910.0
19408,107181,US,20107027,26.4591666667,-80.0830555556,Census,City,FL,"Delray Beach, Florida",0,0,0,0,0,0,0,0,0,0,0,0,904,1051,2333.0,3737,6312,12230.0,19366.0,34329,47789,60020.0,60522.0
19437,12504,US,109431,25.9127777778,-80.1977777778,Census,CDP,FL,"Golden Glades, Florida",0,0,0,0,0,0,0,0,0,0,0,0,0,0,0.0,0,0,0.0,0.0,23154,25474,32623.0,33145.0
19447,31664,US,109569,28.3038888889,-81.4127777778,Census,City,FL,"Kissimmee, Florida",0,0,0,0,0,0,0,0,0,0,1086,1132,2157,2722,3163.0,3225,4310,6845.0,7119.0,15487,30050,47814.0,59682.0
19584,11708,US,109179,29.7544444444,-82.8616666667,Census,Town,FL,"Bell, Florida",0,0,0,0,0,0,0,0,0,0,0,0,243,146,168.0,183,108,134.0,227.0,227,267,349.0,456.0
19594,18278,US,109703,27.9797222222,-81.7547222222,Census,City,FL,"Eagle Lake, Florida",0,0,0,0,0,0,0,0,0,0,0,0,0,0,600.0,862,1060,1364.0,1373.0,1678,1758,2496.0,2255.0
19622,12323,US,57230,29.61,-81.74,Census,US County,FL,"Putnam County, Florida",0,0,0,0,0,0,687,2712,3821,6261,11186,11641,13096,14568,18096.0,18698,23615,32212.0,36290.0,50549,65070,70423.0,74364.0
19624,8399,US,109334,26.5166666667,-81.9666666667,Census,CDP,FL,"Iona, Florida",0,0,0,0,0,0,0,0,0,0,0,0,0,0,0.0,0,0,0.0,0.0,0,9565,11756.0,0.0
19658,9769,US,109683,27.8280555556,-82.8305555556,Census,Town,FL,"Redington Shores, Florida",0,0,0,0,0,0,0,0,0,0,0,0,0,0,0.0,0,0,917.0,1733.0,2142,2366,2338.0,2121.0
19680,13099,US,109151,30.3166666667,-81.4030555556,Census,City,FL,"Neptune Beach, Florida",0,0,0,0,0,0,0,0,0,0,0,0,0,0,0.0,1363,1767,2868.0,4281.0,5248,6816,7270.0,7037.0
19705,16926,US,109468,25.6333333333,-80.3725,Census,CDP,FL,"Richmond Heights, Florida",0,0,0,0,0,0,0,0,0,0,0,0,0,0,0.0,0,0,4311.0,6663.0,8577,8583,8479.0,8541.0
19725,23476,US,109076,26.1572222222,-80.2861111111,Census,City,FL,"Sunrise, Florida",0,0,0,0,0,0,0,0,0,0,0,0,0,0,0.0,0,0,0.0,7403.0,39681,64407,85779.0,84439.0
19738,17962,US,109044,26.1655555556,-80.2325,Census,City,FL,"Lauderhill, Florida",0,0,0,0,0,0,0,0,0,0,0,0,0,0,0.0,0,0,132.0,8465.0,37271,49708,57585.0,66887.0
19756,9897,US,109165,29.5177777778,-81.1483333333,Census,Town,FL,"Beverly Beach, Florida",0,0,0,0,0,0,0,0,0,0,0,0,0,0,0.0,0,0,9.0,21.0,217,312,547.0,338.0
19859,23849,US,109088,26.1586111111,-80.1394444444,Census,City,FL,"Wilton Manors, Florida",0,0,0,0,0,0,0,0,0,0,0,0,0,0,0.0,0,883,8257.0,10948.0,12742,11804,12697.0,11632.0
19862,9368,US,109693,27.82,-82.6866666667,Census,Former CDP,FL,"West and East Lealman, Florida",0,0,0,0,0,0,0,0,0,0,0,0,0,0,0.0,0,0,0.0,0.0,19873,21748,21753.0,0.0
20012,26589,US,73606,28.77,-81.72,Census,US County,FL,"Lake County, Florida",0,0,0,0,0,0,0,0,0,0,8034,7467,9509,12744,23161.0,27255,36340,57383.0,69305.0,104870,152104,210528.0,297052.0
20051,34279,US,109005,28.325,-80.7327777778,Census,City,FL,"Rockledge, Florida",0,0,0,0,0,0,0,0,0,0,0,0,0,453,551.0,725,1347,3481.0,10523.0,11877,16023,20170.0,24926.0
20060,21704,US,109574,26.6852777778,-80.6713888889,Census,City,FL,"Belle Glade, Florida",0,0,0,0,0,0,0,0,0,0,0,0,0,0,926.0,3806,7219,11273.0,15949.0,16535,16177,14906.0,17467.0
20194,27168,US,72374,28.55,-82.47,Census,US County,FL,"Hernando County, Florida",0,0,0,0,0,0,926,1200,2938,4248,2476,3638,4997,4548,4948.0,5641,6693,11205.0,17004.0,44469,101115,130802.0,172778.0
20353,9186,US,109748,27.2958333333,-82.4338888889,Census,Census-designated place,FL,"Lake Sarasota, Florida",0,0,0,0,0,0,0,0,0,0,0,0,0,0,0.0,0,0,0.0,0.0,0,4117,4458.0,4679.0
20452,136576,US,92995,27.9680555556,-82.4763888889,Census,City,FL,"Tampa, Florida",0,0,0,0,0,0,974,0,796,720,5532,15839,37782,51608,101161.0,108391,124681,274970.0,277714.0,271523,280015,303447.0,335709.0
20589,7963,US,109365,29.3233333333,-82.7727777778,Census,Town,FL,"Otter Creek, Florida",0,0,0,0,0,0,0,0,0,0,0,0,0,0,0.0,0,0,0.0,230.0,167,136,121.0,134.0
20592,20173,US,72012,26.9,-81.95,Census,US County,FL,"Charlotte County, Florida",0,0,0,0,0,0,0,0,0,0,0,0,0,0,4013.0,3663,4286,12594.0,27559.0,58460,110975,141627.0,159978.0
20634,9073,US,109720,27.9633333333,-81.9494444444,Census,CDP,FL,"Lakeland Highlands, Florida",0,0,0,0,0,0,0,0,0,0,0,0,0,0,0.0,0,0,0.0,0.0,10426,9972,12557.0,0.0
20695,12458,US,109155,30.5233333333,-87.2736111111,Census,Census-designated place,FL,"Ensley, Florida",0,0,0,0,0,0,0,0,0,0,0,0,0,0,0.0,0,0,0.0,0.0,14422,16362,18752.0,20602.0
20930,23095,US,109508,30.3933333333,-86.4752777778,Census,City,FL,"Destin, Florida",0,0,0,0,0,0,0,0,0,0,0,0,0,0,0.0,0,0,0.0,0.0,0,8080,11119.0,12305.0
20981,13503,US,109175,30.6155555556,-84.6625,Census,City,FL,"Gretna, Florida",0,0,0,0,0,0,0,0,0,0,0,0,0,0,0.0,0,385,647.0,883.0,1557,1981,1709.0,1460.0
21111,14348,US,109413,25.8213888889,-80.2402777778,Census,Census-designated place (CDP) &amp; Unincorporated community,FL,"Brownsville, Florida",0,0,0,0,0,0,0,0,0,0,0,0,0,0,0.0,0,0,0.0,23442.0,18058,15607,14393.0,15313.0
21128,20807,US,109117,29.9927777778,-81.6838888889,Census,City,FL,"Green Cove Springs, Florida",0,0,0,0,0,0,0,0,0,320,1106,929,1319,2093,1719.0,1752,3291,4233.0,3857.0,4154,4497,5378.0,6908.0
21287,11657,US,2213214,27.7133333333,-82.3597222222,Census,Census-designated place,FL,"Sun City Center, Florida",0,0,0,0,0,0,0,0,0,0,0,0,0,0,0.0,0,0,0.0,2143.0,5605,8326,16321.0,19258.0
21319,20744,US,109026,26.3180555556,-80.0997222222,Census,City,FL,"Deerfield Beach, Florida",0,0,0,0,0,0,0,0,0,0,0,0,256,437,1483.0,1850,2088,9573.0,17130.0,39193,46997,64583.0,75018.0
21566,9199,US,109604,26.6455555556,-80.0752777778,Census,Town,FL,"Lake Clarke Shores, Florida",0,0,0,0,0,0,0,0,0,0,0,0,0,0,0.0,0,0,1297.0,2328.0,3174,3364,3451.0,3376.0
21608,55587,US,109820,29.19,-81.0894444444,Census,City,FL,"Daytona Beach, Florida",0,0,0,0,0,0,0,0,0,0,0,0,331,825,16598.0,22584,30167,37395.0,45327.0,54176,61921,64112.0,61005.0
21611,15285,US,109485,25.7469444444,-80.3369444444,Census,Census-designated place (CDP) &amp; Unincorporated community,FL,"Westchester, Florida",0,0,0,0,0,0,0,0,0,0,0,0,0,0,0.0,0,0,0.0,0.0,29272,29883,30271.0,29862.0
21659,14216,US,109481,25.809175,-80.2966972222,Census,Village,FL,"Virginia Gardens, Florida",0,0,0,0,0,0,0,0,0,0,0,0,0,0,0.0,0,235,2159.0,2524.0,2098,2212,2348.0,2375.0
21713,14644,US,109620,26.6358333333,-80.0961111111,Census,Village,FL,"Palm Springs, Florida",0,0,0,0,0,0,0,0,0,0,0,0,0,0,0.0,0,0,2503.0,4340.0,8166,9763,11699.0,18928.0
21721,38409,US,72357,30.61,-87.33,Census,US County,FL,"Escambia County, Florida",0,0,0,0,0,3993,4351,5768,7817,12156,20188,28313,38029,49386,53594.0,74667,112706,173829.0,205334.0,233794,262798,294410.0,297619.0
21728,10581,US,109192,27.4961111111,-81.7969444444,Census,Town,FL,"Zolfo Springs, Florida",0,0,0,0,0,0,0,0,0,0,0,0,171,256,272.0,223,334,838.0,1117.0,1495,1219,1641.0,1827.0
21789,42319,US,109009,28.5911111111,-80.82,Census,City,FL,"Titusville, Florida",0,0,0,0,0,0,0,0,0,0,746,756,868,1361,2089.0,2220,2604,6410.0,30515.0,31910,39394,40670.0,43761.0
21852,10679,US,109286,30.0519444444,-83.1755555556,Census,Town,FL,"Mayo, Florida",0,0,0,0,0,0,0,0,0,0,0,0,578,531,555.0,915,679,687.0,793.0,891,917,988.0,1237.0
21861,23081,US,72364,30.58,-84.61,Census,US County,FL,"Gadsden County, Florida",0,0,0,0,0,5992,8784,9396,9802,12169,11894,15294,22198,23539,29890.0,31450,36457,41989.0,39184.0,41565,41105,45087.0,46389.0
21905,26594,US,109087,26.1075,-80.3880555556,Census,City,FL,"Weston, Florida",0,0,0,0,0,0,0,0,0,0,0,0,0,0,0.0,0,0,0.0,0.0,0,9829,49286.0,65333.0
21957,30656,US,109142,30.1833333333,-82.6333333333,Census,City,FL,"Lake City, Florida",0,0,0,0,0,0,0,659,964,1379,2020,4013,5032,3341,4416.0,5836,7571,9465.0,10575.0,9257,10005,9980.0,12046.0
21974,13087,US,109777,28.7575,-81.3291666667,Census,City,FL,"Lake Mary, Florida",0,0,0,0,0,0,0,0,0,0,0,0,0,0,0.0,0,0,0.0,0.0,2853,5929,11458.0,13822.0
21987,14597,US,109430,25.965,-80.1225,Census,Town,FL,"Golden Beach, Florida",0,0,0,0,0,0,0,0,0,0,0,0,0,0,36.0,83,156,413.0,849.0,612,774,919.0,919.0
21999,8444,US,109353,26.6747222222,-81.8175,Census,CDP,FL,"Tice, Florida",0,0,0,0,0,0,0,0,0,0,0,0,0,0,0.0,0,1133,4377.0,7254.0,6645,3971,4538.0,0.0
22023,26898,US,109633,26.655,-80.2541666667,Census,Village,FL,"Wellington, Florida",0,0,0,0,0,0,0,0,0,0,0,0,0,0,0.0,0,0,0.0,0.0,4622,20670,38216.0,56508.0
22072,19363,US,109424,25.8551722222,-80.1941694444,Census,Village,FL,"El Portal, Florida",0,0,0,0,0,0,0,0,0,0,0,0,0,0,0.0,365,1371,2079.0,2068.0,2055,2457,2505.0,2325.0
22098,15606,US,109292,28.8511111111,-81.6819444444,Census,City,FL,"Eustis, Florida",0,0,0,0,0,0,0,0,0,0,0,411,910,1193,2835.0,2930,4005,6189.0,6722.0,9453,12967,15106.0,18558.0
22165,67481,US,108959,29.6519972222,-82.3249916667,Census,City,FL,"Gainesville, Florida",0,0,0,0,0,0,0,0,0,0,2790,3633,6183,6860,10465.0,13757,26861,29701.0,64510.0,81371,84770,95447.0,124354.0
22271,11186,US,109376,27.4711111111,-82.6997222222,Census,City,FL,"Bradenton Beach, Florida",0,0,0,0,0,0,0,0,0,0,0,0,0,0,0.0,0,0,1124.0,1370.0,1603,1657,1482.0,1171.0
22285,9377,US,109658,28.2163888889,-82.1875,Census,CDP,FL,"Zephyrhills South, Florida",0,0,0,0,0,0,0,0,0,0,0,0,0,0,0.0,0,0,0.0,0.0,1986,2514,4435.0,5276.0
22310,13704,US,4817750,28.1558333333,-81.4763888889,Census,CDP,FL,"Poinciana, Florida",0,0,0,0,0,0,0,0,0,0,0,0,0,0,0.0,0,0,0.0,0.0,0,0,13647.0,53193.0
22396,26954,US,73630,25.12,-81.15,Census,Census Area,FL,"Monroe County, Florida",0,0,0,0,0,688,2645,2913,5657,10940,18786,18006,21563,19550,13624.0,14078,29957,47921.0,52586.0,63188,78024,79589.0,73090.0
22430,11116,US,109250,28.0697222222,-82.4372222222,Census,Census-designated place,FL,"University, Hillsborough County, Florida",0,0,0,0,0,0,0,0,0,0,0,0,0,0,0.0,0,0,0.0,10039.0,24514,23760,30736.0,41163.0
22441,13513,US,109474,25.8784083333,-80.1259944444,Census,Town|,FL,"Surfside, Florida",0,0,0,0,0,0,0,0,0,0,0,0,0,0,0.0,295,1852,3157.0,3614.0,3763,4108,4909.0,5744.0
22504,17148,US,108976,30.1766666667,-85.8055555556,Census,City,FL,"Panama City Beach, Florida",0,0,0,0,0,0,0,0,0,0,0,0,0,0,0.0,0,0,36.0,67.0,2148,4051,7671.0,12018.0
22534,11681,US,109363,29.0327777778,-82.6666666667,Census,Town,FL,"Inglis, Florida",0,0,0,0,0,0,0,0,0,0,0,0,0,0,0.0,0,0,250.0,449.0,1173,1241,1491.0,1325.0
22538,13015,US,109646,28.2038888889,-82.4488888889,Census,CDP,FL,"Land O' Lakes, Florida",0,0,0,0,0,0,0,0,0,0,0,0,0,0,0.0,0,0,0.0,0.0,4515,7892,20971.0,31996.0
22621,59612,US,109021,26.2705555556,-80.2591666667,Census,City,FL,"Coral Springs, Florida",0,0,0,0,0,0,0,0,0,0,0,0,0,0,0.0,0,0,0.0,1489.0,37349,79443,117549.0,121096.0
22788,17396,US,72011,30.41,-85.2,Census,US County,FL,"Calhoun County, Florida",0,0,0,0,0,1142,1377,1446,998,1580,1681,5132,7465,8775,7298.0,8218,7922,7422.0,7624.0,9294,11011,13017.0,14625.0
22825,29744,US,73612,30.46,-84.28,Census,US County,FL,"Leon County, Florida",0,0,0,0,0,10713,11442,12343,15236,19662,17752,19887,19427,18059,23476.0,31646,51590,74225.0,103047.0,148655,192493,239452.0,275487.0
22859,19569,US,109187,30.5188888889,-82.9511111111,Census,City,FL,"Jasper, Florida",0,0,0,0,0,0,0,0,138,311,0,993,1730,1260,1748.0,1722,2327,2103.0,2221.0,2093,2099,1780.0,4546.0
22898,9538,US,109288,28.7133333333,-81.7341666667,Census,Town,FL,"Astatula, Florida",0,0,0,0,0,0,0,0,0,0,0,0,0,0,167.0,153,255,357.0,388.0,755,995,1388.0,1810.0
22911,12526,US,72386,29.99,-83.18,Census,US County,FL,"Lafayette County, Florida",0,0,0,0,0,0,0,2068,1783,2441,3686,4987,6710,6242,4361.0,4405,3440,2889.0,2892.0,4035,5578,7022.0,8870.0
22951,9513,US,109134,26.2636111111,-81.8075,Census,Census-designated place,FL,"Naples Park, Florida",0,0,0,0,0,0,0,0,0,0,0,0,0,0,0.0,0,0,0.0,3201.0,5438,8002,6741.0,5967.0
22960,9495,US,109463,25.6197222222,-80.3616666667,Census,CDP,FL,"Palmetto Estates, Florida",0,0,0,0,0,0,0,0,0,0,0,0,0,0,0.0,0,0,0.0,0.0,11116,12293,13675.0,0.0
23048,13428,US,72366,26.95,-81.19,Census,US County,FL,"Glades County, Florida",0,0,0,0,0,0,0,0,0,0,0,0,0,0,2762.0,2745,2199,2950.0,3669.0,5992,7591,10576.0,12884.0
23068,13077,US,2554269,25.9833333333,-80.1863888889,Census,City,FL,"West Park, Florida",0,0,0,0,0,0,0,0,0,0,0,0,0,0,0.0,0,0,0.0,0.0,0,0,12713.0,14156.0
23069,17563,US,109110,28.8391666667,-82.3402777778,Census,City,FL,"Inverness, Florida",0,0,0,0,0,0,0,0,0,0,0,0,0,1132,1215.0,1075,1471,1878.0,2299.0,4095,5797,6789.0,7210.0
23094,9013,US,109728,28.0388888889,-82.0033333333,Census,Former Census-designated place (CDP); Unincorporated community,FL,"Winston, Florida",0,0,0,0,0,0,0,0,0,0,0,0,0,0,0.0,0,1870,3323.0,4505.0,9315,9118,9024.0,0.0
23131,13167,US,109418,25.9391666667,-80.3111111111,Census,Census-designated place (CDP) &amp; Unincorporated community,FL,"Country Club, Florida",0,0,0,0,0,0,0,0,0,0,0,0,0,0,0.0,0,0,0.0,0.0,0,3408,36310.0,0.0
23237,9386,US,109796,27.2863888889,-80.2205555556,Census,CDP,FL,"Hutchinson Island South, Florida",0,0,0,0,0,0,0,0,0,0,0,0,0,0,0.0,0,0,0.0,0.0,0,3893,4846.0,5201.0
23323,17780,US,109701,28.1605555556,-81.6027777778,Census,City,FL,"Davenport, Florida",0,0,0,0,0,0,0,0,0,0,0,0,0,117,650.0,640,760,1209.0,1303.0,1509,1529,1924.0,2888.0
23357,10213,US,109501,30.5608333333,-81.8308333333,Census,Town,FL,"Callahan, Florida",0,0,0,0,0,0,0,0,0,0,0,0,0,511,637.0,685,722,782.0,772.0,869,946,962.0,1123.0
23441,12083,US,109174,30.5694444444,-84.7444444444,Census,Town,FL,"Greensboro, Florida",0,0,0,0,0,0,0,0,0,0,0,0,175,302,350.0,443,565,709.0,716.0,562,586,619.0,602.0
23513,12686,US,75107,30.19,-82.99,Census,US County,FL,"Suwannee County, Florida",0,0,0,0,0,0,0,2303,3556,7161,10524,14554,18603,19789,15731.0,17073,16986,14961.0,15559.0,22287,26780,34844.0,41551.0
23560,18552,US,57770,29.98,-81.86,Census,US County,FL,"Clay County, Florida",0,0,0,0,0,0,0,1914,2098,2838,5154,5635,6116,5621,6859.0,6468,14323,19535.0,32059.0,67052,105986,140814.0,190865.0
23565,13327,US,73618,30.23,-84.89,Census,US County,FL,"Liberty County, Florida",0,0,0,0,0,0,0,1457,1050,1362,1452,2956,4700,5006,4067.0,3752,3182,3138.0,3379.0,4260,5569,7021.0,8365.0
23654,11520,US,109415,25.9422222222,-80.27,Census,Neighborhood of Miami Gardens,FL,"Carol City, Florida",0,0,0,0,0,0,0,0,0,0,0,0,0,0,0.0,0,0,21749.0,27361.0,47349,53331,59443.0,61233.0
23764,6860,US,9731804,26.6836111111,-80.2797222222,Census,,FL,"Loxahatchee Groves, Florida",0,0,0,0,0,0,0,0,0,0,0,0,0,0,0.0,0,0,0.0,0.0,0,0,0.0,3180.0
23802,22669,US,109170,29.7252777778,-84.9925,Census,City,FL,"Apalachicola, Florida",0,0,0,0,0,0,0,1904,1129,1336,2727,3077,3065,3066,3150.0,3268,3222,3099.0,3102.0,2565,2602,2334.0,2231.0
23812,11882,US,109851,30.7791666667,-85.5391666667,Census,City,FL,"Chipley, Florida",0,0,0,0,0,0,0,0,0,0,354,652,1099,1806,1878.0,2167,2959,3159.0,3347.0,3330,3866,3592.0,3605.0
23815,9332,US,109465,25.8705555556,-80.2172222222,Census,CDP,FL,"Pinewood, Florida",0,0,0,0,0,0,0,0,0,0,0,0,0,0,0.0,0,0,0.0,0.0,16252,15518,16523.0,16520.0
23896,14257,US,109244,,,Census,Census-designated place,FL,"Riverview, Hillsborough County, Florida",0,0,0,0,0,0,0,0,0,0,0,0,0,0,0.0,0,0,0.0,2225.0,0,6478,12035.0,71050.0
23940,9443,US,109473,25.7058333333,-80.3563888889,Census,CDP,FL,"Sunset, Florida",0,0,0,0,0,0,0,0,0,0,0,0,0,0,0.0,0,0,0.0,0.0,13531,15810,17150.0,16389.0
23953,8636,US,109713,28.0383333333,-81.7661111111,Census,CDP,FL,"Inwood, Florida",0,0,0,0,0,0,0,0,0,0,0,0,0,0,0.0,0,2326,5050.0,7716.0,6668,6824,6925.0,0.0
23956,8804,US,109700,28.0033333333,-81.6905555556,Census,CDP,FL,"Cypress Gardens, Florida",0,0,0,0,0,0,0,0,0,0,0,0,0,0,0.0,0,0,0.0,3757.0,8043,9188,8844.0,0.0
23992,17443,US,109705,27.75,-81.5333333333,Census,City,FL,"Frostproof, Florida",0,0,0,0,0,0,0,0,0,0,0,0,0,0,1406.0,1704,2329,2664.0,2814.0,2995,2808,2975.0,2992.0
24023,22325,US,72017,26.08,-81.4,Census,US County,FL,"Collier County, Florida",0,0,0,0,0,0,0,0,0,0,0,0,0,0,2883.0,5102,6488,15753.0,38040.0,85971,152099,251377.0,321520.0
24093,10545,US,109736,29.4816666667,-81.6716666667,Census,Town,FL,"Welaka, Florida",0,0,0,0,0,0,0,0,0,0,0,215,294,350,409.0,457,459,526.0,496.0,492,533,586.0,701.0
24109,11369,US,109653,28.3380555556,-82.2533333333,Census,Town,FL,"St. Leo, Florida",0,0,0,0,0,0,0,0,0,0,0,0,0,0,158.0,211,261,278.0,1145.0,917,1009,595.0,1340.0
24118,11083,US,109304,28.5780555556,-81.7469444444,Census,City,FL,"Minneola, Florida",0,0,0,0,0,0,0,0,0,0,0,0,0,0,185.0,269,399,684.0,878.0,851,1515,5435.0,9403.0
24153,9697,US,109763,27.3088888889,-82.5105555556,Census,Census-designated place,FL,"Southgate, Florida",0,0,0,0,0,0,0,0,0,0,0,0,0,0,0.0,0,0,0.0,6885.0,7322,7324,7455.0,7173.0
24295,13591,US,109148,30.3347222222,-81.4088888889,Census,City,FL,"Atlantic Beach, Florida",0,0,0,0,0,0,0,0,0,0,0,0,0,0,164.0,468,1604,3125.0,6132.0,7847,11636,13368.0,12655.0
24323,10558,US,109390,29.0613888889,-82.055,Census,City,FL,"Belleview, Florida",0,0,0,0,0,0,0,0,0,0,130,137,190,237,400.0,433,595,864.0,916.0,1913,2666,3478.0,4492.0
24341,9423,US,108972,30.1508333333,-85.7613888889,Census,Census-designated place,FL,"Lower Grand Lagoon, Florida",0,0,0,0,0,0,0,0,0,0,0,0,0,0,0.0,0,0,0.0,0.0,1619,3329,4082.0,3881.0
24359,13526,US,109314,28.8016666667,-81.7336111111,Census,City,FL,"Tavares, Florida",0,0,0,0,0,0,0,0,0,0,0,113,175,359,1090.0,1119,1763,2724.0,3261.0,4398,7383,9700.0,13951.0
24378,12476,US,109373,27.5302777778,-82.7344444444,Census,City,FL,"Anna Maria, Florida",0,0,0,0,0,0,0,0,0,0,0,0,0,0,77.0,158,345,690.0,1137.0,1537,1744,1814.0,1503.0
24401,11542,US,109367,29.0333333333,-82.7166666667,Census,Town,FL,"Yankeetown, Florida",0,0,0,0,0,0,0,0,0,0,0,0,0,0,157.0,255,322,425.0,490.0,600,635,629.0,502.0
24446,37659,US,109006,28.1733333333,-80.5966666667,Census,City,FL,"Satellite Beach, Florida",0,0,0,0,0,0,0,0,0,0,0,0,0,0,0.0,0,0,825.0,6558.0,9163,9889,9577.0,10109.0
24474,13831,US,109770,28.6611111111,-81.3219444444,Census,City,FL,"Casselberry, Florida",0,0,0,0,0,0,0,0,0,0,0,0,0,0,0.0,0,407,2463.0,9438.0,15037,18911,22629.0,26241.0
24479,29888,US,109804,28.6488888889,-81.9952777778,Census,City,FL,"Center Hill, Florida",0,0,0,0,0,0,0,0,0,0,0,0,299,574,726.0,545,522,529.0,371.0,751,735,910.0,988.0
24484,29573,US,109618,26.848788,-80.167124,Census,City,FL,"Palm Beach Gardens, Florida",0,0,0,0,0,0,0,0,0,0,0,0,0,0,0.0,0,0,1.0,6102.0,14407,22965,35058.0,48452.0
24513,10588,US,109156,30.5125,-87.2013888889,Census,Census-designated place,FL,"Ferry Pass, Florida",0,0,0,0,0,0,0,0,0,0,0,0,0,0,0.0,0,0,0.0,0.0,16910,26301,27176.0,28921.0
24531,19769,US,109679,28.0419444444,-82.6763888889,Census,City,FL,"Oldsmar, Florida",0,0,0,0,0,0,0,0,0,0,0,0,0,0,280.0,315,345,878.0,1538.0,2608,8361,11910.0,13591.0
24540,12985,US,109118,30.1347222222,-81.7658333333,Census,Census-designated place,FL,"Lakeside, Florida",0,0,0,0,0,0,0,0,0,0,0,0,0,0,0.0,0,0,0.0,0.0,10534,29137,30927.0,30943.0
24547,65573,US,108996,28.1166666667,-80.6333333333,Census,City,FL,"Melbourne, Florida",0,0,0,0,0,0,0,0,0,0,99,131,157,533,2677.0,2622,4223,11982.0,40236.0,46536,59646,71382.0,76068.0
24548,16374,US,109035,26.2938888889,-80.0783333333,Census,Town,FL,"Hillsboro Beach, Florida",0,0,0,0,0,0,0,0,0,0,0,0,0,0,0.0,0,84,437.0,1181.0,1554,1748,2163.0,1981.0
24603,10142,US,123806,25.5888888889,-80.3852777778,Census,CDP,FL,"South Miami Heights, Florida",0,0,0,0,0,0,0,0,0,0,0,0,0,0,0.0,0,0,0.0,10395.0,23559,30030,33522.0,35696.0
24672,9772,US,109369,30.4666666667,-83.6333333333,Census,Town,FL,"Greenville, Florida",0,0,0,0,0,0,0,0,0,0,0,0,751,668,904.0,1114,1163,1318.0,1141.0,1096,950,837.0,843.0
24690,13728,US,109769,28.6613888889,-81.3919444444,Census,City,FL,"Altamonte Springs, Florida",0,0,0,0,0,0,0,0,0,0,0,0,0,441,281.0,551,858,1212.0,4391.0,22028,34879,41200.0,41496.0
24777,48494,US,109665,27.9736111111,-82.7641666667,Census,City,FL,"Clearwater, Florida",0,0,0,0,0,0,0,0,0,0,0,383,1171,2427,7607.0,10136,15581,34653.0,52074.0,85170,98669,108787.0,107685.0
24814,13020,US,109816,30.2944444444,-82.9858333333,Census,City,FL,"Live Oak, Florida",0,0,0,0,0,0,0,0,0,458,687,1659,3450,3103,2734.0,3427,4064,6544.0,6830.0,6732,6332,6480.0,6850.0
24829,13535,US,109368,30.4269444444,-84.9791666667,Census,City,FL,"Bristol, Florida",0,0,0,0,0,0,0,0,0,0,0,0,0,0,0.0,0,0,614.0,626.0,1044,937,845.0,996.0
24843,9226,US,109303,28.5763888889,-81.8883333333,Census,City,FL,"Mascotte, Florida",0,0,0,0,0,0,0,0,0,0,0,0,0,0,260.0,239,440,702.0,966.0,1112,1761,2687.0,5101.0
