,article_length,country,id,lat,lon,other_years,poptype,settlement_type,state,title,y1790,y1800,y1810,y1820,y1830,y1840,y1850,y1860,y1870,y1880,y1890,y1900,y1910,y1920,y1930,y1940,y1950,y1960,y1970,y1980,y1990,y2000,y2010
64,11497,US,123791,28.0580555556,-82.5152777778,,Census,Census-designated place,FL,"Carrollwood (CDP), Florida",0,0,0,0,0,0,0,0,0,0,0,0,0,0,0.0,0,0,0.0,0.0,0.0,0.0,33519.0,33365.0
72,8101,US,123823,28.034348,-81.910527,,Census,Cdp,FL,"Crystal Lake, Polk County, Florida",0,0,0,0,0,0,0,0,0,0,0,0,0,0,0.0,0,0,3172.0,6227.0,6827.0,5300.0,5341.0,0.0
109,27466,US,109507,30.7541666667,-86.5727777778,,Census,City,FL,"Crestview, Florida",0,0,0,0,0,0,0,0,0,0,0,0,0,500,930.0,2252,5003,7467.0,7952.0,7617.0,9886.0,14766.0,20978.0
112,25653,US,109472,25.9416666667,-80.125,,Census,City,FL,"Sunny Isles Beach, Florida",0,0,0,0,0,0,0,0,0,0,0,0,0,0,0.0,0,0,0.0,0.0,0.0,0.0,15315.0,20832.0
169,12300,US,109253,27.7097222222,-82.3177777778,,Census,Census-designated place,FL,"Wimauma, Florida",0,0,0,0,0,0,0,0,0,0,0,0,0,0,400.0,557,440,576.0,0.0,1477.0,2932.0,4246.0,6373.0
176,34329,US,73606,28.77,-81.72,,Census,US County,FL,"Lake County, Florida",0,0,0,0,0,0,0,0,0,0,8034,7467,9509,12744,23161.0,27255,36340,57383.0,69305.0,104870.0,152104.0,210528.0,297052.0
186,33346,US,109566,28.5961111111,-81.3466666667,"[[y1905,461],[y1915,787],[y1925,2360],[y1935,4837],[y1945,5586],[y2016,30208]]", USA,City,FL,"Winter Park, Florida",0,0,0,0,0,0,0,0,0,0,270,366,570,1078,3686.0,4715,8250,17162.0,21895.0,22339.0,22242.0,24090.0,27852.0
211,17674,US,109044,26.1655555556,-80.2325,,Census,City,FL,"Lauderhill, Florida",0,0,0,0,0,0,0,0,0,0,0,0,0,0,0.0,0,0,132.0,8465.0,37271.0,49708.0,57585.0,66887.0
224,21325,US,72372,27.49,-81.81,,Census,US County,FL,"Hardee County, Florida",0,0,0,0,0,0,0,0,0,0,0,0,0,0,10348.0,10158,10073,12370.0,14889.0,19379.0,19499.0,26938.0,27731.0
235,9993,US,109231,28.0152777778,-82.5072222222,,Census,Census-designated place,FL,"Egypt Lake-Leto, Florida",0,0,0,0,0,0,0,0,0,0,0,0,0,0,0.0,0,0,0.0,0.0,0.0,0.0,32782.0,35282.0
268,92023,US,44745,26.3686111111,-80.1,,Census,City,FL,"Boca Raton, Florida",0,0,0,0,0,0,0,0,0,0,0,0,0,0,447.0,723,992,6961.0,28506.0,49447.0,61492.0,74764.0,84394.0
291,20014,US,109524,28.3913888889,-81.5666666667,,Census,City,FL,"Bay Lake, Florida",0,0,0,0,0,0,0,0,0,0,0,0,0,0,0.0,0,0,0.0,24.0,74.0,0.0,23.0,47.0
297,19373,US,109836,29.2863888889,-81.075,,Census,City,FL,"Ormond Beach, Florida",0,0,0,0,0,0,0,0,0,0,239,595,780,1292,1517.0,1914,3418,8658.0,14063.0,21436.0,29721.0,36301.0,38137.0
409,13202,US,109523,28.455,-81.5055555556,,Census,Census-designated place,FL,"Bay Hill, Florida",0,0,0,0,0,0,0,0,0,0,0,0,0,0,0.0,0,0,0.0,0.0,0.0,5346.0,5177.0,4884.0
431,104917,US,109697,27.8925,-81.8397222222,,Census,City,FL,"Bartow, Florida",0,0,0,0,0,0,0,0,0,386,1386,1983,2662,4101,5269.0,6158,8694,12849.0,12891.0,14780.0,14716.0,15340.0,17298.0
437,9676,US,109763,27.3088888889,-82.5105555556,,Census,Census-designated place,FL,"Southgate, Florida",0,0,0,0,0,0,0,0,0,0,0,0,0,0,0.0,0,0,0.0,6885.0,7322.0,7324.0,7455.0,7173.0
522,10954,US,109230,27.9783333333,-82.3738888889,,Census,Census-designated place,FL,"East Lake-Orient Park, Florida",0,0,0,0,0,0,0,0,0,0,0,0,0,0,0.0,0,0,0.0,5697.0,5612.0,6171.0,5703.0,22753.0
541,92704,US,74643,,,,Census,US County,FL,"Pinellas County, Florida",0,0,0,0,0,0,0,0,0,0,0,0,0,28265,62149.0,91852,159249,374665.0,522329.0,728531.0,851659.0,921482.0,916542.0
693,13603,US,2554269,25.9833333333,-80.1863888889,,Census,City,FL,"West Park, Florida",0,0,0,0,0,0,0,0,0,0,0,0,0,0,0.0,0,0,0.0,0.0,0.0,0.0,12713.0,14156.0
718,11451,US,109180,29.5841666667,-82.9241666667,,Census,City,FL,"Fanning Springs, Florida",0,0,0,0,0,0,0,0,0,0,0,0,0,0,0.0,0,0,0.0,115.0,314.0,493.0,737.0,764.0
755,23129,US,109718,27.9047222222,-81.5841666667,,Census,City,FL,"Lake Wales, Florida",0,0,0,0,0,0,0,0,0,0,0,0,0,796,3401.0,5024,6821,8346.0,8240.0,8466.0,9670.0,10194.0,14225.0
760,9129,US,109758,27.31,-82.4783333333,,Census,Census-designated place,FL,"Sarasota Springs, Florida",0,0,0,0,0,0,0,0,0,0,0,0,0,0,0.0,0,0,0.0,4405.0,13860.0,16088.0,15875.0,14395.0
767,9433,US,108978,30.1958333333,-85.6966666667,,Census,Census-designated place,FL,"Pretty Bayou, Florida",0,0,0,0,0,0,0,0,0,0,0,0,0,0,0.0,0,0,0.0,0.0,3340.0,3839.0,3519.0,3206.0
788,43763,US,109393,29.1877777778,-82.1305555556,,Census,City,FL,"Ocala, Florida",0,0,0,0,0,0,243,0,600,803,2904,3380,4370,4914,7281.0,8986,11741,13598.0,22583.0,37170.0,42045.0,45943.0,56315.0
811,26817,US,109247,28.0352777778,-82.3891666667,,Census,City,FL,"Temple Terrace, Florida",0,0,0,0,0,0,0,0,0,0,0,0,0,0,0.0,215,433,3812.0,7347.0,11097.0,16444.0,20918.0,24541.0
832,27133,US,109633,26.655,-80.2541666667,,Census,Village,FL,"Wellington, Florida",0,0,0,0,0,0,0,0,0,0,0,0,0,0,0.0,0,0,0.0,0.0,4622.0,20670.0,38216.0,56508.0
875,10423,US,109116,30.1772222222,-81.7416666667,,Census,Census-designated place,FL,"Bellair-Meadowbrook Terrace, Florida",0,0,0,0,0,0,0,0,0,0,0,0,0,0,0.0,0,0,0.0,0.0,12144.0,15606.0,16539.0,13343.0
876,12568,US,109609,26.5827777778,-80.0575,,Census,Town,FL,"Lantana, Florida",0,0,0,0,0,0,0,0,0,0,0,0,0,0,188.0,234,773,5021.0,7126.0,8048.0,8392.0,9437.0,10423.0
954,15044,US,109724,28.18,-81.8263888889,,Census,City,FL,"Polk City, Florida",0,0,0,0,0,0,0,0,0,0,0,0,0,0,222.0,195,171,203.0,151.0,576.0,1439.0,1516.0,1562.0
1079,22206,US,108993,28.1519444444,-80.595,,Census,City,FL,"Indian Harbour Beach, Florida",0,0,0,0,0,0,0,0,0,0,0,0,0,0,0.0,0,0,0.0,5371.0,5967.0,6933.0,8152.0,8225.0
1168,20436,US,109639,28.3613888889,-82.1933333333,,Census,City,FL,"Dade City, Florida",0,0,0,0,0,0,0,0,0,0,321,509,1066,1296,1811.0,2561,3006,4759.0,4241.0,4923.0,5633.0,6188.0,6437.0
1171,29210,US,109569,28.3038888889,-81.4127777778,,Census,City,FL,"Kissimmee, Florida",0,0,0,0,0,0,0,0,0,0,1086,1132,2157,2722,3163.0,3225,4310,6845.0,7119.0,15487.0,30050.0,47814.0,59682.0
1185,10025,US,109443,25.7055555556,-80.4405555556,,Census,Census-designated place (cdp),FL,"Kendall West, Florida",0,0,0,0,0,0,0,0,0,0,0,0,0,0,0.0,0,0,0.0,0.0,0.0,6038.0,38034.0,36154.0
1210,33020,US,72364,30.58,-84.61,,Census,US County,FL,"Gadsden County, Florida",0,0,0,0,4895,5992,8784,9396,9802,12169,11894,15294,22198,23539,29890.0,31450,36457,41989.0,39184.0,41565.0,41105.0,45087.0,46389.0
1226,10958,US,109390,29.0613888889,-82.055,,Census,City,FL,"Belleview, Florida",0,0,0,0,0,0,0,0,0,0,130,137,190,237,400.0,433,595,864.0,916.0,1913.0,2666.0,3478.0,4492.0
1281,11165,US,9346907,27.9341666667,-80.5658333333,,Census,Town,FL,"Grant-Valkaria, Florida",0,0,0,0,0,0,0,0,0,0,0,0,0,0,0.0,0,0,0.0,0.0,0.0,0.0,0.0,3850.0
1316,9515,US,109134,26.2636111111,-81.8075,,Census,Census-designated place,FL,"Naples Park, Florida",0,0,0,0,0,0,0,0,0,0,0,0,0,0,0.0,0,0,0.0,3201.0,5438.0,8002.0,6741.0,5967.0
1384,13623,US,109043,26.1894444444,-80.0977777778,,Census,Town,FL,"Lauderdale-by-the-Sea, Florida",0,0,0,0,0,0,0,0,0,0,0,0,0,0,0.0,0,234,1327.0,2879.0,2639.0,2990.0,2563.0,6056.0
1386,7919,US,37080931,28.5433333333,-81.1944444444,,Census,Census-designated place,FL,"Alafaya, Florida",0,0,0,0,0,0,0,0,0,0,0,0,0,0,0.0,0,0,0.0,0.0,0.0,0.0,0.0,0.0
1397,64139,US,72378,27.91,-82.35,,Census,US County,FL,"Hillsborough County, Florida",0,0,0,0,0,452,2377,2981,3216,5814,14941,36013,78374,88257,153519.0,180148,249894,397788.0,490265.0,646960.0,834054.0,998948.0,1229226.0
1501,9165,US,109748,27.2958333333,-82.4338888889,,Census,Census-designated place,FL,"Lake Sarasota, Florida",0,0,0,0,0,0,0,0,0,0,0,0,0,0,0.0,0,0,0.0,0.0,0.0,4117.0,4458.0,4679.0
1503,9554,US,109850,30.7755555556,-85.8105555556,,Census,Town,FL,"Caryville, Florida",0,0,0,0,0,0,0,0,0,0,0,0,0,440,1022.0,279,525,730.0,724.0,633.0,631.0,218.0,411.0
1513,9210,US,109828,28.9638888889,-80.9047222222,,Census,City,FL,"Edgewater, Volusia County, Florida",0,0,0,0,0,0,0,0,0,0,0,0,0,133,341.0,477,837,2051.0,3348.0,6726.0,15337.0,18668.0,20750.0
1571,19583,US,72369,29.9,-85.24,,Census,US County,FL,"Gulf County, Florida",0,0,0,0,0,0,0,0,0,0,0,0,0,0,3182.0,6951,7460,9937.0,10096.0,10658.0,11504.0,13332.0,15863.0
1578,9263,US,109808,28.6113888889,-82.0583333333,,Census,City,FL,"Webster, Florida",0,0,0,0,0,0,0,0,0,0,0,0,301,361,514.0,454,569,366.0,739.0,856.0,746.0,805.0,785.0
1653,21425,US,72366,26.95,-81.19,,Census,US County,FL,"Glades County, Florida",0,0,0,0,0,0,0,0,0,0,0,0,0,0,2762.0,2745,2199,2950.0,3669.0,5992.0,7591.0,10576.0,12884.0
1690,11005,US,109628,26.6663888889,-80.7188888889,,Census,City,FL,"South Bay, Florida",0,0,0,0,0,0,0,0,0,0,0,0,0,0,0.0,0,1050,1631.0,2958.0,3886.0,3558.0,3859.0,4876.0
1705,34870,US,72374,28.55,-82.47,,Census,US County,FL,"Hernando County, Florida",0,0,0,0,0,0,926,1200,2938,4248,2476,3638,4997,4548,4948.0,5641,6693,11205.0,17004.0,44469.0,101115.0,130802.0,172778.0
1732,35400,US,109456,25.8950222222,-80.1857472222,,Census,City,FL,"North Miami, Florida",0,0,0,0,0,0,0,0,0,0,0,0,0,0,0.0,1973,10734,28708.0,34767.0,42566.0,49998.0,59880.0,58786.0
1754,13570,US,109459,25.7263888889,-80.345,,Census,Cdp,FL,"Olympia Heights, Florida",0,0,0,0,0,0,0,0,0,0,0,0,0,0,0.0,0,0,0.0,0.0,33112.0,37792.0,13452.0,13488.0
1793,10042,US,109371,30.4194444444,-83.2997222222,,Census,Town,FL,"Lee, Florida",0,0,0,0,0,0,0,0,0,0,0,0,0,199,185.0,258,228,243.0,240.0,297.0,306.0,352.0,352.0
1821,28030,US,109225,27.9333333333,-82.2833333333,,Census,Census-designated place,FL,"Brandon, Florida",0,0,0,0,0,0,0,0,0,0,0,0,0,0,0.0,0,0,1665.0,12749.0,41826.0,57985.0,77895.0,103483.0
1837,8849,US,109587,26.6736111111,-80.0758333333,,Census,Town,FL,"Glen Ridge, Florida",0,0,0,0,0,0,0,0,0,0,0,0,0,0,0.0,0,126,226.0,216.0,235.0,207.0,276.0,219.0
1926,13845,US,109686,27.8386111111,-82.785,,Census,City,FL,"Seminole, Florida",0,0,0,0,0,0,0,0,0,0,0,0,0,0,0.0,0,0,0.0,0.0,4586.0,9251.0,10890.0,17233.0
1985,12442,US,109803,28.6638888889,-82.1141666667,,Census,City,FL,"Bushnell, Florida",0,0,0,0,0,0,0,0,0,0,0,0,0,400,591.0,676,536,644.0,700.0,983.0,1998.0,2050.0,2418.0
2001,29398,US,23210284,26.9158333333,-82.0477777778,,Census,City,FL,"Punta Gorda, Florida",0,0,0,0,0,0,0,0,0,0,262,860,1012,1295,1833.0,1889,1915,3157.0,3879.0,6797.0,10747.0,14344.0,16641.0
2048,14973,US,109430,25.965,-80.1225,,Census,Town,FL,"Golden Beach, Florida",0,0,0,0,0,0,0,0,0,0,0,0,0,0,36.0,83,156,413.0,849.0,612.0,774.0,919.0,919.0
2059,90683,US,109028,26.1333333333,-80.15,,Census,City,FL,"Fort Lauderdale, Florida",0,0,0,0,0,0,0,0,0,0,0,91,336,2257,8668.0,17996,36328,83648.0,139122.0,153279.0,149238.0,152397.0,165521.0
2090,15058,US,109716,28.0936111111,-81.725,,Census,City,FL,"Lake Alfred, Florida",0,0,0,0,0,0,0,0,0,0,0,0,0,317,629.0,920,1270,2191.0,2847.0,3134.0,3622.0,3890.0,5015.0
2129,18577,US,109651,28.3366666667,-82.275,,Census,City,FL,"San Antonio, Florida",0,0,0,0,0,0,0,0,0,0,0,0,131,262,322.0,267,286,479.0,473.0,529.0,776.0,655.0,1138.0
2189,13744,US,109546,28.5544444444,-81.6311111111,,Unknown,Town,FL,"Oakland, Florida",0,0,0,0,0,0,0,0,0,0,0,0,0,0,0.0,0,0,0.0,0.0,0.0,0.0,0.0,0.0
2281,27738,US,72006,29.95,-82.17,,Census,US County,FL,"Bradford County, Florida",0,0,0,0,0,0,0,3820,3671,6112,7516,10295,14090,12503,9405.0,8717,11457,12446.0,14625.0,20023.0,22515.0,26088.0,28520.0
2313,12339,US,109611,26.5708333333,-80.0444444444,,Census,Town,FL,"Manalapan, Florida",0,0,0,0,0,0,0,0,0,0,0,0,0,0,0.0,40,54,62.0,205.0,329.0,312.0,321.0,406.0
2390,14773,US,109360,29.4816666667,-82.8622222222,,Census,City,FL,"Chiefland, Florida",0,0,0,0,0,0,0,0,0,0,0,0,0,0,421.0,572,843,1459.0,1965.0,1986.0,1917.0,1993.0,2245.0
2420,28255,US,73641,,,,Census,US County,FL,"Osceola County, Florida",0,0,0,0,0,0,0,0,0,0,3133,3444,5507,7195,10699.0,10119,11406,19029.0,25267.0,49287.0,107728.0,172493.0,268685.0
2539,9494,US,109668,27.905,-82.6736111111,,Census,Census-designated place,FL,"Feather Sound, Florida",0,0,0,0,0,0,0,0,0,0,0,0,0,0,0.0,0,0,0.0,0.0,0.0,2690.0,3597.0,3420.0
2558,7235,US,123818,26.6991666667,-80.0944444444,,Census,Census-designated place,FL,"Westgate, Florida",0,0,0,0,0,0,0,0,0,0,0,0,0,0,0.0,0,0,0.0,0.0,0.0,6880.0,8134.0,7975.0
2583,12234,US,109573,26.5933333333,-80.1044444444,,Census,City,FL,"Atlantis, Florida",0,0,0,0,0,0,0,0,0,0,0,0,0,0,0.0,0,0,2.0,425.0,1325.0,1653.0,2005.0,2005.0
2584,8835,US,109637,28.2122222222,-82.7488888889,,Census,Cdp,FL,"Beacon Square, Florida",0,0,0,0,0,0,0,0,0,0,0,0,0,0,0.0,0,0,0.0,2927.0,6513.0,6265.0,7263.0,0.0
2585,8979,US,109287,28.9658333333,-81.6483333333,,Census,Census-designated place,FL,"Altoona, Florida",0,0,0,0,0,0,0,0,0,0,0,0,0,0,0.0,0,0,0.0,0.0,0.0,0.0,0.0,0.0
2628,7404,US,109588,26.7002777778,-80.1675,,Census,Unincorporated place,FL,"Golden Lakes, Florida",0,0,0,0,0,0,0,0,0,0,0,0,0,0,0.0,0,0,0.0,0.0,0.0,3867.0,6694.0,0.0
2662,10339,US,109768,27.0475,-82.2688888889,,Census,Census-designated place,FL,"Warm Mineral Springs, Florida",0,0,0,0,0,0,0,0,0,0,0,0,0,0,0.0,0,0,0.0,0.0,0.0,4041.0,4811.0,5061.0
2677,22877,US,73618,30.23,-84.89,,Census,US County,FL,"Liberty County, Florida",0,0,0,0,0,0,0,1457,1050,1362,1452,2956,4700,5006,4067.0,3752,3182,3138.0,3379.0,4260.0,5569.0,7021.0,8365.0
2717,9365,US,109796,27.2863888889,-80.2205555556,,Census,Cdp,FL,"Hutchinson Island South, Florida",0,0,0,0,0,0,0,0,0,0,0,0,0,0,0.0,0,0,0.0,0.0,0.0,3893.0,4846.0,5201.0
2768,10977,US,109819,30.0627777778,-82.2369444444,,Census,Town,FL,"Raiford, Florida",0,0,0,0,0,0,0,0,0,0,0,0,0,412,460.0,0,0,0.0,0.0,259.0,198.0,187.0,255.0
2779,8512,US,109644,28.2936111111,-82.6916666667,,Census,Cdp,FL,"Jasmine Estates, Florida",0,0,0,0,0,0,0,0,0,0,0,0,0,0,0.0,0,0,0.0,2967.0,11995.0,17136.0,18213.0,18989.0
2858,10309,US,109550,28.5444444444,-81.4616666667,,Census,Census-designated place &amp; unincorporated community,FL,"Orlo Vista, Florida",0,0,0,0,0,0,0,0,0,0,0,0,0,0,0.0,0,0,0.0,0.0,6474.0,5990.0,6047.0,6123.0
2913,9105,US,109642,28.1838888889,-82.7427777778,,Census,Cdp,FL,"Holiday, Florida",0,0,0,0,0,0,0,0,0,0,0,0,0,0,0.0,0,0,0.0,0.0,18392.0,19360.0,21904.0,22403.0
2945,9863,US,109284,30.7097222222,-84.9258333333,,Census,Town,FL,"Sneads, Florida",0,0,0,0,0,0,0,0,0,0,0,368,506,492,637.0,727,1074,1399.0,1550.0,1690.0,1746.0,1919.0,1849.0
2967,9623,US,108966,30.2761111111,-82.1613888889,,Census,Town,FL,"Glen St. Mary, Florida",0,0,0,0,0,0,0,0,0,0,0,0,0,0,0.0,0,0,329.0,357.0,462.0,480.0,473.0,437.0
3076,26718,US,109421,25.5825,-80.3466666667,,Census,Town,FL,"Cutler Bay, Florida",0,0,0,0,0,0,0,0,0,0,0,0,0,0,0.0,0,0,7005.0,17441.0,20886.0,21268.0,24781.0,40286.0
3100,17343,US,109035,26.2938888889,-80.0783333333,,Census,Town,FL,"Hillsboro Beach, Florida",0,0,0,0,0,0,0,0,0,0,0,0,0,0,0.0,0,84,437.0,1181.0,1554.0,1748.0,2163.0,1981.0
3179,67528,US,109162,30.4333333333,-87.2,,Census,City,FL,"Pensacola, Florida",0,0,0,0,0,0,2164,2876,3347,6845,11750,17747,22982,31035,31579.0,37449,43479,56752.0,59507.0,57619.0,58165.0,56255.0,51923.0
3187,9306,US,109465,25.8705555556,-80.2172222222,,Census,Cdp,FL,"Pinewood, Florida",0,0,0,0,0,0,0,0,0,0,0,0,0,0,0.0,0,0,0.0,0.0,16252.0,15518.0,16523.0,16520.0
3210,11049,US,109286,30.0519444444,-83.1755555556,,Census,Town,FL,"Mayo, Florida",0,0,0,0,0,0,0,0,0,0,0,0,578,531,555.0,915,679,687.0,793.0,891.0,917.0,988.0,1237.0
3334,12820,US,109840,29.1188888889,-81.0027777778,,Census,City,FL,"Port Orange, Florida",0,0,0,0,0,0,0,0,0,0,0,0,0,380,678.0,662,1201,1801.0,3781.0,18756.0,35317.0,45823.0,56048.0
3374,17370,US,109291,28.5475,-81.7494444444,,Census,City,FL,"Clermont, Florida",0,0,0,0,0,0,0,0,0,0,0,0,0,496,1086.0,1631,2168,3313.0,3661.0,5461.0,6910.0,9333.0,28742.0
3384,4474,US,2415820,28.0138888889,-82.4011111111,,Census,Unincorporated community,FL,"Del Rio, Florida",0,0,0,0,0,0,0,0,0,0,0,0,0,0,0.0,0,0,0.0,0.0,7409.0,8248.0,0.0,0.0
3488,7708,US,109593,26.3858333333,-80.1844444444,,Census,Unincorporated place,FL,"Hamptons at Boca Raton, Florida",0,0,0,0,0,0,0,0,0,0,0,0,0,0,0.0,0,0,0.0,0.0,0.0,11686.0,11306.0,0.0
3491,13315,US,109418,25.9391666667,-80.3111111111,,Census,Census-designated place (cdp) &amp; unincorporated community,FL,"Country Club, Florida",0,0,0,0,0,0,0,0,0,0,0,0,0,0,0.0,0,0,0.0,0.0,0.0,3408.0,36310.0,0.0
3497,15086,US,109620,26.6358333333,-80.0961111111,,Census,Village,FL,"Palm Springs, Florida",0,0,0,0,0,0,0,0,0,0,0,0,0,0,0.0,0,0,2503.0,4340.0,8166.0,9763.0,11699.0,18928.0
3574,10130,US,109420,25.6272222222,-80.3208333333,,Census,Neighborhood,FL,"Cutler, Florida",0,0,0,0,0,0,0,0,0,0,0,0,0,0,0.0,0,0,0.0,0.0,15593.0,16201.0,17390.0,0.0
3684,24048,US,72353,29.59,-83.19,,Census,US County,FL,"Dixie County, Florida",0,0,0,0,0,0,0,0,0,0,0,0,0,0,6419.0,7018,3928,4479.0,5480.0,7751.0,10585.0,13827.0,16422.0
3757,14030,US,109805,28.8002777778,-82.0688888889,,Census,City,FL,"Coleman, Florida",0,0,0,0,0,0,0,0,0,0,0,0,387,640,786.0,764,849,921.0,614.0,1022.0,857.0,647.0,703.0
3777,24301,US,109778,28.7019444444,-81.345,,Census,City,FL,"Longwood, Florida",0,0,0,0,0,0,0,0,0,0,57,0,0,106,318.0,406,717,1689.0,3203.0,10029.0,13316.0,13745.0,13657.0
3844,13787,US,109314,28.8016666667,-81.7336111111,,Census,City,FL,"Tavares, Florida",0,0,0,0,0,0,0,0,0,0,0,113,175,359,1090.0,1119,1763,2724.0,3261.0,4398.0,7383.0,9700.0,13951.0
3930,27764,US,72388,30.42,-83.9,,Census,US County,FL,"Jefferson County, Florida",0,0,0,0,3312,5713,7718,9876,13398,16065,15757,16195,17210,14502,13408.0,12032,10413,9543.0,8778.0,10703.0,11296.0,12902.0,14761.0
3953,10601,US,109259,27.7666666667,-80.5986111111,,Census,City,FL,"Fellsmere, Florida",0,0,0,0,0,0,0,0,0,0,0,0,0,333,356.0,643,649,732.0,813.0,1161.0,2179.0,3813.0,5197.0
4032,9962,US,109615,26.525,-80.0505555556,,Census,Town,FL,"Ocean Ridge, Florida",0,0,0,0,0,0,0,0,0,0,0,0,0,0,0.0,37,67,209.0,1074.0,1355.0,1570.0,1636.0,1786.0
4066,9248,US,109280,30.8736111111,-85.1625,,Census,Town,FL,"Greenwood, Florida",0,0,0,0,0,0,0,0,0,0,0,0,0,0,0.0,0,0,427.0,449.0,577.0,474.0,735.0,686.0
4100,9593,US,123794,27.7075,-80.3822222222,,Census,Town,FL,"Indian River Shores, Florida",0,0,0,0,0,0,0,0,0,0,0,0,0,0,0.0,0,0,19.0,76.0,1254.0,2278.0,3448.0,3901.0
4140,10292,US,109369,30.4666666667,-83.6333333333,,Census,Town,FL,"Greenville, Florida",0,0,0,0,0,0,0,0,0,0,0,0,751,668,904.0,1114,1163,1318.0,1141.0,1096.0,950.0,837.0,843.0
4187,16019,US,109020,26.0447222222,-80.2894444444,,Census,City,FL,"Cooper City, Florida",0,0,0,0,0,0,0,0,0,0,0,0,0,0,0.0,0,0,550.0,2535.0,10140.0,20791.0,27939.0,28547.0
4238,28958,US,109600,26.9261111111,-80.105,,Census,Town,FL,"Jupiter, Florida",0,0,0,0,0,0,0,0,0,0,0,0,0,0,176.0,215,313,1058.0,3136.0,9868.0,24986.0,39328.0,55156.0
4256,36762,US,109416,25.7166666667,-80.2722222222,,Census,City,FL,"Coral Gables, Florida",0,0,0,0,0,0,0,0,0,0,0,0,0,0,5697.0,8294,19837,34793.0,42494.0,43241.0,40091.0,42249.0,46780.0
4340,13731,US,109689,27.7247222222,-82.7419444444,,Census,City,FL,"St. Pete Beach, Florida",0,0,0,0,0,0,0,0,0,0,0,0,0,0,0.0,0,722,6268.0,8024.0,9354.0,9200.0,9929.0,9346.0
4347,10328,US,109190,27.6377777778,-81.8255555556,,Census,City,FL,"Bowling Green, Florida",0,0,0,0,0,0,0,0,0,0,0,0,422,692,1025.0,950,884,1171.0,1357.0,2310.0,1836.0,2755.0,2930.0
4350,8560,US,109065,26.2852777778,-80.1025,,Census,Neighborhood,FL,"Pompano Beach Highlands, Florida",0,0,0,0,0,0,0,0,0,0,0,0,0,0,0.0,0,0,0.0,5014.0,16154.0,17915.0,6505.0,0.0
4357,43088,US,109009,28.5911111111,-80.82,,Census,City,FL,"Titusville, Florida",0,0,0,0,0,0,0,0,0,0,746,756,868,1361,2089.0,2220,2604,6410.0,30515.0,31910.0,39394.0,40670.0,43761.0
4374,9884,US,109288,28.7133333333,-81.7341666667,,Census,Town,FL,"Astatula, Florida",0,0,0,0,0,0,0,0,0,0,0,0,0,0,167.0,153,255,357.0,388.0,755.0,995.0,1388.0,1810.0
4393,11684,US,109379,27.5097222222,-82.7158333333,,Census,City,FL,"Holmes Beach, Florida",0,0,0,0,0,0,0,0,0,0,0,0,0,0,0.0,0,137,1143.0,2699.0,4018.0,4810.0,4966.0,3836.0
4460,9900,US,109282,30.9572222222,-85.1611111111,,Census,Town,FL,"Malone, Florida",0,0,0,0,0,0,0,0,0,0,0,0,0,0,418.0,442,521,661.0,667.0,897.0,765.0,2007.0,2088.0
4479,34701,US,109064,26.2347222222,-80.1255555556,,Census,City,FL,"Pompano Beach, Florida",0,0,0,0,0,0,0,0,0,0,0,0,269,636,2614.0,4427,5682,15992.0,38587.0,52618.0,72411.0,78191.0,99845.0
4493,7477,US,109016,25.9916666667,-80.1916666667,,Census,Neighborhood,FL,"Carver Ranches, West Park, Florida",0,0,0,0,0,0,0,0,0,0,0,0,0,0,0.0,0,0,0.0,5515.0,0.0,0.0,4299.0,0.0
4547,9124,US,109720,27.9633333333,-81.9494444444,,Census,Cdp,FL,"Lakeland Highlands, Florida",0,0,0,0,0,0,0,0,0,0,0,0,0,0,0.0,0,0,0.0,0.0,10426.0,9972.0,12557.0,0.0
4581,22582,US,109242,28.0166666667,-82.1333333333,,Census,City,FL,"Plant City, Florida",0,0,0,0,0,0,0,0,0,0,349,720,2481,3729,6800.0,7491,9230,15711.0,15451.0,17064.0,22754.0,29915.0,34721.0
4652,13940,US,109278,30.9591666667,-85.5133333333,,Census,City,FL,"Graceville, Florida",0,0,0,0,0,0,0,0,0,0,0,0,734,840,1012.0,1181,1638,2307.0,2560.0,2918.0,2675.0,2402.0,2278.0
4746,14546,US,109482,25.8569444444,-80.2369444444,,Census,Cdp,FL,"West Little River, Florida",0,0,0,0,0,0,0,0,0,0,0,0,0,0,0.0,0,0,0.0,0.0,32492.0,33575.0,32498.0,34699.0
4757,10082,US,109557,28.4288888889,-81.3677777778,"[[y1915,216],[y1925,382]]", USA,Census-designated place,FL,"Taft, Florida",0,0,0,0,0,0,0,0,0,0,0,0,0,259,296.0,0,0,0.0,0.0,0.0,0.0,0.0,0.0
4772,8980,US,109542,28.6252777778,-81.4369444444,,Census,Census-designated place,FL,"Lockhart, Florida",0,0,0,0,0,0,0,0,0,0,0,0,0,0,0.0,0,0,0.0,5809.0,10569.0,11636.0,12944.0,13060.0
4774,9037,US,109767,27.0705555556,-82.4077777778,,Census,Census-designated place,FL,"Venice Gardens, Florida",0,0,0,0,0,0,0,0,0,0,0,0,0,0,0.0,0,0,0.0,0.0,6568.0,7701.0,7466.0,7104.0
4807,46961,US,109734,29.6477777778,-81.6513888889,,Census,City,FL,"Palatka, Florida",0,0,0,0,0,0,0,613,720,1616,3039,3301,3779,5102,6500.0,7140,9176,11028.0,9444.0,10175.0,10201.0,10033.0,10558.0
4833,10354,US,109597,26.5627777778,-80.0522222222,,Census,Town,FL,"Hypoluxo, Florida",0,0,0,0,0,0,0,0,0,0,0,0,0,0,0.0,0,0,114.0,336.0,573.0,830.0,2015.0,2588.0
4863,8468,US,109800,27.3225,-80.3341666667,,Census,Census-designated place,FL,"River Park, Florida",0,0,0,0,0,0,0,0,0,0,0,0,0,0,0.0,0,0,0.0,0.0,0.0,4874.0,5175.0,0.0
4919,27743,US,109830,29.2438888889,-81.0463888889,,Census,City,FL,"Holly Hill, Florida",0,0,0,0,0,0,0,0,0,0,0,0,207,332,1146.0,1665,3232,4182.0,8191.0,9953.0,11141.0,12119.0,11659.0
4968,8120,US,109273,30.6947222222,-85.3930555556,,Census,Town,FL,"Alford, Florida",0,0,0,0,0,0,0,0,0,0,0,0,0,207,221.0,283,375,380.0,402.0,548.0,472.0,466.0,489.0
4998,10920,US,109276,30.9486111111,-85.3963888889,,Census,Town,FL,"Campbellton, Florida",0,0,0,0,0,0,0,0,0,0,0,0,0,277,314.0,311,307,309.0,304.0,336.0,202.0,212.0,230.0
5097,10515,US,109392,29.4494444444,-82.2205555556,,Census,Town,FL,"McIntosh, Florida",0,0,0,0,0,0,0,0,0,0,0,0,0,440,272.0,397,247,258.0,287.0,404.0,411.0,453.0,452.0
5100,5520,US,22152093,26.0211111111,-80.1838888889,,Census,Neighborhood,FL,"West Hollywood (Hollywood, Florida)",0,0,0,0,0,0,0,0,0,0,0,0,0,0,0.0,0,1196,0.0,0.0,0.0,0.0,0.0,0.0
5185,12876,US,109252,28.0527777778,-82.6113888889,,Census,Census-designated place,FL,"Westchase, Florida",0,0,0,0,0,0,0,0,0,0,0,0,0,0,0.0,0,0,0.0,0.0,0.0,0.0,11116.0,21747.0
5295,26489,US,109457,25.9302777778,-80.1697222222,,Census,City,FL,"North Miami Beach, Florida",0,0,0,0,0,0,0,0,0,0,0,0,0,0,0.0,871,2129,21405.0,30544.0,36553.0,35359.0,40786.0,41523.0
5350,10999,US,109249,28.01,-82.5727777778,,Census,Census-designated place,FL,"Town 'n' Country, Florida",0,0,0,0,0,0,0,0,0,0,0,0,0,0,0.0,0,0,0.0,19453.0,37834.0,60946.0,72523.0,78422.0
5353,18242,US,109680,28.0838888889,-82.7538888889,,Census,Census-designated place,FL,"Palm Harbor, Florida",0,0,0,0,0,0,0,0,0,0,0,0,0,0,0.0,0,0,0.0,0.0,5215.0,50256.0,59248.0,57439.0
5382,9840,US,109160,30.42,-87.3025,,Census,Census-designated place,FL,"Myrtle Grove, Florida",0,0,0,0,0,0,0,0,0,0,0,0,0,0,0.0,0,0,0.0,16186.0,14238.0,17402.0,17211.0,15870.0
5519,22649,US,109057,26.1763888889,-80.1444444444,,Census,City,FL,"Oakland Park, Florida",0,0,0,0,0,0,0,0,0,0,0,0,0,0,463.0,815,1295,5331.0,16261.0,22944.0,26326.0,30966.0,41363.0
5609,25267,US,72012,26.9,-81.95,,Census,US County,FL,"Charlotte County, Florida",0,0,0,0,0,0,0,0,0,0,0,0,0,0,4013.0,3663,4286,12594.0,27559.0,58460.0,110975.0,141627.0,159978.0
5687,26220,US,109690,28.15,-82.75,,Census,City,FL,"Tarpon Springs, Florida",0,0,0,0,0,0,0,0,0,0,327,541,2212,2105,3414.0,3402,4323,6768.0,7118.0,13251.0,17906.0,21003.0,23484.0
5743,15213,US,109049,26.2463888889,-80.2122222222,,Census,City,FL,"Margate, Florida",0,0,0,0,0,0,0,0,0,0,0,0,0,0,0.0,0,0,2646.0,8867.0,35900.0,42985.0,53909.0,53284.0
5890,13943,US,109480,25.7452777778,-80.3661111111,,Census,Cdp,FL,"University Park, Florida",0,0,0,0,0,0,0,0,0,0,0,0,0,0,0.0,0,0,0.0,0.0,0.0,0.0,26538.0,26995.0
6007,24675,US,108991,28.087861,-80.568857,,Census,Town,FL,"Indialantic, Florida",0,0,0,0,0,0,0,0,0,0,0,0,0,0,0.0,0,0,1653.0,2685.0,2883.0,2844.0,2944.0,2720.0
6053,19849,US,109189,30.3316666667,-82.7561111111,,Census,Town,FL,"White Springs, Florida",0,0,0,0,0,0,0,0,0,0,543,690,1177,984,618.0,600,700,633.0,767.0,781.0,704.0,819.0,777.0
6081,9853,US,109747,27.3569444444,-82.4952777778,,Census,Census-designated place,FL,"Kensington Park, Florida",0,0,0,0,0,0,0,0,0,0,0,0,0,0,0.0,0,0,2969.0,3138.0,2887.0,3026.0,3720.0,3901.0
6211,13857,US,109149,30.3038888889,-81.975,,Census,Town,FL,"Baldwin, Florida",0,0,0,0,0,0,0,0,0,0,0,0,0,470,749.0,1002,1048,1272.0,1408.0,1526.0,1450.0,1634.0,1425.0
6236,10192,US,109606,26.8002777778,-80.0641666667,,Census,Town,FL,"Lake Park, Florida",0,0,0,0,0,0,0,0,0,0,0,0,0,0,470.0,379,489,3589.0,6993.0,6909.0,6704.0,8721.0,8155.0
6275,11065,US,109552,28.4683333333,-81.375,"[[y1925,425],[y1935,564]]", USA,Census-designated place,FL,"Pine Castle, Florida",0,0,0,0,0,0,0,0,0,0,0,0,0,0,481.0,0,0,0.0,0.0,0.0,0.0,0.0,0.0
6299,9467,US,109241,28.15,-82.3447222222,,Census,Census-designated place,FL,"Pebble Creek, Florida",0,0,0,0,0,0,0,0,0,0,0,0,0,0,0.0,0,0,0.0,0.0,0.0,0.0,4824.0,7622.0
6327,18114,US,108997,28.0677777778,-80.5616666667,,Census,Town,FL,"Melbourne Beach, Florida",0,0,0,0,0,0,0,0,0,0,0,0,0,0,72.0,90,230,1004.0,2262.0,2713.0,3021.0,3335.0,3101.0
6366,40689,US,109422,25.8081444444,-80.3533222222,,Census,City,FL,"Doral, Florida",0,0,0,0,0,0,0,0,0,0,0,0,0,0,0.0,0,0,0.0,0.0,0.0,3126.0,20438.0,45704.0
6379,30888,US,109375,27.4833333333,-82.5833333333,,Census,City,FL,"Bradenton, Florida",0,0,0,0,0,0,0,0,0,0,0,0,1886,3868,5986.0,7444,13604,19380.0,21040.0,30228.0,43779.0,49504.0,49546.0
6386,15813,US,109647,28.2488888889,-82.7177777778,,Census,City,FL,"New Port Richey, Florida",0,0,0,0,0,0,0,0,0,0,0,0,0,0,758.0,920,1512,3520.0,6098.0,11196.0,14044.0,16117.0,14911.0
6394,8287,US,109640,28.3780555556,-82.1977777778,,Census,Cdp,FL,"Dade City North, Florida",0,0,0,0,0,0,0,0,0,0,0,0,0,0,0.0,0,0,0.0,1837.0,3151.0,3058.0,3319.0,0.0
6505,8988,US,109728,28.0388888889,-82.0033333333,,Census,Former census-designated place (cdp); unincorporated community,FL,"Winston, Florida",0,0,0,0,0,0,0,0,0,0,0,0,0,0,0.0,0,1870,3323.0,4505.0,9315.0,9118.0,9024.0,0.0
6523,13866,US,109448,25.809175,-80.2966972222,,Census,Town,FL,"Medley, Florida",0,0,0,0,0,0,0,0,0,0,0,0,0,0,0.0,0,106,112.0,351.0,537.0,663.0,1098.0,838.0
6719,13639,US,109646,28.2038888889,-82.4488888889,,Census,Census-designated place,FL,"Land O' Lakes, Florida",0,0,0,0,0,0,0,0,0,0,0,0,0,0,0.0,0,0,0.0,0.0,4515.0,7892.0,20971.0,31996.0
6743,9134,US,109582,26.675,-80.0733333333,,Census,Town,FL,"Cloud Lake, Florida",0,0,0,0,0,0,0,0,0,0,0,0,0,0,0.0,0,132,148.0,136.0,160.0,121.0,167.0,135.0
6803,55572,US,109021,26.2705555556,-80.2591666667,,Census,City,FL,"Coral Springs, Florida",0,0,0,0,0,0,0,0,0,0,0,0,0,0,0.0,0,0,0.0,1489.0,37349.0,79443.0,117549.0,121096.0
6886,9405,US,108981,30.17,-85.7558333333,,Census,Census-designated place,FL,"Upper Grand Lagoon, Florida",0,0,0,0,0,0,0,0,0,0,0,0,0,0,0.0,0,0,0.0,0.0,3314.0,7855.0,10889.0,13963.0
6893,34562,US,109502,30.6694444444,-81.4616666667,,Census,City,FL,"Fernandina Beach, Florida",0,0,0,0,0,0,0,1390,1722,2562,2803,3245,3482,3147,3023.0,3492,4420,7276.0,6955.0,7224.0,8765.0,10549.0,11487.0
6908,28771,US,72017,26.08,-81.4,,Census,US County,FL,"Collier County, Florida",0,0,0,0,0,0,0,0,0,0,0,0,0,0,2883.0,5102,6488,15753.0,38040.0,85971.0,152099.0,251377.0,321520.0
6972,24256,US,75122,30.61,-85.67,,Census,US County,FL,"Washington County, Florida",0,0,0,0,978,859,1950,2154,2302,4089,6426,10154,16403,11828,12180.0,12302,11888,11249.0,11453.0,14509.0,16919.0,20973.0,24896.0
7048,13595,US,109529,28.4561111111,-81.4930555556,,Census,Census-designated place,FL,"Dr. Phillips, Florida",0,0,0,0,0,0,0,0,0,0,0,0,0,0,0.0,0,0,0.0,0.0,0.0,7963.0,9548.0,10981.0
7084,8601,US,109357,29.5319444444,-82.8852777778,,Census,Census-designated place,FL,"Andrews, Levy County, Florida",0,0,0,0,0,0,0,0,0,0,0,0,0,0,0.0,0,0,0.0,0.0,0.0,0.0,0.0,0.0
7123,9892,US,109568,28.2605555556,-81.4502777778,,Census,Cdp,FL,"Campbell, Florida",0,0,0,0,0,0,0,0,0,0,0,0,0,0,0.0,0,0,0.0,0.0,2941.0,3884.0,2677.0,2479.0
7124,17190,US,109169,29.5380555556,-81.2233333333,,Census,City,FL,"Palm Coast, Florida",0,0,0,0,0,0,0,0,0,0,0,0,0,0,0.0,0,0,0.0,0.0,2837.0,14287.0,32732.0,75180.0
7130,27252,US,109444,25.6902777778,-80.165,,Census,Village,FL,"Key Biscayne, Florida",0,0,0,0,0,0,0,0,0,0,0,0,0,0,0.0,0,0,0.0,0.0,0.0,0.0,10507.0,12344.0
7216,9494,US,109604,26.6455555556,-80.0752777778,,Census,Town,FL,"Lake Clarke Shores, Florida",0,0,0,0,0,0,0,0,0,0,0,0,0,0,0.0,0,0,1297.0,2328.0,3174.0,3364.0,3451.0,3376.0
7241,14138,US,109045,26.1561111111,-80.145,,Census,Village,FL,"Lazy Lake, Florida",0,0,0,0,0,0,0,0,0,0,0,0,0,0,0.0,0,0,49.0,48.0,31.0,33.0,38.0,24.0
7262,9409,US,2422221,27.7594444444,-82.2611111111,,Census,Census-designated place,FL,"Balm, Florida",0,0,0,0,0,0,0,0,0,0,0,0,0,0,0.0,0,0,0.0,0.0,0.0,0.0,0.0,0.0
7286,43733,US,72357,30.61,-87.33,,Census,US County,FL,"Escambia County, Florida",0,0,0,0,3386,3993,4351,5768,7817,12156,20188,28313,38029,49386,53594.0,74667,112706,173829.0,205334.0,233794.0,262798.0,294410.0,297619.0
7391,34604,US,109322,26.6397222222,-81.9825,,Census,City,FL,"Cape Coral, Florida",0,0,0,0,0,0,0,0,0,0,0,0,0,0,0.0,0,0,0.0,10193.0,32103.0,74991.0,102286.0,154305.0
7422,9531,US,109849,30.9786111111,-86.3116666667,,Census,Town,FL,"Paxton, Florida",0,0,0,0,0,0,0,0,0,0,0,0,0,0,0.0,0,0,215.0,243.0,659.0,600.0,656.0,644.0
7425,10564,US,109156,30.5125,-87.2013888889,,Census,Census-designated place,FL,"Ferry Pass, Florida",0,0,0,0,0,0,0,0,0,0,0,0,0,0,0.0,0,0,0.0,0.0,16910.0,26301.0,27176.0,28921.0
7436,22023,US,75111,30.02,-83.62,,Census,US County,FL,"Taylor County, Florida",0,0,0,0,0,0,0,1384,1453,2279,2122,3999,7103,11219,13136.0,11565,10416,13168.0,13641.0,16532.0,17111.0,19256.0,22570.0
7603,17134,US,109695,28.0669444444,-81.7952777778,,Census,City,FL,"Auburndale, Florida",0,0,0,0,0,0,0,0,0,0,0,0,0,715,1849.0,2723,3763,5595.0,5386.0,6501.0,8858.0,11032.0,13507.0
7604,13406,US,109427,25.7702777778,-80.3458333333,,Census,Cdp,FL,"Fontainebleau, Florida",0,0,0,0,0,0,0,0,0,0,0,0,0,0,0.0,0,0,0.0,0.0,0.0,0.0,59549.0,59764.0
7655,22787,US,72365,29.73,-82.8,,Census,US County,FL,"Gilchrist County, Florida",0,0,0,0,0,0,0,0,0,0,0,0,0,0,4137.0,4250,3499,2868.0,3551.0,5767.0,9667.0,14437.0,16939.0
7724,7142,US,35766386,27.8558333333,-82.7530555556,,Census,Census-designated place,FL,"Bardmoor, Florida",0,0,0,0,0,0,0,0,0,0,0,0,0,0,0.0,0,0,0.0,0.0,0.0,0.0,0.0,0.0
7736,20086,US,109410,25.8930555556,-80.1258333333,,Census,Village,FL,"Bal Harbour, Florida",0,0,0,0,0,0,0,0,0,0,0,0,0,0,0.0,0,224,727.0,2038.0,2973.0,3045.0,3305.0,2513.0
7821,9898,US,109200,28.4863888889,-82.6577777778,,Census,Census-designated place,FL,"Hernando Beach, Florida",0,0,0,0,0,0,0,0,0,0,0,0,0,0,0.0,0,0,0.0,0.0,0.0,1767.0,2185.0,2299.0
7957,34055,US,1178908,25.9421222222,-80.2699194444,,Census,City,FL,"Miami Gardens, Florida",0,0,0,0,0,0,0,0,0,0,0,0,0,0,0.0,0,0,0.0,0.0,0.0,0.0,124656.0,107167.0
7963,28484,US,75103,,,,Census,US County,FL,"Seminole County, Florida",0,0,0,0,0,0,0,0,0,0,0,0,0,10986,18735.0,22304,26883,54947.0,83692.0,179752.0,287529.0,365196.0,422718.0
7998,8727,US,109797,27.3644444444,-80.3086111111,,Census,Cdp,FL,"Indian River Estates, Florida",0,0,0,0,0,0,0,0,0,0,0,0,0,0,0.0,0,0,0.0,0.0,0.0,4858.0,5793.0,6220.0
8025,21910,US,72370,30.49,-82.95,,Census,US County,FL,"Hamilton County, Florida",0,0,0,0,553,1464,2511,4154,5749,6790,8507,11881,11825,9873,9454.0,9778,8981,7705.0,7787.0,8761.0,10930.0,13327.0,14799.0
8035,10668,US,109419,25.6322222222,-80.435,,Census,Cdp,FL,"Country Walk, Florida",0,0,0,0,0,0,0,0,0,0,0,0,0,0,0.0,0,0,0.0,0.0,0.0,0.0,10653.0,15997.0
8040,8425,US,109365,29.3233333333,-82.7727777778,,Census,Town,FL,"Otter Creek, Florida",0,0,0,0,0,0,0,0,0,0,0,0,0,0,0.0,0,0,0.0,230.0,167.0,136.0,121.0,134.0
8070,9553,US,109279,30.7119444444,-85.0180555556,,Census,Town,FL,"Grand Ridge, Florida",0,0,0,0,0,0,0,0,0,0,0,0,0,0,0.0,0,0,415.0,512.0,591.0,536.0,792.0,892.0
8072,19541,US,72373,26.55,-81.17,,Census,US County,FL,"Hendry County, Florida",0,0,0,0,0,0,0,0,0,0,0,0,0,0,3492.0,5237,6051,8119.0,11859.0,18599.0,25773.0,36210.0,39140.0
8087,11172,US,109544,28.3747222222,-81.3638888889,,Census,Census-designated place,FL,"Meadow Woods, Florida",0,0,0,0,0,0,0,0,0,0,0,0,0,0,0.0,0,0,0.0,0.0,0.0,4876.0,11286.0,25558.0
8102,12487,US,109525,28.4644444444,-81.3502777778,,Census,City,FL,"Belle Isle, Florida",0,0,0,0,0,0,0,0,0,0,0,0,0,0,160.0,178,0,2344.0,2705.0,2848.0,5272.0,5531.0,5988.0
8114,15079,US,109503,30.6877777778,-81.925,,Census,Town,FL,"Hilliard, Florida",0,0,0,0,0,0,0,0,0,0,0,0,0,0,0.0,0,607,1075.0,1205.0,1869.0,1751.0,2702.0,3086.0
8118,11087,US,109250,28.0697222222,-82.4372222222,,Census,Census-designated place,FL,"University, Hillsborough County, Florida",0,0,0,0,0,0,0,0,0,0,0,0,0,0,0.0,0,0,0.0,10039.0,24514.0,23760.0,30736.0,41163.0
8172,11347,US,109677,27.7958333333,-82.7905555556,,Census,City,FL,"Madeira Beach, Florida",0,0,0,0,0,0,0,0,0,0,0,0,0,0,0.0,0,916,3943.0,4177.0,4520.0,4225.0,4511.0,4263.0
8193,11690,US,109730,29.4361111111,-81.5138888889,,Census,City,FL,"Crescent City, Florida",0,0,0,0,0,0,0,0,0,0,554,352,677,838,955.0,1124,1393,1629.0,1734.0,1722.0,1859.0,1776.0,1577.0
8229,12289,US,109297,28.9291666667,-81.9308333333,,Census,Town,FL,"Lady Lake, Florida",0,0,0,0,0,0,0,0,0,0,0,0,0,0,233.0,309,331,335.0,382.0,1193.0,8071.0,11828.0,13926.0
8331,13439,US,109816,30.2944444444,-82.9858333333,,Census,City,FL,"Live Oak, Florida",0,0,0,0,0,0,0,0,0,458,687,1659,3450,3103,2734.0,3427,4064,6544.0,6830.0,6732.0,6332.0,6480.0,6850.0
8369,13875,US,109176,30.6241666667,-84.415,,Census,Town,FL,"Havana, Florida",0,0,0,0,0,0,0,0,0,0,0,0,432,448,1169.0,1221,1634,2090.0,2022.0,2782.0,1654.0,1713.0,1754.0
8534,6764,US,109408,25.9661111111,-80.2052777778,,Census,Neighborhood of miami gardens,FL,"Andover, Florida",0,0,0,0,0,0,0,0,0,0,0,0,0,0,0.0,0,0,0.0,0.0,0.0,6251.0,8489.0,0.0
8549,10949,US,108979,30.1655555556,-85.6105555556,,Census,City,FL,"Springfield, Florida",0,0,0,0,0,0,0,0,0,0,0,0,0,0,0.0,1188,1084,4628.0,5949.0,7220.0,8715.0,8810.0,8903.0
8586,15378,US,3544294,25.6271861111,-80.3207027778,,Census,Village,FL,"Palmetto Bay, Florida",0,0,0,0,0,0,0,0,0,0,0,0,0,0,0.0,0,0,0.0,0.0,0.0,0.0,24469.0,23410.0
8722,16194,US,109141,29.9230555556,-82.7141666667,,Census,Town,FL,"Fort White, Florida",0,0,0,0,0,0,0,0,0,0,376,600,329,360,272.0,317,329,425.0,365.0,386.0,268.0,409.0,567.0
8767,12033,US,109363,29.0327777778,-82.6666666667,,Census,Town,FL,"Inglis, Florida",0,0,0,0,0,0,0,0,0,0,0,0,0,0,0.0,0,0,250.0,449.0,1173.0,1241.0,1491.0,1325.0
8883,18695,US,109329,26.4386111111,-81.9255555556,,Census,Town,FL,"Fort Myers Beach, Florida",0,0,0,0,0,0,0,0,0,0,0,0,0,0,0.0,0,0,2463.0,4305.0,5753.0,9284.0,6561.0,6277.0
8928,15502,US,109571,,,,Census,City,FL,"St. Cloud, Florida",0,0,0,0,0,0,0,0,0,0,0,0,0,2011,1863.0,2042,3001,4353.0,5041.0,7840.0,12453.0,20074.0,35183.0
8958,12814,US,109188,30.6030555556,-83.1022222222,,Census,Town,FL,"Jennings, Florida",0,0,0,0,0,0,0,0,0,0,0,0,480,628,561.0,499,549,516.0,582.0,749.0,712.0,833.0,878.0
8963,32222,US,75104,28.71,-82.08,,Census,US County,FL,"Sumter County, Florida",0,0,0,0,0,0,0,1549,2952,4686,5363,6187,6696,7851,10644.0,11041,11330,11869.0,14839.0,24272.0,31577.0,53345.0,93420.0
9004,24145,US,2196857,30.401,-86.863,,Census,Census designated place,FL,"Navarre, Florida",0,0,0,0,0,0,0,0,0,0,0,0,0,0,0.0,0,0,0.0,1500.0,0.0,8673.0,19255.0,31378.0
9014,29807,US,109150,30.2841666667,-81.3961111111,,Census,City,FL,"Jacksonville Beach, Florida",0,0,0,0,0,0,0,0,0,0,0,0,249,357,409.0,3566,6430,12049.0,12779.0,15462.0,17839.0,20990.0,21362.0
9074,15937,US,109127,26.4211111111,-81.4227777778,,Census,Census-designated place,FL,"Immokalee, Florida",0,0,0,0,0,0,0,0,0,0,0,0,0,0,0.0,0,0,3224.0,3764.0,11038.0,14120.0,19763.0,24154.0
9133,10965,US,109197,28.5483333333,-82.6452777778,,Census,Census-designated place,FL,"Bayport, Florida",0,0,0,0,0,0,0,0,0,0,0,0,0,0,0.0,0,0,0.0,0.0,0.0,0.0,0.0,0.0
9173,10227,US,109711,27.8652777778,-81.5658333333,,Census,Village,FL,"Highland Park, Florida",0,0,0,0,0,0,0,0,0,0,0,0,0,0,0.0,75,52,94.0,88.0,184.0,155.0,244.0,230.0
9188,14755,US,108986,29.9472222222,-82.1080555556,,Census,City,FL,"Starke, Florida",0,0,0,0,0,0,0,0,0,292,669,972,1135,1023,1339.0,1480,2944,4806.0,4848.0,5306.0,5226.0,5593.0,5449.0
9326,13670,US,109468,25.6333333333,-80.3725,,Census,Cdp,FL,"Richmond Heights, Florida",0,0,0,0,0,0,0,0,0,0,0,0,0,0,0.0,0,0,4311.0,6663.0,8577.0,8583.0,8479.0,8541.0
9354,11696,US,109770,28.6611111111,-81.3219444444,,Census,City,FL,"Casselberry, Florida",0,0,0,0,0,0,0,0,0,0,0,0,0,0,0.0,0,407,2463.0,9438.0,15037.0,18911.0,22629.0,26241.0
9385,11807,US,109223,27.8819444444,-82.26,,Census,Census-designated place,FL,"Bloomingdale, Florida",0,0,0,0,0,0,0,0,0,0,0,0,0,0,0.0,0,0,0.0,0.0,0.0,13912.0,19839.0,22711.0
9455,20825,US,109024,26.055,-80.1530555556,,Census,City,FL,"Dania Beach, Florida",0,0,0,0,0,0,0,0,0,0,0,0,369,762,1674.0,2902,4540,7065.0,9013.0,11796.0,13024.0,20061.0,29639.0
9583,24962,US,73621,30.45,-83.47,,Census,US County,FL,"Madison County, Florida",0,0,0,0,525,2644,5490,7779,11121,14798,14316,15446,16919,16516,15614.0,16190,14197,14154.0,13481.0,14894.0,16569.0,18733.0,19224.0
9587,16621,US,109173,30.7,-84.8333333333,,Census,City,FL,"Chattahoochee, Florida",0,0,0,0,0,0,0,0,0,0,383,0,0,0,5624.0,7110,8473,9699.0,7944.0,5332.0,4382.0,3287.0,3652.0
9621,29837,US,109781,28.7894444444,-81.2755555556,,Census,City,FL,"Sanford, Florida",0,0,0,0,0,0,0,0,0,0,2016,1450,3570,5588,10100.0,10217,11935,19175.0,17393.0,23176.0,32387.0,38291.0,53570.0
9622,15328,US,109822,29.1758333333,-80.9830555556,,Census,City,FL,"Daytona Beach Shores, Florida",0,0,0,0,0,0,0,0,0,0,0,0,0,0,0.0,0,0,0.0,768.0,1324.0,2335.0,4299.0,4247.0
9662,23573,US,57230,29.61,-81.74,,Census,US County,FL,"Putnam County, Florida",0,0,0,0,0,0,687,2712,3821,6261,11186,11641,13096,14568,18096.0,18698,23615,32212.0,36290.0,50549.0,65070.0,70423.0,74364.0
9785,14492,US,109483,25.7572222222,-80.2966666667,,Census,City,FL,"West Miami, Florida",0,0,0,0,0,0,0,0,0,0,0,0,0,0,0.0,0,4043,5296.0,5494.0,6076.0,5727.0,5863.0,5965.0
9801,3545,US,53562358,30.5366666667,-87.1008333333,,Census,Unincorporated community,FL,"Avalon, Florida",0,0,0,0,0,0,0,0,0,0,0,0,0,0,0.0,0,0,0.0,0.0,0.0,0.0,0.0,0.0
9841,13261,US,109738,30.357144,-87.1638568333,,Census,City,FL,"Gulf Breeze, Florida",0,0,0,0,0,0,0,0,0,0,0,0,0,0,0.0,0,0,0.0,4190.0,5478.0,5530.0,5665.0,5763.0
9892,21775,US,72386,29.99,-83.18,,Census,US County,FL,"Lafayette County, Florida",0,0,0,0,0,0,0,2068,1783,2441,3686,4987,6710,6242,4361.0,4405,3440,2889.0,2892.0,4035.0,5578.0,7022.0,8870.0
9941,33479,US,109435,25.4711888889,-80.4681222222,,Census,City,FL,"Homestead, Florida",0,0,0,0,0,0,0,0,0,0,0,0,0,1307,2319.0,3154,4573,9152.0,13674.0,20668.0,26866.0,31909.0,60512.0
10039,19221,US,109283,30.7763888889,-85.2380555556,,Census,City,FL,"Marianna, Florida",0,0,0,0,0,0,356,440,663,586,926,900,1915,2499,3372.0,5079,5845,7152.0,7282.0,7006.0,6292.0,6230.0,6102.0
10124,19690,US,109171,29.8538888889,-84.6658333333,,Census,City,FL,"Carrabelle, Florida",0,0,0,0,0,0,0,0,0,0,482,923,900,1055,920.0,1019,970,1146.0,1044.0,1304.0,1200.0,1303.0,2778.0
10131,10256,US,109165,29.5177777778,-81.1483333333,,Census,Town,FL,"Beverly Beach, Florida",0,0,0,0,0,0,0,0,0,0,0,0,0,0,0.0,0,0,9.0,21.0,217.0,312.0,547.0,338.0
10179,10118,US,109660,27.8191666667,-82.7766666667,,Census,Census-designated place,FL,"Bay Pines, Florida",0,0,0,0,0,0,0,0,0,0,0,0,0,0,0.0,0,0,0.0,0.0,5757.0,4171.0,3065.0,2931.0
10181,22978,US,109063,26.1244444444,-80.2494444444,,Census,City,FL,"Plantation, Florida",0,0,0,0,0,0,0,0,0,0,0,0,0,0,0.0,0,0,4772.0,23523.0,48653.0,66692.0,82934.0,84955.0
10190,7423,US,9731804,26.6836111111,-80.2797222222,,Census,,FL,"Loxahatchee Groves, Florida",0,0,0,0,0,0,0,0,0,0,0,0,0,0,0.0,0,0,0.0,0.0,0.0,0.0,0.0,3180.0
10254,20416,US,109052,25.9788888889,-80.2825,,Census,City,FL,"Miramar, Florida",0,0,0,0,0,0,0,0,0,0,0,0,0,0,0.0,0,0,5485.0,23997.0,32813.0,40663.0,72739.0,122041.0
10307,14905,US,109769,28.6613888889,-81.3919444444,,Census,City,FL,"Altamonte Springs, Florida",0,0,0,0,0,0,0,0,0,0,0,0,0,441,281.0,551,858,1212.0,4391.0,22028.0,34879.0,41200.0,41496.0
10316,9398,US,108972,30.1508333333,-85.7613888889,,Census,Census-designated place,FL,"Lower Grand Lagoon, Florida",0,0,0,0,0,0,0,0,0,0,0,0,0,0,0.0,0,0,0.0,0.0,1619.0,3329.0,4082.0,3881.0
10342,20012,US,109187,30.5188888889,-82.9511111111,,Census,City,FL,"Jasper, Florida",0,0,0,0,0,0,0,0,138,311,0,993,1730,1260,1748.0,1722,2327,2103.0,2221.0,2093.0,2099.0,1780.0,4546.0
10343,19509,US,109838,29.2416666667,-81.4566666667,,Census,Town,FL,"Pierson, Florida",0,0,0,0,0,0,0,0,0,0,0,0,0,0,624.0,541,657,716.0,654.0,1085.0,2988.0,2596.0,1736.0
10347,22333,US,109766,27.1,-82.4333333333,,Census,City,FL,"Venice, Florida",0,0,0,0,0,0,0,0,0,0,0,0,0,0,309.0,507,727,3444.0,6648.0,12153.0,16922.0,17764.0,20748.0
10419,13394,US,109447,25.4941666667,-80.4361111111,,Census,Cdp,FL,"Leisure City, Florida",0,0,0,0,0,0,0,0,0,0,0,0,0,0,0.0,0,0,3001.0,0.0,17905.0,19379.0,22152.0,0.0
10487,10316,US,108982,29.8888888889,-82.3313888889,,Census,Town,FL,"Brooker, Florida",0,0,0,0,0,0,0,0,0,0,0,0,0,0,0.0,0,277,292.0,340.0,429.0,312.0,352.0,338.0
10494,17585,US,109543,28.6269444444,-81.3669444444,"[[y1905,150],[y1915,145],[y1925,425],[y1935,552],[y2016,17519]]", USA,City,FL,"Maitland, Florida",0,0,0,0,0,0,0,0,0,0,0,136,157,172,511.0,463,889,3570.0,7157.0,8763.0,9110.0,12019.0,15751.0
10534,13004,US,109118,30.1347222222,-81.7658333333,,Census,Census-designated place,FL,"Lakeside, Florida",0,0,0,0,0,0,0,0,0,0,0,0,0,0,0.0,0,0,0.0,0.0,10534.0,29137.0,30927.0,30943.0
10715,9169,US,109773,28.6480555556,-81.3463888889,,Census,Census-designated place (cdp) &amp; unincorporated community,FL,"Fern Park, Florida",0,0,0,0,0,0,0,0,0,0,0,0,0,0,0.0,0,0,0.0,0.0,8890.0,8294.0,8318.0,0.0
10730,14154,US,4817750,28.1558333333,-81.4763888889,"[[y2017,88775]]",Census,Cdp,FL,"Poinciana, Florida",0,0,0,0,0,0,0,0,0,0,0,0,0,0,0.0,0,0,0.0,0.0,0.0,0.0,13647.0,53193.0
10824,10949,US,109192,27.4961111111,-81.7969444444,,Census,Town,FL,"Zolfo Springs, Florida",0,0,0,0,0,0,0,0,0,0,0,0,171,256,272.0,223,334,838.0,1117.0,1495.0,1219.0,1641.0,1827.0
10844,13842,US,109522,28.5416666667,-81.2963888889,,Census,Census-designated place,FL,"Azalea Park, Florida",0,0,0,0,0,0,0,0,0,0,0,0,0,0,0.0,0,0,0.0,7367.0,8301.0,8926.0,11073.0,12556.0
10985,13792,US,109441,25.7083333333,-80.4116666667,,Census,Cdp,FL,"Kendale Lakes, Florida",0,0,0,0,0,0,0,0,0,0,0,0,0,0,0.0,0,0,0.0,0.0,32789.0,48524.0,56901.0,56148.0
11012,14177,US,109372,30.4666666667,-83.4166666667,,Census,City,FL,"Madison, Florida",0,0,0,0,0,0,0,423,924,756,781,849,1560,1952,2189.0,2730,3150,3239.0,3737.0,3487.0,3345.0,3061.0,2843.0
11013,9920,US,109240,27.9280555556,-82.3788888889,,Census,Census-designated place,FL,"Palm River-Clair Mel, Florida",0,0,0,0,0,0,0,0,0,0,0,0,0,0,0.0,0,0,0.0,8536.0,14447.0,13691.0,17589.0,21024.0
11047,9309,US,109698,28.0580555556,-81.9094444444,,Census,Cdp,FL,"Combee Settlement, Florida",0,0,0,0,0,0,0,0,0,0,0,0,0,0,0.0,0,0,2697.0,4963.0,5400.0,5463.0,5436.0,5577.0
11061,8833,US,2287748,28.3308333333,-81.3516666667,,Census,Cdp,FL,"Buenaventura Lakes, Florida",0,0,0,0,0,0,0,0,0,0,0,0,0,0,0.0,0,0,0.0,0.0,0.0,14148.0,21778.0,26079.0
11087,11489,US,108957,29.7791666667,-82.4797222222,,Census,City,FL,"Alachua, Florida",0,0,0,0,0,0,0,0,0,0,0,0,610,778,865.0,1081,1116,1974.0,2252.0,3561.0,4529.0,6098.0,9059.0
11147,30309,US,109618,26.848788,-80.167124,,Census,City,FL,"Palm Beach Gardens, Florida",0,0,0,0,0,0,0,0,0,0,0,0,0,0,0.0,0,0,1.0,6102.0,14407.0,22965.0,35058.0,48452.0
11238,11515,US,109358,29.4488888889,-82.6363888889,,Census,Town,FL,"Bronson, Florida",0,0,0,0,0,0,0,0,0,0,291,0,0,0,694.0,758,624,707.0,698.0,853.0,875.0,964.0,1113.0
11319,20351,US,109026,26.3180555556,-80.0997222222,,Census,City,FL,"Deerfield Beach, Florida",0,0,0,0,0,0,0,0,0,0,0,0,256,437,1483.0,1850,2088,9573.0,17130.0,39193.0,46997.0,64583.0,75018.0
11332,9672,US,109852,30.4430555556,-85.8808333333,,Census,Town,FL,"Ebro, Florida",0,0,0,0,0,0,0,0,0,0,0,0,0,0,0.0,0,0,0.0,125.0,233.0,255.0,250.0,270.0
11423,12159,US,109823,28.8813888889,-81.3241666667,,Census,City,FL,"DeBary, Florida",0,0,0,0,0,0,0,0,0,0,0,0,0,0,0.0,0,0,2362.0,3154.0,4980.0,7176.0,15559.0,19320.0
11477,9090,US,109158,30.4372222222,-87.2305555556,,Census,Census-designated place,FL,"Goulding, Florida",0,0,0,0,0,0,0,0,0,0,0,0,0,0,0.0,0,0,0.0,0.0,5352.0,4159.0,4484.0,4102.0
11539,17203,US,109834,28.8847222222,-80.8469444444,,Census,City,FL,"Oak Hill, Florida",0,0,0,0,0,0,0,0,0,0,0,0,0,0,457.0,509,683,758.0,747.0,938.0,917.0,1378.0,1792.0
11620,9948,US,109255,30.9811111111,-85.6469444444,,Census,Town,FL,"Esto, Florida",0,0,0,0,0,0,0,0,0,0,0,0,340,269,190.0,213,217,148.0,210.0,304.0,253.0,356.0,364.0
11640,11624,US,109089,30.5716666667,-85.1275,,Census,Town,FL,"Altha, Florida",0,0,0,0,0,0,0,0,0,0,0,0,0,0,0.0,0,434,413.0,423.0,478.0,497.0,506.0,536.0
11768,10511,US,108977,30.1294444444,-85.6008333333,,Census,City,FL,"Parker, Florida",0,0,0,0,0,0,0,0,0,0,0,0,0,0,0.0,0,0,2669.0,4212.0,4298.0,4598.0,4623.0,4317.0
11781,13161,US,108965,29.7897222222,-82.1708333333,,Census,City,FL,"Waldo, Florida",0,0,0,0,0,0,0,0,0,0,0,0,540,571,703.0,567,647,735.0,800.0,993.0,1017.0,821.0,1015.0
11812,20886,US,109623,26.7058333333,-80.2266666667,,Census,Village,FL,"Royal Palm Beach, Florida",0,0,0,0,0,0,0,0,0,0,0,0,0,0,0.0,0,0,11.0,475.0,3423.0,14589.0,21523.0,34140.0
11858,10108,US,123806,25.5888888889,-80.3852777778,,Census,Cdp,FL,"South Miami Heights, Florida",0,0,0,0,0,0,0,0,0,0,0,0,0,0,0.0,0,0,0.0,10395.0,23559.0,30030.0,33522.0,35696.0
11862,10375,US,109462,25.9327777778,-80.3327777778,,Census,Cdp,FL,"Palm Springs North, Florida",0,0,0,0,0,0,0,0,0,0,0,0,0,0,0.0,0,0,0.0,0.0,5838.0,5300.0,5460.0,0.0
11864,26397,US,74646,29.91,-81.41,,Census,US County,FL,"St. Johns County, Florida",0,0,0,0,2583,2694,2525,3038,2618,4535,8712,9165,13208,13061,18676.0,20012,24998,30034.0,30727.0,51303.0,83829.0,123135.0,190039.0
12177,29506,US,109460,25.9012194444,-80.2508222222,,Census,City,FL,"Opa-locka, Florida",0,0,0,0,0,0,0,0,0,0,0,0,0,0,339.0,497,5271,9810.0,11902.0,14460.0,15283.0,14951.0,15219.0
12285,9834,US,109755,27.2897222222,-82.5133333333,,Census,Census-designated place,FL,"Ridge Wood Heights, Florida",0,0,0,0,0,0,0,0,0,0,0,0,0,0,0.0,0,0,0.0,2528.0,3951.0,4851.0,5028.0,4795.0
12342,23655,US,109170,29.7252777778,-84.9925,,Census,City,FL,"Apalachicola, Florida",0,0,0,0,0,0,0,1904,1129,1336,2727,3077,3065,3066,3150.0,3268,3222,3099.0,3102.0,2565.0,2602.0,2334.0,2231.0
12399,8040,US,109657,28.25,-82.1655555556,,Census,Cdp,FL,"Zephyrhills North, Florida",0,0,0,0,0,0,0,0,0,0,0,0,0,0,0.0,0,0,0.0,0.0,1710.0,2320.0,2544.0,0.0
12475,9122,US,109760,27.2863888889,-82.4966666667,,Census,Census-designated place,FL,"South Gate Ridge, Florida",0,0,0,0,0,0,0,0,0,0,0,0,0,0,0.0,0,0,0.0,2043.0,4259.0,5924.0,5655.0,5688.0
12492,14101,US,109845,30.1591666667,-84.2072222222,,Census,City,FL,"St. Marks, Florida",0,0,0,0,0,0,0,0,0,0,0,0,0,0,217.0,0,0,0.0,366.0,286.0,307.0,272.0,293.0
12542,28237,US,72003,30.32,-82.27,,Census,US County,FL,"Baker County, Florida",0,0,0,0,0,0,0,0,1325,2303,3333,4516,4805,5622,6273.0,6510,6313,7363.0,9242.0,15289.0,18486.0,22259.0,27115.0
12620,8574,US,16122551,25.8022222222,-80.19,,Census,Neighborhood of miami,FL,Edgewater (Miami),0,0,0,0,0,0,0,0,0,0,0,0,0,0,0.0,0,0,0.0,0.0,0.0,0.0,14819.0,21826.0
12656,6971,US,109069,26.0975,-80.1897222222,,Census,Neighborhood,FL,Riverland Village,0,0,0,0,0,0,0,0,0,0,0,0,0,0,0.0,0,0,0.0,5512.0,5919.0,5376.0,2108.0,0.0
12723,9162,US,109577,26.3361111111,-80.1611111111,,Census,Unincorporated place,FL,"Boca Pointe, Florida",0,0,0,0,0,0,0,0,0,0,0,0,0,0,0.0,0,0,0.0,0.0,0.0,2174.0,3302.0,0.0
12745,18198,US,109167,29.4741666667,-81.1269444444,,Census,City,FL,"Flagler Beach, Florida",0,0,0,0,0,0,0,0,0,0,0,0,0,0,198.0,133,374,970.0,1042.0,2208.0,3820.0,4954.0,4484.0
12794,10450,US,109234,28.0994444444,-82.5252777778,,Census,Census-designated place,FL,"Northdale, Florida",0,0,0,0,0,0,0,0,0,0,0,0,0,0,0.0,0,0,0.0,0.0,0.0,16318.0,20461.0,22079.0
12896,11260,US,108973,30.2397222222,-85.6480555556,,Census,City,FL,"Lynn Haven, Florida",0,0,0,0,0,0,0,0,0,0,0,0,0,874,928.0,1246,1787,3078.0,4044.0,6239.0,9298.0,12451.0,18493.0
12897,11038,US,109384,27.4744444444,-82.5427777778,,Census,Cdp,FL,"Samoset, Florida",0,0,0,0,0,0,0,0,0,0,0,0,0,0,0.0,0,1617,4824.0,4070.0,5747.0,3119.0,3440.0,0.0
12992,15455,US,109434,25.8783416667,-80.3480722222,,Census,City,FL,"Hialeah Gardens, Florida",0,0,0,0,0,0,0,0,0,0,0,0,0,0,0.0,0,121,172.0,492.0,2700.0,7713.0,19297.0,21744.0
13037,13069,US,109373,27.5302777778,-82.7344444444,,Census,City,FL,"Anna Maria, Florida",0,0,0,0,0,0,0,0,0,0,0,0,0,0,77.0,158,345,690.0,1137.0,1537.0,1744.0,1814.0,1503.0
13127,27510,US,109409,25.9644444444,-80.1358333333,,Census,City,FL,"Aventura, Florida",0,0,0,0,0,0,0,0,0,0,0,0,0,0,0.0,0,0,0.0,0.0,9698.0,14914.0,25267.0,35762.0
13144,11905,US,109376,27.4711111111,-82.6997222222,,Census,City,FL,"Bradenton Beach, Florida",0,0,0,0,0,0,0,0,0,0,0,0,0,0,0.0,0,0,1124.0,1370.0,1603.0,1657.0,1482.0,1171.0
13213,12730,US,109467,25.5355555556,-80.3975,,Census,Cdp &amp; unincorporated community,FL,"Princeton, Florida",0,0,0,0,0,0,0,0,0,0,0,0,0,0,0.0,0,0,1719.0,0.0,0.0,7073.0,10090.0,22038.0
13244,49642,US,109002,27.9979222222,-80.6700083333,,Census,City,FL,"Palm Bay, Florida",0,0,0,0,0,0,0,0,0,0,0,0,0,0,0.0,0,0,2808.0,7176.0,18560.0,62632.0,79413.0,103190.0
13250,39619,US,72015,28.85,-82.52,,Census,US County,FL,"Citrus County, Florida",0,0,0,0,0,0,0,0,0,0,2394,5391,6731,5220,5516.0,5846,6111,9268.0,19196.0,54703.0,93515.0,118085.0,141236.0
13253,38791,US,109729,28.0333333333,-81.7166666667,,Census,City,FL,"Winter Haven, Florida",0,0,0,0,0,0,0,0,0,0,0,0,0,1597,7130.0,6199,8605,16277.0,16136.0,21119.0,24725.0,26487.0,33874.0
13278,136057,US,53846,25.7752777778,-80.2088888889,,Census,Metropolitan city,FL,Miami,0,0,0,0,0,0,0,0,0,0,0,1681,5471,29571,110637.0,172172,249276,291688.0,334859.0,346681.0,358548.0,362470.0,399457.0
13309,9529,US,109591,26.4902777778,-80.0611111111,,Census,Town,FL,"Gulf Stream, Florida",0,0,0,0,0,0,0,0,0,0,0,0,0,0,0.0,93,163,176.0,408.0,475.0,690.0,716.0,786.0
13444,9492,US,109228,27.9938888889,-82.2194444444,,Census,Cdp,FL,"Dover, Florida",0,0,0,0,0,0,0,0,0,0,0,0,0,0,0.0,0,0,0.0,2094.0,2354.0,2626.0,2798.0,3702.0
13456,22114,US,73635,27.39,-80.89,,Census,US County,FL,"Okeechobee County, Florida",0,0,0,0,0,0,0,0,0,0,0,0,0,2132,4129.0,3000,3454,6424.0,11233.0,20264.0,29627.0,35910.0,39996.0
13511,12545,US,109174,30.5694444444,-84.7444444444,,Census,Town,FL,"Greensboro, Florida",0,0,0,0,0,0,0,0,0,0,0,0,175,302,350.0,443,565,709.0,716.0,562.0,586.0,619.0,602.0
13518,10930,US,109818,30.0216666667,-82.3408333333,,Census,City,FL,"Lake Butler, Union County, Florida",0,0,0,0,0,0,0,0,0,0,0,431,685,756,886.0,923,1040,1311.0,1598.0,1830.0,2116.0,1927.0,1897.0
13543,13575,US,109366,29.3869444444,-82.4466666667,,Census,City,FL,"Williston, Florida",0,0,0,0,0,0,0,0,0,0,0,184,371,823,940.0,890,1323,1582.0,1939.0,2240.0,2179.0,2297.0,2768.0
13566,10954,US,109257,30.7258333333,-85.9377777778,,Census,Town,FL,"Ponce de Leon, Florida",0,0,0,0,0,0,0,0,0,0,0,0,0,0,0.0,0,0,0.0,288.0,454.0,406.0,457.0,598.0
13584,59795,US,6312442,25.774,-80.19,,Census,Neighborhood of miami,FL,Greater Downtown Miami,0,0,0,0,0,0,0,0,0,0,0,0,0,0,0.0,0,0,0.0,0.0,0.0,36140.0,39176.0,65696.0
13591,24169,US,72375,27.34,-81.34,,Census,US County,FL,"Highlands County, Florida",0,0,0,0,0,0,0,0,0,0,0,0,0,0,9192.0,9246,13636,21338.0,29507.0,47526.0,68432.0,87366.0,98786.0
13632,10355,US,109682,27.8116666667,-82.8116666667,,Census,Town,FL,"Redington Beach, Florida",0,0,0,0,0,0,0,0,0,0,0,0,0,0,0.0,0,384,1368.0,1583.0,1708.0,1626.0,1539.0,1427.0
13637,10633,US,109501,30.5608333333,-81.8308333333,,Census,Town,FL,"Callahan, Florida",0,0,0,0,0,0,0,0,0,0,0,0,0,511,637.0,685,722,782.0,772.0,869.0,946.0,962.0,1123.0
13659,7528,US,109575,26.6597222222,-80.6825,,Census,Unincorporated place,FL,"Belle Glade Camp, Florida",0,0,0,0,0,0,0,0,0,0,0,0,0,0,0.0,0,1497,1658.0,1892.0,1645.0,1616.0,1141.0,0.0
13704,14563,US,109060,25.9844444444,-80.1772222222,,Census,Town,FL,"Pembroke Park, Florida",0,0,0,0,0,0,0,0,0,0,0,0,0,0,0.0,0,0,569.0,2949.0,5326.0,4933.0,6299.0,6102.0
13739,8841,US,109636,28.3227777778,-82.6838888889,,Census,Cdp,FL,"Bayonet Point, Florida",0,0,0,0,0,0,0,0,0,0,0,0,0,0,0.0,0,0,0.0,0.0,16455.0,21860.0,23577.0,0.0
13829,13883,US,109368,30.4269444444,-84.9791666667,,Census,City,FL,"Bristol, Florida",0,0,0,0,0,0,0,0,0,0,0,0,0,0,0.0,0,0,614.0,626.0,1044.0,937.0,845.0,996.0
13843,23457,US,109521,28.676075,-81.510618,"[[y1905,440],[y1915,598],[y1925,1005],[y1935,1450],[y1945,1252]]", USA,City,FL,"Apopka, Florida",0,0,0,0,0,0,0,0,0,0,490,218,410,798,1134.0,1312,2254,3578.0,4045.0,6019.0,13512.0,26642.0,0.0
13899,12629,US,109109,28.8072222222,-82.55,,Census,Census-designated place,FL,"Homosassa Springs, Florida",0,0,0,0,0,0,0,0,0,0,0,0,0,0,0.0,0,0,0.0,0.0,0.0,6271.0,12458.0,13791.0
13911,11319,US,109059,26.3152777778,-80.2405555556,,Census,City,FL,"Parkland, Florida",0,0,0,0,0,0,0,0,0,0,0,0,0,0,0.0,0,0,0.0,165.0,545.0,3558.0,13835.0,23962.0
13984,21792,US,109212,28.4788888889,-82.5477777778,,Census,Census-designated place,FL,"Spring Hill, Florida",0,0,0,0,0,0,0,0,0,0,0,0,0,0,0.0,0,0,0.0,0.0,6468.0,31117.0,69078.0,98621.0
14024,9909,US,109473,25.7058333333,-80.3563888889,,Census,Cdp,FL,"Sunset, Florida",0,0,0,0,0,0,0,0,0,0,0,0,0,0,0.0,0,0,0.0,0.0,13531.0,15810.0,17150.0,16389.0
14080,24376,US,109088,26.1586111111,-80.1394444444,,Census,City,FL,"Wilton Manors, Florida",0,0,0,0,0,0,0,0,0,0,0,0,0,0,0.0,0,883,8257.0,10948.0,12742.0,11804.0,12697.0,11632.0
14115,71627,US,109719,28.0411111111,-81.9588888889,,Census,City,FL,"Lakeland, Florida",0,0,0,0,0,0,0,0,0,0,552,1180,3719,7062,18554.0,22068,30851,41350.0,42803.0,47406.0,70576.0,78452.0,97422.0
14168,55761,US,73610,,,,Census,US County,FL,"Lee County, Florida",0,0,0,0,0,0,0,0,0,0,1414,3071,6294,9540,14990.0,17488,23404,54539.0,105216.0,205266.0,335113.0,440888.0,618754.0
14205,10917,US,109717,28.0466666667,-81.6222222222,,Census,Town,FL,"Lake Hamilton, Florida",0,0,0,0,0,0,0,0,0,0,0,0,0,0,399.0,344,604,930.0,1165.0,1552.0,1128.0,1304.0,1231.0
14288,10494,US,109506,30.4216666667,-86.6091666667,,Census,Town,FL,"Cinco Bayou, Florida",0,0,0,0,0,0,0,0,0,0,0,0,0,0,0.0,0,0,643.0,362.0,202.0,322.0,377.0,383.0
14292,19837,US,109704,27.7516666667,-81.7966666667,,Census,City,FL,"Fort Meade, Florida",0,0,0,0,0,0,0,0,0,105,267,261,1165,2029,1981.0,1992,2803,4014.0,4374.0,5546.0,4976.0,5691.0,5626.0
14299,21641,US,109515,30.4444444444,-86.5819444444,,Census,Town,FL,"Shalimar, Florida",0,0,0,0,0,0,0,0,0,0,0,0,0,0,0.0,0,694,754.0,578.0,390.0,341.0,718.0,717.0
14328,10792,US,109494,25.1066666667,-80.43,,Census,Cdp,FL,"Key Largo, Florida",0,0,0,0,0,0,0,0,0,0,0,0,0,0,0.0,0,0,0.0,2866.0,7447.0,11336.0,12971.0,10433.0
14357,66722,US,72010,,,,Census,US County,FL,"Broward County, Florida",0,0,0,0,0,0,0,0,0,0,0,0,0,5135,20094.0,39794,83933,333946.0,620100.0,1018200.0,1255488.0,1623018.0,1748066.0
14362,50117,US,75113,29.05,-81.15,,Census,US County,FL,"Volusia County, Florida",0,0,0,0,0,0,0,1158,1723,3294,8467,10003,16510,23374,42757.0,53710,74229,125319.0,169487.0,258762.0,370712.0,443343.0,494593.0
14384,10750,US,109561,28.5655555556,-81.2372222222,,Census,Census-designated place,FL,"Union Park, Florida",0,0,0,0,0,0,0,0,0,0,0,0,0,0,0.0,0,0,0.0,2827.0,19175.0,6890.0,10191.0,9765.0
14534,22020,US,109564,28.4966666667,-81.5338888889,,Census,Town,FL,"Windermere, Florida",0,0,0,0,0,0,0,0,0,0,0,0,0,0,181.0,163,317,576.0,894.0,1302.0,1371.0,1897.0,2462.0
14542,12389,US,109702,28.0208333333,-81.6208333333,,Census,Town,FL,"Dundee, Florida",0,0,0,0,0,0,0,0,0,0,0,0,0,0,615.0,694,1152,1554.0,1660.0,2227.0,2335.0,2912.0,3717.0
14626,9837,US,109305,28.5994444444,-81.6761111111,,Census,Town,FL,"Montverde, Florida",0,0,0,0,0,0,0,0,0,0,0,0,0,0,297.0,312,293,374.0,308.0,397.0,890.0,882.0,1463.0
14640,11113,US,109733,29.6227777778,-81.8947222222,,Census,Town,FL,"Interlachen, Florida",0,0,0,0,0,0,0,0,0,0,207,147,263,177,235.0,251,297,349.0,478.0,848.0,1160.0,1475.0,1403.0
14720,19217,US,109010,28.0777777778,-80.6652777778,,Census,City,FL,"West Melbourne, Florida",0,0,0,0,0,0,0,0,0,0,0,0,0,0,0.0,0,0,2266.0,3050.0,5078.0,8399.0,9824.0,18355.0
14729,19447,US,109497,24.7263888889,-81.0402777778,,Census,City,FL,"Marathon, Florida",0,0,0,0,0,0,0,0,0,0,0,0,0,0,0.0,0,0,0.0,4397.0,7568.0,8857.0,10255.0,8297.0
14733,13086,US,109438,25.8791666667,-80.1311111111,,Census,Village,FL,"Indian Creek, Florida",0,0,0,0,0,0,0,0,0,0,0,0,0,0,0.0,0,44,60.0,82.0,103.0,44.0,33.0,86.0
14742,17636,US,109301,28.8105555556,-81.8833333333,,Census,City,FL,"Leesburg, Florida",0,0,0,0,0,0,0,0,0,200,722,765,991,1835,4113.0,4687,7395,11172.0,11869.0,13191.0,14903.0,15956.0,20117.0
14777,12355,US,109783,28.6933333333,-81.2788888889,,Census,City,FL,"Winter Springs, Florida",0,0,0,0,0,0,0,0,0,0,0,0,0,0,0.0,0,0,609.0,1161.0,10475.0,22151.0,31666.0,33282.0
14787,88726,US,73647,,,,Census,US County,FL,"Palm Beach County, Florida",0,0,0,0,0,0,0,0,0,0,0,0,5577,18654,51781.0,79989,114688,228106.0,348753.0,576863.0,863518.0,1131184.0,1320134.0
14817,15336,US,109739,30.9511111111,-87.1519444444,,Census,Town,FL,"Jay, Florida",0,0,0,0,0,0,0,0,0,0,0,0,0,0,0.0,0,547,672.0,646.0,633.0,666.0,579.0,533.0
14837,21345,US,109019,26.275,-80.1847222222,,Census,City,FL,"Coconut Creek, Florida",0,0,0,0,0,0,0,0,0,0,0,0,0,0,0.0,0,0,0.0,1359.0,6288.0,27485.0,43566.0,52909.0
14847,18526,US,109740,30.6302777778,-87.0463888889,,Census,City,FL,"Milton, Florida",0,0,0,0,0,0,0,1815,1014,1058,1455,1204,831,1594,1466.0,1851,2040,4108.0,5360.0,7206.0,7216.0,7045.0,8826.0
14897,16885,US,108963,29.5063888889,-82.2819444444,,Census,Town,FL,"Micanopy, Florida",0,0,0,0,0,0,0,0,0,432,494,645,613,546,725.0,720,612,658.0,759.0,737.0,612.0,653.0,600.0
14902,17682,US,109723,27.8988888889,-81.9741666667,,Census,City,FL,"Mulberry, Florida",0,0,0,0,0,0,0,0,0,0,0,0,1418,1499,2029.0,1502,2024,2922.0,2701.0,2932.0,2988.0,3230.0,3817.0
14926,12336,US,109614,26.8183333333,-80.0636111111,,Census,Village,FL,"North Palm Beach, Florida",0,0,0,0,0,0,0,0,0,0,0,0,0,0,0.0,0,0,2684.0,9035.0,11344.0,11343.0,12064.0,12015.0
15006,10724,US,109678,27.8208333333,-82.8227777778,,Census,Town,FL,"North Redington Beach, Florida",0,0,0,0,0,0,0,0,0,0,0,0,0,0,0.0,0,0,346.0,768.0,1156.0,1135.0,1474.0,1417.0
15033,16051,US,109530,28.6186111111,-81.3833333333,"[[y1905,150],[y1915,122],[y1925,114],[y2016,2277]]", USA,Town,FL,"Eatonville, Florida",0,0,0,0,0,0,0,0,0,0,0,125,108,125,136.0,0,0,857.0,2024.0,2185.0,2170.0,2432.0,2159.0
15043,11928,US,109622,26.78,-80.0672222222,,Census,City,FL,"Riviera Beach, Florida",0,0,0,0,0,0,0,0,0,0,0,0,0,0,811.0,1981,4065,13046.0,21401.0,26489.0,27639.0,29884.0,32488.0
15106,13133,US,109839,29.0947222222,-80.9425,,Census,Town,FL,"Ponce Inlet, Florida",0,0,0,0,0,0,0,0,0,0,0,0,0,0,0.0,0,0,0.0,328.0,1003.0,1704.0,2513.0,3032.0
15134,27278,US,72362,29.8,-84.82,,Census,US County,FL,"Franklin County, Florida",0,0,0,0,0,1030,1561,1904,1256,1791,3308,4890,5201,5318,6283.0,5991,5814,6576.0,7065.0,7661.0,8967.0,11057.0,11549.0
15145,14405,US,109055,26.2158333333,-80.2244444444,,Census,City,FL,"North Lauderdale, Florida",0,0,0,0,0,0,0,0,0,0,0,0,0,0,0.0,0,0,0.0,1213.0,18653.0,26506.0,32264.0,41023.0
15215,23823,US,109574,26.6852777778,-80.6713888889,,Census,City,FL,"Belle Glade, Florida",0,0,0,0,0,0,0,0,0,0,0,0,0,0,926.0,3806,7219,11273.0,15949.0,16535.0,16177.0,14906.0,17467.0
15273,11576,US,109759,27.2752777778,-82.5525,,Census,Census-designated place,FL,"Siesta Key, Florida",0,0,0,0,0,0,0,0,0,0,0,0,0,0,0.0,0,0,0.0,4460.0,7010.0,7772.0,7150.0,6565.0
15317,9543,US,109545,28.4747222222,-81.4208333333,,Census,Census-designated place,FL,"Oak Ridge, Florida",0,0,0,0,0,0,0,0,0,0,0,0,0,0,0.0,0,0,0.0,0.0,15477.0,15388.0,22349.0,22685.0
15474,19978,US,109098,26.9902777778,-82.1058333333,,Census,City,FL,"Port Charlotte, Florida",0,0,0,0,0,0,0,0,0,0,0,0,0,0,0.0,0,0,3197.0,10789.0,25770.0,41535.0,46451.0,54392.0
15536,16892,US,109565,28.5602777778,-81.5841666667,"[[y1915,648],[y1925,1805],[y1935,2301],[y1945,3010],[y2016,41988]]", USA,City,FL,"Winter Garden, Florida",0,0,0,0,0,0,0,0,0,0,0,0,351,1021,2023.0,3060,3503,5513.0,5153.0,6789.0,9745.0,14351.0,34568.0
15579,26134,US,72011,30.41,-85.2,,Census,US County,FL,"Calhoun County, Florida",0,0,0,0,0,1142,1377,1446,998,1580,1681,5132,7465,8775,7298.0,8218,7922,7422.0,7624.0,9294.0,11011.0,13017.0,14625.0
15620,12230,US,109335,26.6083333333,-81.6391666667,,Census,Cdp,FL,"Lehigh Acres, Florida",0,0,0,0,0,0,0,0,0,0,0,0,0,0,0.0,0,0,0.0,4394.0,9604.0,13611.0,33430.0,86784.0
15698,10350,US,109531,28.4869444444,-81.3733333333,"[[y1925,93],[y2016,2852]]", USA,City,FL,"Edgewood, Florida",0,0,0,0,0,0,0,0,0,0,0,0,0,0,103.0,34,217,436.0,392.0,1034.0,1062.0,1901.0,2503.0
15746,29977,US,6043712,25.758,-80.193,,Census,Neighborhood of miami,FL,Brickell,0,0,0,0,0,0,0,0,0,0,0,0,0,0,0.0,0,0,0.0,0.0,0.0,0.0,13584.0,27776.0
15861,11086,US,108969,30.2122222222,-85.6061111111,,Census,Census-designated place,FL,"Cedar Grove, Florida",0,0,0,0,0,0,0,0,0,0,0,0,0,0,0.0,0,0,676.0,689.0,1104.0,1479.0,5367.0,0.0
15930,21623,US,109442,25.6666666667,-80.3566666667,,Census,Census-designated place,FL,"Kendall, Florida",0,0,0,0,0,0,0,0,0,0,0,0,0,0,0.0,0,0,0.0,35497.0,73758.0,87271.0,75226.0,75371.0
15950,18154,US,109319,26.3497222222,-81.7908333333,,Census,City,FL,"Bonita Springs, Florida",0,0,0,0,0,0,0,0,0,0,0,0,0,0,0.0,0,0,0.0,1932.0,5435.0,13600.0,32797.0,43914.0
16054,14324,US,109413,25.8213888889,-80.2402777778,,Census,Census-designated place (cdp) &amp; unincorporated community,FL,"Brownsville, Florida",0,0,0,0,0,0,0,0,0,0,0,0,0,0,0.0,0,0,0.0,23442.0,18058.0,15607.0,14393.0,15313.0
16064,10378,US,108958,29.5313888889,-82.5197222222,,Census,City,FL,"Archer, Florida",0,0,0,0,0,0,0,0,0,0,0,0,468,420,576.0,517,586,707.0,898.0,1230.0,1372.0,1289.0,1118.0
16156,70449,US,109790,29.8947222222,-81.3144444444,,Census,City,FL,"St. Augustine, Florida",0,0,0,0,1708,2450,1934,1914,1717,2293,4742,4272,5494,6192,12111.0,12090,13555,14734.0,12352.0,11985.0,11692.0,11592.0,12975.0
16158,8194,US,109794,27.4686111111,-80.3577777778,,Census,Cdp,FL,"Fort Pierce North, Florida",0,0,0,0,0,0,0,0,0,0,0,0,0,0,0.0,0,0,1417.0,3269.0,5929.0,5833.0,7386.0,6474.0
16165,11124,US,109258,30.7677777778,-85.8522222222,,Census,Town,FL,"Westville, Florida",0,0,0,0,0,0,0,0,0,0,0,0,0,0,0.0,0,0,0.0,0.0,343.0,257.0,221.0,289.0
16183,18277,US,109110,28.8391666667,-82.3402777778,,Census,City,FL,"Inverness, Florida",0,0,0,0,0,0,0,0,0,0,0,0,0,1132,1215.0,1075,1471,1878.0,2299.0,4095.0,5797.0,6789.0,7210.0
16201,19110,US,109424,25.8551722222,-80.1941694444,,Census,Village,FL,"El Portal, Florida",0,0,0,0,0,0,0,0,0,0,0,0,0,0,0.0,365,1371,2079.0,2068.0,2055.0,2457.0,2505.0,2325.0
16225,12875,US,109399,27.0572222222,-80.1136111111,,Census,Town,FL,"Jupiter Island, Florida",0,0,0,0,0,0,0,0,0,0,0,0,0,0,0.0,0,0,114.0,295.0,364.0,549.0,620.0,817.0
16269,13239,US,109238,28.1394444444,-82.4619444444,,Census,Census-designated place,FL,"Lutz, Florida",0,0,0,0,0,0,0,0,0,0,0,0,0,0,0.0,0,0,0.0,0.0,5555.0,10552.0,17081.0,19344.0
16365,15016,US,109246,27.9922222222,-82.2766666667,,Census,Census-designated place,FL,"Seffner, Florida",0,0,0,0,0,0,0,0,0,0,0,0,0,0,0.0,0,0,0.0,0.0,0.0,5371.0,5467.0,7579.0
16401,13388,US,109215,28.5155555556,-82.5786111111,,Census,City,FL,"Weeki Wachee, Florida",0,0,0,0,0,0,0,0,0,0,0,0,0,0,0.0,0,0,0.0,76.0,8.0,53.0,12.0,12.0
16443,14279,US,109175,30.6155555556,-84.6625,,Census,City,FL,"Gretna, Florida",0,0,0,0,0,0,0,0,0,0,0,0,0,0,0.0,0,385,647.0,883.0,1557.0,1981.0,1709.0,1460.0
16618,13268,US,109294,28.8586111111,-81.9130555556,,Census,City,FL,"Fruitland Park, Florida",0,0,0,0,0,0,0,0,0,0,0,0,0,0,270.0,362,551,774.0,1359.0,2259.0,2754.0,3186.0,4078.0
16685,12696,US,109835,28.9261111111,-81.2869444444,,Census,City,FL,"Orange City, Florida",0,0,0,0,0,0,0,0,0,0,0,365,490,497,572.0,489,797,1598.0,1777.0,2795.0,5347.0,6604.0,10599.0
16733,37298,US,73612,30.46,-84.28,,Census,US County,FL,"Leon County, Florida",0,0,0,0,6494,10713,11442,12343,15236,19662,17752,19887,19427,18059,23476.0,31646,51590,74225.0,103047.0,148655.0,192493.0,239452.0,275487.0
16862,3864,US,6275931,26.1380555556,-81.7666666667,"[[y2015,27500]]",Census,Unincorporated community,FL,"East Naples, Florida",0,0,0,0,0,0,0,0,0,0,0,0,0,0,0.0,0,0,0.0,6155.0,11127.0,22950.0,25000.0,0.0
16878,15335,US,109090,30.4430555556,-85.0452777778,,Census,City,FL,"Blountstown, Florida",0,0,0,0,0,0,0,0,0,0,0,0,546,863,1270.0,1931,2118,2375.0,2384.0,2632.0,2404.0,2444.0,2514.0
16892,11815,US,109248,28.0561111111,-82.2927777778,,Census,Census-designated place,FL,"Thonotosassa, Florida",0,0,0,0,0,0,0,0,0,0,0,0,0,0,0.0,0,0,0.0,0.0,0.0,0.0,6091.0,13014.0
16912,10637,US,123829,29.8436111111,-81.2722222222,,Census,City,FL,"St. Augustine Beach, Florida",0,0,0,0,0,0,0,0,0,0,0,0,0,0,0.0,0,0,396.0,632.0,1289.0,3657.0,4683.0,6176.0
16955,8470,US,109706,28.0619444444,-81.8536111111,,Census,Cdp,FL,"Fussels Corner, Florida",0,0,0,0,0,0,0,0,0,0,0,0,0,0,0.0,0,0,0.0,0.0,0.0,3840.0,5313.0,0.0
16971,12959,US,109478,25.6705555556,-80.4361111111,,Census,Cdp,FL,"The Hammocks, Florida",0,0,0,0,0,0,0,0,0,0,0,0,0,0,0.0,0,0,0.0,0.0,0.0,10897.0,47379.0,51003.0
16999,29594,US,72348,30.23,-82.63,,Census,US County,FL,"Columbia County, Florida",0,0,0,0,0,2102,4808,4646,7335,9589,12877,17094,17689,14290,14638.0,16859,18216,20077.0,25250.0,35399.0,42613.0,56513.0,67531.0
17169,18406,US,109701,28.1605555556,-81.6027777778,,Census,City,FL,"Davenport, Florida",0,0,0,0,0,0,0,0,0,0,0,0,0,117,650.0,640,760,1209.0,1303.0,1509.0,1529.0,1924.0,2888.0
17183,177751,US,60613,30.3369444444,-81.6613888889,,Census,Consolidated citycounty,FL,"Jacksonville, Florida",0,0,0,0,0,0,1045,2118,6912,7650,17201,28429,57699,91558,129549.0,173065,204275,201030.0,528865.0,540920.0,635230.0,735503.0,821784.0
17247,12769,US,109842,29.1652777778,-81.0091666667,,Census,City,FL,"South Daytona, Florida",0,0,0,0,0,0,0,0,0,0,0,0,0,0,0.0,571,692,1954.0,4979.0,11252.0,12482.0,13177.0,12252.0
17273,20109,US,109025,26.0813888889,-80.2802777778,,Census,Town,FL,"Davie, Florida",0,0,0,0,0,0,0,0,0,0,0,0,0,0,0.0,0,0,0.0,5859.0,20500.0,47217.0,75720.0,91992.0
17424,12993,US,108961,29.8166666667,-82.6,,Census,City,FL,"High Springs, Florida",0,0,0,0,0,0,0,0,0,0,0,1562,1468,1719,1864.0,2010,2088,2329.0,2787.0,2491.0,3144.0,3863.0,5350.0
17482,9488,US,109226,28.1463888889,-82.5155555556,,Census,Census-designated place,FL,"Cheval, Florida",0,0,0,0,0,0,0,0,0,0,0,0,0,0,0.0,0,0,0.0,0.0,0.0,0.0,7602.0,10702.0
17538,39047,US,109827,28.905,-81.2111111111,,Census,City,FL,"Deltona, Florida",0,0,0,0,0,0,0,0,0,0,0,0,0,0,0.0,0,0,0.0,4868.0,15710.0,50828.0,69543.0,85182.0
17603,10514,US,109236,28.1275,-82.5891666667,,Census,Census-designated place,FL,"Keystone, Florida",0,0,0,0,0,0,0,0,0,0,0,0,0,0,0.0,0,0,0.0,0.0,0.0,0.0,14627.0,24039.0
17618,12433,US,109155,30.5233333333,-87.2736111111,,Census,Census-designated place,FL,"Ensley, Florida",0,0,0,0,0,0,0,0,0,0,0,0,0,0,0.0,0,0,0.0,0.0,14422.0,16362.0,18752.0,20602.0
17673,113161,US,20107027,26.4591666667,-80.0830555556,,Census,City,FL,"Delray Beach, Florida",0,0,0,0,0,0,0,0,0,0,0,0,904,1051,2333.0,3737,6312,12230.0,19366.0,34329.0,47789.0,60020.0,60522.0
17682,6418,US,109595,26.468118,-80.129152,,Census,,FL,"High Point, Palm Beach County, Florida",0,0,0,0,0,0,0,0,0,0,0,0,0,0,0.0,0,0,0.0,0.0,0.0,2288.0,2191.0,0.0
17694,15838,US,109292,28.8511111111,-81.6819444444,,Census,City,FL,"Eustis, Florida",0,0,0,0,0,0,0,0,0,0,0,411,910,1193,2835.0,2930,4005,6189.0,6722.0,9453.0,12967.0,15106.0,18558.0
17764,14436,US,40013533,28.8007,-81.2798,,Census,Town,FL,"Goldsboro, Florida",0,0,0,0,0,0,0,0,0,0,0,71,286,0,0.0,0,0,0.0,0.0,0.0,0.0,0.0,0.0
17776,9329,US,109406,27.2,-80.2,,Census,Town,FL,"Sewall's Point, Florida",0,0,0,0,0,0,0,0,0,0,0,0,0,0,0.0,0,0,151.0,298.0,1187.0,1588.0,1946.0,1996.0
17801,13908,US,109493,24.7244444444,-81.0180555556,,Census,Town,FL,"Key Colony Beach, Florida",0,0,0,0,0,0,0,0,0,0,0,0,0,0,0.0,0,0,66.0,371.0,977.0,977.0,788.0,797.0
17807,10001,US,109394,29.3708333333,-82.1983333333,,Census,Town,FL,"Reddick, Florida",0,0,0,0,0,0,0,0,0,0,0,0,498,312,363.0,392,433,594.0,305.0,657.0,554.0,571.0,506.0
17856,20285,US,75112,30.04,-82.37,,Census,US County,FL,"Union County, Florida",0,0,0,0,0,0,0,0,0,0,0,0,0,0,7428.0,7094,8906,6043.0,8112.0,10166.0,10252.0,13442.0,15535.0
17858,10176,US,109164,30.4275,-87.2608333333,,Census,Census-designated place,FL,"West Pensacola, Florida",0,0,0,0,0,0,0,0,0,0,0,0,0,0,0.0,0,0,0.0,20924.0,24371.0,22107.0,21939.0,21339.0
17890,30513,US,57770,29.98,-81.86,,Census,US County,FL,"Clay County, Florida",0,0,0,0,0,0,0,1914,2098,2838,5154,5635,6116,5621,6859.0,6468,14323,19535.0,32059.0,67052.0,105986.0,140814.0,190865.0
18118,9507,US,109463,25.6197222222,-80.3616666667,,Census,Cdp,FL,"Palmetto Estates, Florida",0,0,0,0,0,0,0,0,0,0,0,0,0,0,0.0,0,0,0.0,0.0,11116.0,12293.0,13675.0,0.0
18135,25895,US,109824,29.0225,-81.2863888889,,Census,City,FL,"DeLand, Florida",0,0,0,0,0,0,0,0,0,0,1113,1449,2812,3324,5246.0,7041,8652,10775.0,11641.0,15354.0,16491.0,20904.0,27031.0
18220,14609,US,109285,30.5447222222,-83.8672222222,,Census,City,FL,"Monticello, Florida",0,0,0,0,0,0,329,1083,1052,0,1218,1076,1829,1704,1901.0,2042,2264,2490.0,2473.0,2994.0,2573.0,2533.0,2506.0
18235,27013,US,109087,26.1075,-80.3880555556,,Census,City,FL,"Weston, Florida",0,0,0,0,0,0,0,0,0,0,0,0,0,0,0.0,0,0,0.0,0.0,0.0,9829.0,49286.0,65333.0
18245,19567,US,109656,28.2372222222,-82.1794444444,,Census,City,FL,"Zephyrhills, Florida",0,0,0,0,0,0,0,0,0,0,0,0,0,577,748.0,1252,1826,2887.0,3369.0,5742.0,8220.0,10833.0,13288.0
18269,14229,US,109579,26.5088888889,-80.0541666667,,Census,Town,FL,"Briny Breezes, Florida",0,0,0,0,0,0,0,0,0,0,0,0,0,0,0.0,0,0,0.0,481.0,387.0,400.0,411.0,601.0
18304,14707,US,109232,27.8527777778,-82.2086111111,,Census,Census-designated place,FL,"FishHawk, Florida",0,0,0,0,0,0,0,0,0,0,0,0,0,0,0.0,0,0,0.0,0.0,0.0,0.0,1991.0,14087.0
18316,21323,US,109452,25.8197222222,-80.2911111111,,Census,City,FL,"Miami Springs, Florida",0,0,0,0,0,0,0,0,0,0,0,0,0,0,402.0,898,5108,11229.0,13279.0,12350.0,13268.0,13712.0,13809.0
18384,17637,US,109455,25.8455722222,-80.1535444444,,Census,City,FL,"North Bay Village, Florida",0,0,0,0,0,0,0,0,0,0,0,0,0,0,0.0,0,198,2006.0,4831.0,4920.0,5383.0,6733.0,7137.0
18438,11053,US,109227,28.0708333333,-82.5583333333,,Census,Census-designated place,FL,"Citrus Park, Florida",0,0,0,0,0,0,0,0,0,0,0,0,0,0,0.0,0,0,0.0,0.0,0.0,0.0,20226.0,24252.0
18444,6740,US,109085,26.1305555556,-80.1791666667,,Census,Cdp,FL,"Washington Park, Florida",0,0,0,0,0,0,0,0,0,0,0,0,0,0,0.0,0,0,0.0,0.0,7240.0,6930.0,1257.0,1672.0
18465,11514,US,109113,28.85,-82.4833333333,,Census,Census-designated place,FL,"Lecanto, Florida",0,0,0,0,0,0,0,0,0,0,0,0,0,0,0.0,0,0,0.0,0.0,0.0,1243.0,5161.0,5882.0
18605,28501,US,108988,28.3694444444,-80.7438888889,,Census,City,FL,"Cocoa, Florida",0,0,0,0,0,0,0,0,0,0,312,382,613,1445,2164.0,3098,4245,12294.0,16110.0,16096.0,17722.0,16412.0,17140.0
18652,12449,US,109673,27.8958333333,-82.8475,,Census,City,FL,"Indian Rocks Beach, Florida",0,0,0,0,0,0,0,0,0,0,0,0,0,0,0.0,0,0,1940.0,2666.0,3717.0,3963.0,5072.0,4113.0
18795,9415,US,109801,27.4936111111,-80.3422222222,,Census,Town,FL,"St. Lucie Village, Florida",0,0,0,0,0,0,0,0,0,0,0,0,0,0,0.0,0,0,0.0,428.0,593.0,584.0,604.0,590.0
18819,8398,US,109330,26.7122222222,-81.7380555556,,Census,Cdp,FL,"Fort Myers Shores, Florida",0,0,0,0,0,0,0,0,0,0,0,0,0,0,0.0,0,0,0.0,0.0,4426.0,5460.0,5793.0,0.0
18864,14382,US,109244,,,,Census,Census-designated place,FL,"Riverview, Hillsborough County, Florida",0,0,0,0,0,0,0,0,0,0,0,0,0,0,0.0,0,0,0.0,2225.0,0.0,6478.0,12035.0,71050.0
18924,10905,US,109736,29.4816666667,-81.6716666667,,Census,Town,FL,"Welaka, Florida",0,0,0,0,0,0,0,0,0,0,0,215,294,350,409.0,457,459,526.0,496.0,492.0,533.0,586.0,701.0
18987,15737,US,108964,29.6397222222,-82.6086111111,,Census,City,FL,"Newberry, Florida",0,0,0,0,0,0,0,0,0,0,0,0,816,917,766.0,735,873,1105.0,1247.0,1826.0,1644.0,3316.0,4950.0
19008,8392,US,109336,26.6461111111,-81.9130555556,,Census,Cdp,FL,"Lochmoor Waterway Estates, Florida",0,0,0,0,0,0,0,0,0,0,0,0,0,0,0.0,0,0,0.0,0.0,0.0,4091.0,3858.0,0.0
19052,12556,US,109251,27.9408333333,-82.2425,,Census,Census-designated place,FL,"Valrico, Florida",0,0,0,0,0,0,0,0,0,0,0,0,0,0,0.0,0,0,0.0,0.0,0.0,0.0,6582.0,35545.0
19159,30085,US,74648,27.38,-80.44,,Census,US County,FL,"St. Lucie County, Florida",0,0,0,0,0,0,0,0,0,0,0,0,4075,7886,7057.0,11871,20180,39294.0,50836.0,87182.0,150171.0,192695.0,277789.0
19197,8781,US,109700,28.0033333333,-81.6905555556,,Census,Cdp,FL,"Cypress Gardens, Florida",0,0,0,0,0,0,0,0,0,0,0,0,0,0,0.0,0,0,0.0,3757.0,8043.0,9188.0,8844.0,0.0
19231,24269,US,109407,27.1922222222,-80.2430555556,,Census,City,FL,"Stuart, Florida",0,0,0,0,0,0,0,0,0,0,0,0,0,778,1924.0,2438,2912,4791.0,4820.0,9467.0,11936.0,14633.0,15593.0
19241,10879,US,109184,26.8333333333,-81.1,,Census,City,FL,"Moore Haven, Florida",0,0,0,0,0,0,0,0,0,0,0,0,0,623,612.0,831,636,790.0,974.0,1250.0,1432.0,1635.0,1680.0
19292,39162,US,109607,26.6197222222,-80.0586111111,,Census,City,FL,"Lake Worth, Florida",0,0,0,0,0,0,0,0,0,0,0,0,0,1106,5940.0,7408,11777,20758.0,23714.0,27048.0,28564.0,35133.0,34910.0
19400,8836,US,109386,27.5008333333,-82.6138888889,,Census,Cdp,FL,"West Bradenton, Florida",0,0,0,0,0,0,0,0,0,0,0,0,0,0,0.0,0,0,0.0,0.0,6162.0,8767.0,4444.0,0.0
19505,9385,US,109486,25.8822222222,-80.2380555556,,Census,Cdp,FL,"Westview, Florida",0,0,0,0,0,0,0,0,0,0,0,0,0,0,0.0,0,0,0.0,0.0,0.0,0.0,9692.0,9650.0
19513,12511,US,109853,30.6216666667,-85.7116666667,,Census,City,FL,"Vernon, Florida",0,0,0,0,0,0,0,0,0,0,0,141,0,0,331.0,539,610,624.0,691.0,885.0,778.0,743.0,687.0
19607,37072,US,109005,28.325,-80.7327777778,,Census,City,FL,"Rockledge, Florida",0,0,0,0,0,0,0,0,0,0,0,0,0,453,551.0,725,1347,3481.0,10523.0,11877.0,16023.0,20170.0,24926.0
19669,10135,US,109683,27.8280555556,-82.8305555556,,Census,Town,FL,"Redington Shores, Florida",0,0,0,0,0,0,0,0,0,0,0,0,0,0,0.0,0,0,917.0,1733.0,2142.0,2366.0,2338.0,2121.0
19777,11408,US,109831,28.9833333333,-81.2327777778,,Census,City,FL,"Lake Helen, Florida",0,0,0,0,0,0,0,0,0,0,0,203,646,978,850.0,587,926,1096.0,1303.0,2047.0,2344.0,2743.0,2624.0
19789,12659,US,109177,30.494878,-84.46259,,Census,City,FL,"Midway, Gadsden County, Florida",0,0,0,0,0,0,0,0,0,0,0,0,0,0,0.0,0,0,0.0,0.0,0.0,852.0,1446.0,3004.0
19802,27338,US,73627,27.08,-80.4,,Census,US County,FL,"Martin County, Florida",0,0,0,0,0,0,0,0,0,0,0,0,0,0,5111.0,6295,7807,16932.0,28035.0,64014.0,100900.0,126731.0,146318.0
19826,33299,US,73630,25.12,-81.15,,Census,Census Area,FL,"Monroe County, Florida",0,0,0,0,517,688,2645,2913,5657,10940,18786,18006,21563,19550,13624.0,14078,29957,47921.0,52586.0,63188.0,78024.0,79589.0,73090.0
19854,19497,US,109475,25.7993111111,-80.3736222222,,Census,City,FL,"Sweetwater, Miami-Dade County, Florida",0,0,0,0,0,0,0,0,0,0,0,0,0,0,0.0,0,230,645.0,3357.0,8067.0,13909.0,14226.0,13499.0
19864,28832,US,108987,28.3883333333,-80.6036111111,,Census,City,FL,"Cape Canaveral, Florida",0,0,0,0,0,0,0,0,0,0,0,0,0,0,0.0,0,0,0.0,4258.0,5733.0,8014.0,8829.0,9912.0
19941,13796,US,109391,29.05,-82.45,,Census,City,FL,"Dunnellon, Florida",0,0,0,0,0,0,0,0,0,0,532,700,1227,1185,1194.0,1066,1110,1079.0,1146.0,1427.0,1624.0,1898.0,1733.0
20054,11427,US,109612,26.7580555556,-80.0738888889,,Census,Town,FL,"Mangonia Park, Florida",0,0,0,0,0,0,0,0,0,0,0,0,0,0,0.0,0,348,594.0,827.0,1419.0,1453.0,1283.0,1888.0
20108,76231,US,108959,29.6519972222,-82.3249916667,,Census,City,FL,"Gainesville, Florida",0,0,0,0,0,0,0,0,0,0,2790,3633,6183,6860,10465.0,13757,26861,29701.0,64510.0,81371.0,84770.0,95447.0,124354.0
20130,17587,US,108976,30.1766666667,-85.8055555556,,Census,City,FL,"Panama City Beach, Florida",0,0,0,0,0,0,0,0,0,0,0,0,0,0,0.0,0,0,36.0,67.0,2148.0,4051.0,7671.0,12018.0
20162,17567,US,109074,26.2008333333,-80.0969444444,,Census,Village,FL,"Sea Ranch Lakes, Florida",0,0,0,0,0,0,0,0,0,0,0,0,0,0,0.0,0,0,170.0,660.0,584.0,619.0,1392.0,670.0
20174,12216,US,109428,25.84,-80.2355555556,,Census,Cdp,FL,"Gladeview, Florida",0,0,0,0,0,0,0,0,0,0,0,0,0,0,0.0,0,0,0.0,0.0,18919.0,15637.0,14468.0,11535.0
20211,20512,US,109450,25.9116666667,-80.325,,Census,Town,FL,"Miami Lakes, Florida",0,0,0,0,0,0,0,0,0,0,0,0,0,0,0.0,0,0,0.0,0.0,9809.0,12750.0,22676.0,29361.0
20265,30978,US,109804,28.6488888889,-81.9952777778,,Census,City,FL,"Center Hill, Florida",0,0,0,0,0,0,0,0,0,0,0,0,299,574,726.0,545,522,529.0,371.0,751.0,735.0,910.0,988.0
20274,113355,US,100582,28.5376527,-81.3796443,"[[y1895,2993],[y1905,3205],[y1915,6448],[y1925,22255],[y1935,30481],[y1945,50105],[y2016,277173]]", USA,City,FL,"Orlando, Florida",0,0,0,0,0,0,0,0,0,0,2856,2481,3894,9282,27330.0,36736,52367,88135.0,99006.0,128251.0,164693.0,185951.0,238300.0
20298,24552,US,73632,30.67,-86.59,,Census,US County,FL,"Okaloosa County, Florida",0,0,0,0,0,0,0,0,0,0,0,0,0,9360,9897.0,12900,27533,61175.0,88187.0,109920.0,143776.0,170498.0,180822.0
20339,26265,US,109220,27.4955555556,-81.4444444444,,Census,City,FL,"Sebring, Florida",0,0,0,0,0,0,0,0,0,0,0,0,0,812,2912.0,3155,5006,6939.0,7223.0,8736.0,8900.0,9667.0,10491.0
20355,10746,US,109650,28.2747222222,-82.7230555556,,Census,City,FL,"Port Richey, Florida",0,0,0,0,0,0,0,0,0,0,0,0,0,0,104.0,134,376,1931.0,1259.0,2165.0,2523.0,3021.0,2671.0
20422,17642,US,109124,25.8588888889,-81.3847222222,,Census,City,FL,"Everglades City, Florida",0,0,0,0,0,0,0,0,0,0,0,0,0,0,172.0,518,625,552.0,462.0,524.0,321.0,479.0,400.0
20445,8987,US,108970,30.2027777778,-85.6205555556,,Census,Unincorporated place,FL,"Hiland Park, Florida",0,0,0,0,0,0,0,0,0,0,0,0,0,0,0.0,0,0,0.0,3691.0,4763.0,3865.0,999.0,0.0
20520,67305,US,109495,24.5591666667,-81.7840305556,,Census,City,FL,"Key West, Florida",0,0,0,0,0,688,2367,2832,5016,9890,18080,17114,19945,18749,12831.0,12927,26433,33956.0,29312.0,24382.0,24832.0,25478.0,24649.0
20584,9152,US,109554,28.4608333333,-81.3916666667,,Census,Census-designated place,FL,"Sky Lake, Florida",0,0,0,0,0,0,0,0,0,0,0,0,0,0,0.0,0,0,0.0,0.0,6692.0,6202.0,5651.0,6153.0
20616,8040,US,109659,28.2327777778,-82.2047222222,,Census,Cdp,FL,"Zephyrhills West, Florida",0,0,0,0,0,0,0,0,0,0,0,0,0,0,0.0,0,0,0.0,0.0,3698.0,4249.0,5242.0,0.0
20707,172832,US,72008,,,,Census,US County,FL,"Brevard County, Florida",0,0,0,0,0,0,0,246,1216,1478,3401,5158,4717,8505,13283.0,16142,23653,111435.0,230006.0,272959.0,398978.0,476320.0,543376.0
20756,10555,US,109417,25.7466666667,-80.3044444444,,Census,Census-designated place (cdp) &amp; unincorporated community,FL,"Coral Terrace, Florida",0,0,0,0,0,0,0,0,0,0,0,0,0,0,0.0,0,0,0.0,0.0,22702.0,23255.0,24380.0,24376.0
20775,35450,US,109349,26.4397222222,-82.0805555556,,Census,City,FL,"Sanibel, Florida",0,0,0,0,0,0,0,0,0,0,0,0,0,0,0.0,0,0,0.0,0.0,3363.0,5468.0,6064.0,6469.0
20814,18464,US,109539,28.3775,-81.5216666667,,Census,City,FL,"Lake Buena Vista, Florida",0,0,0,0,0,0,0,0,0,0,0,0,0,0,0.0,0,0,0.0,12.0,98.0,1776.0,16.0,10.0
20854,9189,US,109477,25.6694444444,-80.4011111111,,Census,Cdp,FL,"The Crossings, Florida",0,0,0,0,0,0,0,0,0,0,0,0,0,0,0.0,0,0,0.0,0.0,11986.0,22290.0,23557.0,22758.0
20858,15194,US,109193,26.75,-80.9333333333,,Census,City,FL,"Clewiston, Florida",0,0,0,0,0,0,0,0,0,0,0,0,0,0,0.0,1338,2499,3114.0,3896.0,5219.0,6085.0,6460.0,7155.0
20899,137790,US,92995,27.9680555556,-82.4763888889,,Census,City,FL,"Tampa, Florida",0,0,0,0,0,0,974,0,796,720,5532,15839,37782,51608,101161.0,108391,124681,274970.0,277714.0,271523.0,280015.0,303447.0,335709.0
21034,13646,US,109787,29.7166666667,-81.5083333333,,Census,Town,FL,"Hastings, Florida",0,0,0,0,0,0,0,0,0,0,0,0,399,761,673.0,1035,577,617.0,628.0,636.0,595.0,521.0,580.0
21125,11774,US,109821,29.9338888889,-82.4244444444,,Census,Town,FL,"Worthington Springs, Florida",0,0,0,0,0,0,0,0,0,0,0,0,0,0,0.0,0,0,0.0,214.0,220.0,178.0,193.0,181.0
21243,34663,US,109780,28.6597222222,-81.1958333333,,Census,City,FL,"Oviedo, Florida",0,0,0,0,0,0,0,0,0,0,0,0,0,0,1042.0,1356,1601,1926.0,1870.0,3074.0,11114.0,26316.0,33342.0
21259,11914,US,109367,29.0333333333,-82.7166666667,,Census,Town,FL,"Yankeetown, Florida",0,0,0,0,0,0,0,0,0,0,0,0,0,0,157.0,255,322,425.0,490.0,600.0,635.0,629.0,502.0
21261,15250,US,109042,26.17,-80.2013888889,,Census,City,FL,"Lauderdale Lakes, Florida",0,0,0,0,0,0,0,0,0,0,0,0,0,0,0.0,0,0,0.0,10577.0,25426.0,27341.0,31705.0,32593.0
21360,17208,US,109185,29.8147222222,-85.2972222222,,Census,City,FL,"Port St. Joe, Florida",0,0,0,0,0,0,0,0,0,0,0,0,0,0,851.0,2393,2752,4217.0,4401.0,4027.0,4044.0,3644.0,3445.0
21428,13965,US,108984,29.7872222222,-82.0330555556,,Census,City,FL,"Keystone Heights, Florida",0,0,0,0,0,0,0,0,0,0,0,0,0,0,107.0,145,307,655.0,800.0,1056.0,1315.0,1349.0,1350.0
21434,12709,US,109295,28.5577777778,-81.8519444444,,Census,City,FL,"Groveland, Florida",0,0,0,0,0,0,0,0,0,0,0,0,0,0,470.0,411,1028,1747.0,1928.0,1992.0,2300.0,2360.0,8729.0
21435,13509,US,109777,28.7575,-81.3291666667,,Census,City,FL,"Lake Mary, Florida",0,0,0,0,0,0,0,0,0,0,0,0,0,0,0.0,0,0,0.0,0.0,2853.0,5929.0,11458.0,13822.0
21446,12355,US,109315,28.9330555556,-81.6644444444,,Census,City,FL,"Umatilla, Florida",0,0,0,0,0,0,0,0,0,0,0,0,283,640,907.0,1149,1312,1717.0,1600.0,1872.0,2350.0,2214.0,3456.0
21521,26368,US,109799,27.2758333333,-80.355,,Census,City,FL,"Port St. Lucie, Florida",0,0,0,0,0,0,0,0,0,0,0,0,0,0,0.0,0,0,0.0,330.0,14690.0,55866.0,88769.0,164603.0
21532,8498,US,109664,27.915,-82.8461111111,,Census,Town,FL,"Belleair Shore, Florida",0,0,0,0,0,0,0,0,0,0,0,0,0,0,0.0,0,0,61.0,124.0,80.0,60.0,0.0,109.0
21533,10666,US,108962,29.85,-82.4,,Census,Town,FL,"LaCrosse, Florida",0,0,0,0,0,0,0,0,0,0,0,0,0,0,374.0,192,146,165.0,365.0,170.0,122.0,143.0,360.0
21584,11777,US,109511,30.9652777778,-86.4591666667,,Census,City,FL,"Laurel Hill, Florida",0,0,0,0,0,0,0,0,0,0,0,0,316,291,302.0,350,327,411.0,418.0,610.0,543.0,549.0,537.0
21654,40997,US,109471,25.7102777778,-80.2951694444,,Census,City,FL,"South Miami, Florida",0,0,0,0,0,0,0,0,0,0,0,0,0,0,1160.0,2408,4809,9846.0,11780.0,10895.0,10404.0,10741.0,11657.0
21662,9867,US,109688,27.7544444444,-82.74,,Census,City,FL,"South Pasadena, Florida",0,0,0,0,0,0,0,0,0,0,0,0,0,0,0.0,0,23,651.0,2465.0,4188.0,5644.0,5778.0,4964.0
21713,11753,US,109476,25.755,-80.4036111111,,Census,Cdp,FL,"Tamiami, Florida",0,0,0,0,0,0,0,0,0,0,0,0,0,0,0.0,0,0,0.0,0.0,17607.0,33845.0,54788.0,55271.0
21734,10601,US,109619,26.7780555556,-80.0344444444,,Census,Town,FL,"Palm Beach Shores, Florida",0,0,0,0,0,0,0,0,0,0,0,0,0,0,0.0,0,0,885.0,1214.0,1232.0,1040.0,1269.0,1142.0
21818,30652,US,109178,30.5833333333,-84.5833333333,,Census,City,FL,"Quincy, Florida",0,0,0,0,0,0,0,0,743,639,681,847,3204,3118,3788.0,3888,6505,8874.0,8334.0,8591.0,7444.0,6982.0,7972.0
21862,22009,US,26661435,26.7605555556,-81.4391666667,,Census,City,FL,"LaBelle, Florida",0,0,0,0,0,0,0,0,0,0,0,0,0,377,397.0,837,945,1262.0,1823.0,2287.0,2703.0,4210.0,4640.0
21865,30778,US,109617,26.715,-80.0394444444,,Census,Town,FL,"Palm Beach, Florida",0,0,0,0,0,0,0,0,0,0,0,0,0,1135,1707.0,3747,3886,6055.0,9086.0,9729.0,9814.0,10468.0,8348.0
21956,14454,US,109516,30.5,-86.5,,Census,City,FL,"Valparaiso, Florida",0,0,0,0,0,0,0,0,0,0,0,0,0,0,99.0,221,1047,5975.0,6504.0,6142.0,4672.0,6408.0,5036.0
22033,10641,US,109737,30.5958333333,-87.0355555556,,Census,Cdp,FL,"Bagdad, Florida",0,0,0,0,0,0,0,0,0,0,0,0,0,0,0.0,0,0,0.0,0.0,1479.0,1457.0,1490.0,0.0
22058,51302,US,73622,27.4986666667,-82.5747222222,,Census,US County,FL,"Manatee County, Florida",0,0,0,0,0,0,0,854,1931,3544,2895,4663,9550,18712,22502.0,26098,34704,69168.0,97115.0,148442.0,211707.0,264002.0,322833.0
22063,10435,US,108985,30.0827888889,-82.122575,,Census,City,FL,"Lawtey, Florida",0,0,0,0,0,0,0,0,0,0,0,0,492,372,554.0,427,576,623.0,636.0,692.0,676.0,656.0,730.0
22068,13225,US,109817,30.1144444444,-83.5825,,Census,City,FL,"Perry, Florida",0,0,0,0,0,0,0,0,0,0,0,0,1012,1956,2744.0,2668,2797,8030.0,7701.0,8254.0,7151.0,6847.0,7017.0
22281,24700,US,109061,26.0125,-80.3136111111,,Census,City,FL,"Pembroke Pines, Florida",0,0,0,0,0,0,0,0,0,0,0,0,0,0,0.0,0,0,1429.0,15496.0,35776.0,65452.0,137427.0,154750.0
22390,11057,US,109496,24.8266666667,-80.8138888889,,Census,City,FL,"Layton, Florida",0,0,0,0,0,0,0,0,0,0,0,0,0,0,0.0,0,0,0.0,100.0,88.0,183.0,186.0,184.0
22400,12134,US,108960,29.5880555556,-82.0838888889,,Census,City,FL,"Hawthorne, Florida",0,0,0,0,0,0,0,0,0,0,0,296,324,543,600.0,741,1058,1167.0,1126.0,1303.0,1305.0,1415.0,1417.0
22403,28116,US,109359,29.1455555556,-83.0416666667,,Census,City,FL,"Cedar Key, Florida",0,0,0,0,0,0,0,0,440,0,0,739,864,695,1066.0,988,900,668.0,714.0,700.0,668.0,790.0,702.0
22409,11040,US,109153,30.4705555556,-87.2491666667,,Census,Census-designated place,FL,"Brent, Florida",0,0,0,0,0,0,0,0,0,0,0,0,0,0,0.0,0,0,0.0,0.0,21872.0,21624.0,22257.0,21804.0
22415,14493,US,109265,27.7827777778,-80.4822222222,,Census,City,FL,"Sebastian, Florida",0,0,0,0,0,0,0,0,0,0,0,0,0,0,386.0,425,376,698.0,825.0,2831.0,10205.0,16181.0,21929.0
22507,4009,US,41194537,27.8716666667,-81.715,,Census,Census-designated place (cdp) &amp; unincorporated community,FL,"Alturas, Florida",0,0,0,0,0,0,0,0,0,0,0,0,0,0,0.0,0,0,0.0,0.0,0.0,0.0,0.0,0.0
22598,11080,US,109146,29.6352777778,-83.1247222222,,Census,Town,FL,"Cross City, Florida",0,0,0,0,0,0,0,0,0,0,0,0,0,0,1071.0,1869,1522,1857.0,2268.0,2154.0,2041.0,1775.0,1728.0
22606,13149,US,109812,28.8586111111,-82.0386111111,,Census,City,FL,"Wildwood, Florida",0,0,0,0,0,0,0,0,0,0,419,244,329,480,1409.0,1346,2019,2170.0,2082.0,2665.0,3421.0,3924.0,6709.0
22652,34172,US,75116,30.15,-84.38,,Census,US County,FL,"Wakulla County, Florida",0,0,0,0,0,0,1955,2839,2506,2723,3117,5149,4802,5129,5468.0,5463,5258,5257.0,6308.0,10887.0,14202.0,22863.0,30776.0
22734,59575,US,109820,29.19,-81.0894444444,,Census,City,FL,"Daytona Beach, Florida",0,0,0,0,0,0,0,0,0,0,0,0,331,825,16598.0,22584,30167,37395.0,45327.0,54176.0,61921.0,64112.0,61005.0
22735,25387,US,72379,30.87,-85.81,,Census,US County,FL,"Holmes County, Florida",0,0,0,0,0,0,1205,1386,1572,2170,4336,7762,11557,12850,12924.0,15447,13988,10844.0,10720.0,14723.0,15778.0,18564.0,19927.0
22748,26002,US,109666,28.0252777778,-82.7752777778,,Census,City,FL,"Dunedin, Florida",0,0,0,0,0,0,0,0,0,0,0,113,256,642,1435.0,1758,3202,8444.0,17639.0,30203.0,34012.0,35691.0,35321.0
22804,8914,US,109707,28.1130555556,-81.9711111111,,Census,Unincorporated community,FL,"Gibsonia, Florida",0,0,0,0,0,0,0,0,0,0,0,0,0,0,0.0,0,0,0.0,0.0,5011.0,5168.0,4507.0,0.0
22810,10415,US,109239,27.9894444444,-82.3044444444,,Census,Census-designated place,FL,"Mango, Florida",0,0,0,0,0,0,0,0,0,0,0,0,0,0,0.0,0,0,0.0,0.0,0.0,8700.0,8842.0,11313.0
22833,10365,US,109277,30.7969444444,-85.3761111111,,Census,Town,FL,"Cottondale, Florida",0,0,0,0,0,0,0,0,0,0,0,0,0,438,550.0,719,747,849.0,765.0,1056.0,900.0,869.0,933.0
22834,17619,US,109034,25.9866666667,-80.1461111111,,Census,Unknown,FL,"Hallandale Beach, Florida",0,0,0,0,0,0,0,0,0,0,0,0,0,0,1012.0,1827,3886,10483.0,23849.0,36517.0,30996.0,34282.0,37113.0
22852,24720,US,72383,27.7,-80.58,,Census,US County,FL,"Indian River County, Florida",0,0,0,0,0,0,0,0,0,0,0,0,0,0,6724.0,8957,11872,25309.0,35992.0,59896.0,90208.0,112947.0,138028.0
22927,12975,US,109166,29.4675,-81.2569444444,,Census,City,FL,"Bunnell, Florida",0,0,0,0,0,0,0,0,0,0,0,0,0,682,671.0,1030,1341,1860.0,1687.0,1816.0,1873.0,2122.0,2676.0
23012,8611,US,109713,28.0383333333,-81.7661111111,,Census,Cdp,FL,"Inwood, Florida",0,0,0,0,0,0,0,0,0,0,0,0,0,0,0.0,0,2326,5050.0,7716.0,6668.0,6824.0,6925.0,0.0
23090,13520,US,109148,30.3347222222,-81.4088888889,,Census,City,FL,"Atlantic Beach, Florida",0,0,0,0,0,0,0,0,0,0,0,0,0,0,164.0,468,1604,3125.0,6132.0,7847.0,11636.0,13368.0,12655.0
23170,9513,US,109762,27.0458333333,-82.415,,Census,Census-designated place,FL,"South Venice, Florida",0,0,0,0,0,0,0,0,0,0,0,0,0,0,0.0,0,0,0.0,4680.0,8075.0,11951.0,13539.0,13949.0
23387,6037,US,109461,25.9211111111,-80.2627777778,,Census,Neighborhood of miami gardens,FL,"Opa-locka North, Florida",0,0,0,0,0,0,0,0,0,0,0,0,0,0,0.0,0,0,0.0,0.0,5721.0,6568.0,6224.0,0.0
23404,55701,US,109756,27.3372222222,-82.5352777778,,Census,City,FL,"Sarasota, Florida",0,0,0,0,0,0,0,0,0,0,0,0,840,2149,8398.0,11141,18896,34083.0,40237.0,48868.0,50961.0,52715.0,51917.0
23466,37049,US,109132,26.15,-81.8,,Census,City,FL,"Naples, Florida",0,0,0,0,0,0,0,0,0,0,0,0,0,0,391.0,1253,1465,4656.0,12042.0,17581.0,19508.0,20981.0,19539.0
23473,15914,US,109154,30.9777777778,-87.2613888889,,Census,Town,FL,"Century, Florida",0,0,0,0,0,0,0,0,0,0,0,0,0,0,0.0,0,395,462.0,329.0,495.0,1989.0,1714.0,1698.0
23558,11312,US,109168,29.6675,-81.2136111111,,Census,Town,FL,"Marineland, Florida",0,0,0,0,0,0,0,0,0,0,0,0,0,0,0.0,0,9,9.0,13.0,31.0,21.0,6.0,16.0
23560,15597,US,109712,27.8241666667,-81.5330555556,,Census,Town,FL,"Hillcrest Heights, Florida",0,0,0,0,0,0,0,0,0,0,0,0,0,0,71.0,96,91,138.0,154.0,177.0,221.0,266.0,254.0
23630,48139,US,109038,26.0213888889,-80.175,,Census,City,FL,"Hollywood, Florida",0,0,0,0,0,0,0,0,0,0,0,0,0,0,2689.0,6239,14351,35237.0,106873.0,121323.0,121697.0,139357.0,140768.0
23690,12481,US,109431,25.9127777778,-80.1977777778,,Census,Cdp,FL,"Golden Glades, Florida",0,0,0,0,0,0,0,0,0,0,0,0,0,0,0.0,0,0,0.0,0.0,23154.0,25474.0,32623.0,33145.0
23748,25924,US,109306,28.8063888889,-81.6430555556,,Census,City,FL,"Mount Dora, Florida",0,0,0,0,0,0,0,0,0,0,0,0,0,623,612.0,831,636,790.0,974.0,1250.0,1432.0,1635.0,1680.0
23762,8459,US,109325,26.5380555556,-81.9016666667,,Census,Cdp,FL,"Cypress Lake, Florida",0,0,0,0,0,0,0,0,0,0,0,0,0,0,0.0,0,0,0.0,0.0,8721.0,10491.0,12072.0,0.0
23772,9293,US,109535,28.6127777778,-81.2941666667,,Census,Census-designated place,FL,"Goldenrod, Florida",0,0,0,0,0,0,0,0,0,0,0,0,0,0,0.0,0,0,0.0,0.0,13682.0,12362.0,12871.0,12039.0
23814,18647,US,109703,27.9797222222,-81.7547222222,,Census,City,FL,"Eagle Lake, Florida",0,0,0,0,0,0,0,0,0,0,0,0,0,0,600.0,862,1060,1364.0,1373.0,1678.0,1758.0,2496.0,2255.0
23834,9404,US,109115,30.0527777778,-81.8163888889,,Census,Census-designated place,FL,"Lake Asbury, Florida",0,0,0,0,0,0,0,0,0,0,0,0,0,0,0.0,0,0,0.0,0.0,0.0,0.0,0.0,0.0
23857,13739,US,109751,27.0661111111,-82.1719444444,,Census,City,FL,"North Port, Florida",0,0,0,0,0,0,0,0,0,0,0,0,0,0,0.0,0,0,178.0,2244.0,6205.0,11973.0,22797.0,57357.0
23877,8318,US,109339,26.5636111111,-81.9097222222,,Census,Cdp,FL,"McGregor, Florida",0,0,0,0,0,0,0,0,0,0,0,0,0,0,0.0,0,0,0.0,0.0,0.0,6504.0,7136.0,0.0
23900,14456,US,109481,25.809175,-80.2966972222,,Census,Village,FL,"Virginia Gardens, Florida",0,0,0,0,0,0,0,0,0,0,0,0,0,0,0.0,0,235,2159.0,2524.0,2098.0,2212.0,2348.0,2375.0
23980,12539,US,109692,27.7688888889,-82.7683333333,,Census,City,FL,"Treasure Island, Florida",0,0,0,0,0,0,0,0,0,0,0,0,0,0,0.0,0,75,3506.0,6120.0,6316.0,7266.0,7450.0,6705.0
24029,7269,US,109013,26.0986111111,-80.2075,,Census,Cdp,FL,"Broadview Park, Florida",0,0,0,0,0,0,0,0,0,0,0,0,0,0,0.0,0,0,0.0,6049.0,6022.0,6109.0,6798.0,7125.0
24038,11109,US,109675,27.8161111111,-82.7152777778,,Census,Town,FL,"Kenneth City, Florida",0,0,0,0,0,0,0,0,0,0,0,0,0,0,0.0,0,0,2114.0,3862.0,4344.0,4462.0,4400.0,4980.0
24039,10595,US,109121,29.9811111111,-81.81,,Census,Town,FL,"Penney Farms, Florida",0,0,0,0,0,0,0,0,0,0,0,0,0,0,825.0,370,445,545.0,561.0,630.0,609.0,580.0,749.0
24127,11910,US,109179,29.7544444444,-82.8616666667,,Census,Town,FL,"Bell, Florida",0,0,0,0,0,0,0,0,0,0,0,0,243,146,168.0,183,108,134.0,227.0,227.0,267.0,349.0,456.0
24140,95675,US,109634,26.7097222222,-80.0641666667,,Census,City,FL,"West Palm Beach, Florida",0,0,0,0,0,0,0,0,0,0,244,564,1743,8659,26610.0,33693,43162,56208.0,57375.0,63305.0,67643.0,82103.0,99919.0
24143,11845,US,109415,25.9422222222,-80.27,,Census,Neighborhood of miami gardens,FL,"Carol City, Florida",0,0,0,0,0,0,0,0,0,0,0,0,0,0,0.0,0,0,21749.0,27361.0,47349.0,53331.0,59443.0,61233.0
24180,992,US,56423358,,,,Unknown,Unknown,FL,"Draft:Lazy Town, Florida",0,0,0,0,0,0,0,0,0,0,0,0,0,0,0.0,0,0,0.0,0.0,0.0,0.0,0.0,0.0
24228,24652,US,109267,27.65,-80.3833333333,,Census,City,FL,"Vero Beach, Florida",0,0,0,0,0,0,0,0,0,0,0,0,0,793,2268.0,3050,4746,8849.0,11908.0,16176.0,17350.0,17705.0,15220.0
24237,15176,US,109222,27.7719444444,-82.4108333333,,Census,Census-designated place,FL,"Apollo Beach, Florida",0,0,0,0,0,0,0,0,0,0,0,0,0,0,0.0,0,0,0.0,1042.0,4014.0,6025.0,7444.0,14055.0
24306,28796,US,72004,30.24,-85.63,,Census,US County,FL,"Bay County, Florida",0,0,0,0,0,0,0,0,0,0,0,0,0,11407,12091.0,20686,42689,67131.0,75283.0,97740.0,126994.0,148217.0,168852.0
24309,15004,US,109671,27.7505555556,-82.7086111111,,Census,City,FL,"Gulfport, Florida",0,0,0,0,0,0,0,0,0,0,0,0,0,0,851.0,1581,3702,9730.0,9976.0,11180.0,11727.0,12527.0,12029.0
24333,23956,US,109076,26.1572222222,-80.2861111111,,Census,City,FL,"Sunrise, Florida",0,0,0,0,0,0,0,0,0,0,0,0,0,0,0.0,0,0,0.0,7403.0,39681.0,64407.0,85779.0,84439.0
24373,14336,US,109412,25.8718388889,-80.1819805556,,Census,Village,FL,"Biscayne Park, Florida",0,0,0,0,0,0,0,0,0,0,0,0,0,0,0.0,500,2009,2911.0,2717.0,3088.0,3068.0,3269.0,3055.0
24405,43642,US,109328,26.6166666667,-81.8333333333,,Census,City,FL,"Fort Myers, Florida",0,0,0,0,0,0,0,0,0,0,575,943,2463,3678,9082.0,10604,13195,22523.0,27351.0,36638.0,45206.0,48208.0,62298.0
24423,22472,US,1276168,26.0586111111,-80.3372222222,,Census,Town,FL,"Southwest Ranches, Florida",0,0,0,0,0,0,0,0,0,0,0,0,0,0,0.0,0,0,0.0,0.0,0.0,0.0,6779.0,7345.0
24429,6074,US,40447357,30.4163888889,-84.2805555556,,Census,Former cdp,FL,"Bond-South City, Florida",0,0,0,0,0,0,0,0,0,0,0,0,0,0,0.0,0,4611,1148.0,0.0,0.0,0.0,0.0,0.0
24740,6464,US,109454,25.9469444444,-80.2108333333,,Census,Neighborhood of miami gardens,FL,"Norland, Florida",0,0,0,0,0,0,0,0,0,0,0,0,0,0,0.0,0,0,0.0,14973.0,19471.0,22109.0,22995.0,0.0
24826,8766,US,109340,26.7,-81.8833333333,,Census,Cdp,FL,"North Fort Myers, Florida",0,0,0,0,0,0,0,0,0,0,0,0,0,0,0.0,0,0,0.0,8798.0,22808.0,30027.0,40214.0,39407.0
24855,39515,US,109676,27.9094444444,-82.7872222222,,Census,City,FL,"Largo, Florida",0,0,0,0,0,0,0,0,0,0,0,0,291,599,1429.0,1031,1547,5302.0,24230.0,57958.0,65674.0,69371.0,77648.0
24927,10621,US,109317,26.7102777778,-81.6286111111,,Census,Cdp,FL,"Alva, Florida",0,0,0,0,0,0,0,0,0,0,0,0,0,0,0.0,0,0,0.0,0.0,0.0,0.0,0.0,0.0
24941,11660,US,2213214,27.7133333333,-82.3597222222,,Census,Census-designated place,FL,"Sun City Center, Florida",0,0,0,0,0,0,0,0,0,0,0,0,0,0,0.0,0,0,0.0,2143.0,5605.0,8326.0,16321.0,19258.0
25038,13457,US,109685,28.005,-82.695,,Census,City,FL,"Safety Harbor, Florida",0,0,0,0,0,0,0,0,0,0,0,0,0,429,765.0,694,894,1787.0,3103.0,6461.0,15124.0,17203.0,16884.0
25061,9990,US,109487,25.7238888889,-80.3688888889,,Census,Cdp,FL,"Westwood Lakes, Florida",0,0,0,0,0,0,0,0,0,0,0,0,0,0,0.0,0,0,22517.0,12811.0,11478.0,11522.0,12005.0,11838.0
25084,8694,US,109256,30.9816666667,-85.6194444444,,Census,Town,FL,"Noma, Florida",0,0,0,0,0,0,0,0,0,0,0,0,0,0,0.0,0,0,0.0,0.0,113.0,207.0,213.0,211.0
25111,10667,US,109813,29.9616666667,-82.9272222222,,Census,Town,FL,"Branford, Florida",0,0,0,0,0,0,0,0,0,0,335,0,26,708,498.0,684,753,663.0,820.0,622.0,670.0,695.0,712.0
25112,12586,US,109237,28.0813888889,-82.4780555556,,Census,Census-designated place,FL,"Lake Magdalene, Florida",0,0,0,0,0,0,0,0,0,0,0,0,0,0,0.0,0,0,0.0,9266.0,13331.0,15973.0,28755.0,28509.0
25271,13352,US,109383,27.5222222222,-82.5783333333,,Census,City,FL,"Palmetto, Florida",0,0,0,0,0,0,0,0,0,0,224,569,773,2046,3043.0,3491,4103,5556.0,7422.0,8637.0,9268.0,12571.0,12606.0
25305,7957,US,109601,26.9475,-80.0747222222,,Census,Town,FL,"Jupiter Inlet Colony, Florida",0,0,0,0,0,0,0,0,0,0,0,0,0,0,0.0,0,0,242.0,396.0,378.0,405.0,368.0,400.0
25402,6212,US,21690855,28.0111111111,-82.5169444444,,Census,Unincorporated community,FL,"Leto, Florida",0,0,0,0,0,0,0,0,0,0,0,0,0,0,0.0,0,0,0.0,8458.0,9003.0,10347.0,0.0,0.0
25477,9582,US,109714,28.0169444444,-81.7777777778,,Census,Cdp,FL,"Jan Phyl Village, Florida",0,0,0,0,0,0,0,0,0,0,0,0,0,0,0.0,0,0,0.0,1340.0,2785.0,5308.0,5633.0,0.0
25492,21270,US,109553,28.5816666667,-81.4694444444,,Census,Census-designated place,FL,"Pine Hills, Florida",0,0,0,0,0,0,0,0,0,0,0,0,0,0,0.0,0,0,0.0,13882.0,35771.0,35322.0,41764.0,60076.0
25566,6387,US,40261860,30.4308333333,-87.2530555556,,Census,Unincorporated community,FL,"Brownsville, Escambia County, Florida",0,0,0,0,0,0,0,0,0,0,0,0,0,0,0.0,0,20269,38417.0,0.0,0.0,0.0,0.0,0.0
25607,11578,US,109674,27.8505555556,-82.8433333333,,Census,Town,FL,"Indian Shores, Florida",0,0,0,0,0,0,0,0,0,0,0,0,0,0,0.0,0,198,296.0,791.0,984.0,1405.0,1705.0,1420.0
25643,22879,US,108975,30.1744444444,-85.6644444444,,Census,City,FL,"Panama City, Florida",0,0,0,0,0,0,0,0,0,0,0,0,422,1722,5402.0,11610,25814,33275.0,32096.0,33346.0,34378.0,36417.0,36484.0
25707,9624,US,109147,29.4405555556,-83.2888888889,,Census,Town,FL,"Horseshoe Beach, Florida",0,0,0,0,0,0,0,0,0,0,0,0,0,0,0.0,0,0,0.0,124.0,304.0,252.0,206.0,169.0
25720,8416,US,109353,26.6747222222,-81.8175,,Census,Cdp,FL,"Tice, Florida",0,0,0,0,0,0,0,0,0,0,0,0,0,0,0.0,0,1133,4377.0,7254.0,6645.0,3971.0,4538.0,0.0
25736,205990,US,18933066,,,,Census,US State,FL,Florida,0,0,0,0,34730,54477,87445,140424,187748,269493,391422,528542,752619,968470,1468211.0,1897414,2771305,4951560.0,6789443.0,9746324.0,12937926.0,15982378.0,18801310.0
25832,46844,US,73649,28.3,-82.44,,Census,US County,FL,"Pasco County, Florida",0,0,0,0,0,0,0,0,0,0,4249,6054,7502,8802,10574.0,13981,20529,36785.0,75955.0,193643.0,281131.0,344765.0,464697.0
25895,10062,US,109243,27.8963888889,-82.3633333333,,Census,Census-designated place,FL,"Progress Village, Florida",0,0,0,0,0,0,0,0,0,0,0,0,0,0,0.0,0,0,0.0,2573.0,0.0,0.0,2482.0,5392.0
25985,18644,US,109549,28.5741666667,-81.5305555556,"[[y1925,771],[y1935,664],[y1945,610],[y2016,44820]]", USA,City,FL,"Ocoee, Florida",0,0,0,0,0,0,0,0,0,0,0,0,0,0,794.0,702,1370,2628.0,3937.0,7803.0,12778.0,24391.0,35579.0
25987,22411,US,109708,28.1116666667,-81.6286111111,,Census,City,FL,"Haines City, Florida",0,0,0,0,0,0,0,0,0,0,0,0,0,651,3037.0,3890,5630,9135.0,8956.0,10799.0,11683.0,13174.0,20535.0
26062,16992,US,109254,30.7833333333,-85.6833333333,,Census,City,FL,"Bonifay, Florida",0,0,0,0,0,0,0,0,0,0,0,0,922,1230,1292.0,1924,2252,2222.0,2068.0,2534.0,2612.0,4078.0,2793.0
26089,23787,US,109508,30.3933333333,-86.4752777778,,Census,City,FL,"Destin, Florida",0,0,0,0,0,0,0,0,0,0,0,0,0,0,0.0,0,0,0.0,0.0,0.0,8080.0,11119.0,12305.0
26094,18815,US,109144,27.215,-81.859,,Census,City,FL,"Arcadia, Florida",0,0,0,0,0,0,0,0,0,0,0,799,1736,3479,4082.0,4055,4764,5889.0,5658.0,6002.0,6488.0,6604.0,7637.0
26196,6043,US,109470,25.9355555556,-80.2319444444,,Census,Neighborhood of miami gardens,FL,"Scott Lake, Florida",0,0,0,0,0,0,0,0,0,0,0,0,0,0,0.0,0,0,0.0,0.0,14154.0,14588.0,14401.0,0.0
26238,8784,US,109354,26.555,-81.8691666667,,Census,Cdp,FL,"Villas, Florida",0,0,0,0,0,0,0,0,0,0,0,0,0,0,0.0,0,0,0.0,0.0,8724.0,9898.0,11346.0,11569.0
26297,7405,US,109414,25.9219444444,-80.2344444444,,Census,Neighborhood of miami gardens,FL,"Bunche Park, Florida",0,0,0,0,0,0,0,0,0,0,0,0,0,0,0.0,0,0,0.0,5773.0,0.0,4388.0,3972.0,0.0
