,article_length,country,id,lat,lon,poptype,settlement_type,state,title,y1790,y1800,y1810,y1820,y1830,y1840,y1850,y1860,y1870,y1880,y1890,y1900,y1910,y1920,y1930,y1940,y1950,y1960,y1970,y1980,y1990,y2000,y2010
1,11547,US,112396,41.3305555556,-85.8502777778,Census,Town,IN,"Leesburg, Indiana",0,0,0,0,0,0,217,289,326,354,345,390,401,369,371.0,389,428,427.0,561.0,629,584,625.0,555.0
50,11446,US,112158,38.5411111111,-85.7666666667,Census,Census-designated place,IN,"Henryville, Indiana",0,0,0,0,0,0,0,0,0,0,0,0,0,0,0.0,0,0,0.0,0.0,0,0,1545.0,1905.0
64,10874,US,112626,38.8383333333,-84.8277777778,Census,Town,IN,"Patriot, Indiana",0,0,0,0,0,0,0,0,0,467,434,408,340,289,288.0,257,315,277.0,216.0,265,190,202.0,209.0
97,9782,US,152182,39.8472222222,-86.1730555556,Census,Town,IN,"Rocky Ripple, Indiana",0,0,0,0,0,0,0,0,0,0,0,0,0,0,133.0,315,528,967.0,1192.0,778,751,712.0,606.0
202,10326,US,112283,40.3869444444,-85.4958333333,Census,Town,IN,"Matthews, Indiana",0,0,0,0,0,0,0,0,0,0,0,0,688,502,513.0,468,501,627.0,728.0,745,571,595.0,596.0
216,16824,US,96113,40.48,-86.12,Census,US County,IN,"Howard County, Indiana",0,0,0,0,0,0,6657,12524,15847,19584,26186,28575,33177,43965,46696.0,47752,54498,69509.0,83198.0,86896,80827,84964.0,82752.0
248,16429,US,112666,38.0461111111,-87.2725,Census,City,IN,"Boonville, Indiana",0,0,0,0,0,0,196,621,1039,1182,1881,2849,3934,4451,4208.0,4526,5092,4801.0,5736.0,6300,6724,6834.0,6246.0
308,16738,US,112321,39.7630555556,-86.3877777778,Census,Town,IN,"Avon, Indiana",0,0,0,0,0,0,0,0,0,0,0,0,0,0,0.0,0,0,0.0,0.0,0,0,6248.0,12446.0
380,9743,US,112624,39.1794444444,-87.3969444444,Census,Town,IN,"Shelburn, Indiana",0,0,0,0,0,0,0,0,0,387,378,523,2055,1814,1548.0,1606,1412,1299.0,1281.0,1259,1147,1268.0,1252.0
383,13571,US,112128,40.6844444444,-87.4158333333,Census,Town,IN,"Earl Park, Indiana",0,0,0,0,0,0,0,0,0,0,0,563,609,542,501.0,507,488,551.0,478.0,469,443,485.0,348.0
385,7362,US,112598,41.6133333333,-86.2475,Census,Census-designated place,IN,"Gulivoire Park, Indiana",0,0,0,0,0,0,0,0,0,0,0,0,0,0,0.0,0,0,0.0,0.0,0,2788,2974.0,0.0
438,12879,US,112662,40.45,-87.2538888889,Census,Town,IN,"Pine Village, Indiana",0,0,0,0,0,0,0,0,0,0,0,279,352,301,323.0,303,311,309.0,291.0,257,134,255.0,217.0
466,9493,US,112386,38.5183333333,-87.5238888889,Census,Town,IN,"Decker, Indiana",0,0,0,0,0,0,0,0,0,0,0,0,0,0,468.0,466,386,317.0,268.0,256,281,283.0,249.0
477,17971,US,24417423,41.3669444444,-85.0588888889,Census,US County,IN,"DeKalb County, Indiana",0,0,0,0,0,1968,8251,13880,17167,20225,24307,25711,25054,25600,24911.0,24756,26023,28271.0,30837.0,33606,35324,40285.0,42223.0
534,26112,US,112273,38.3536111111,-87.5705555556,Census,City,IN,"Princeton, Indiana",0,0,0,0,1192,1280,2403,2855,2939,3282,4156,4227,5661,6061,7166.0,7926,8177,8567.0,8899.0,9133,8576,8175.0,8644.0
539,14038,US,96058,40.85,-85.79,Census,US County,IN,"Wabash County, Indiana",0,0,0,0,0,2756,12138,17547,21305,25241,27126,28235,26926,27231,25170.0,26601,29047,32605.0,35553.0,36640,35069,34960.0,32888.0
549,19649,US,112525,39.3497222222,-86.6655555556,Census,Town,IN,"Gosport, Indiana",0,0,0,0,0,0,548,0,860,740,720,726,776,700,722.0,729,672,646.0,692.0,729,764,715.0,826.0
564,12644,US,112586,38.7423611111,-85.8045833333,Census,City,IN,"Austin, Indiana",0,0,0,0,0,0,0,0,321,270,0,0,0,0,0.0,0,2906,3838.0,4902.0,4857,4310,4724.0,4295.0
608,15089,US,112131,40.5213888889,-87.2497222222,Census,Town,IN,"Oxford, Indiana",0,0,0,0,0,0,0,318,519,713,808,949,1010,950,853.0,863,888,1108.0,1098.0,1327,1273,1271.0,1162.0
654,25183,US,112297,39.9666666667,-86.1,Census,City,IN,"Carmel, Indiana",0,0,0,0,0,0,0,0,0,92,471,498,626,598,682.0,771,1009,1442.0,6691.0,18272,25380,37733.0,79191.0
688,10314,US,112342,39.8377777778,-85.4361111111,Census,Town,IN,"Spiceland, Indiana",0,0,0,0,0,0,0,0,370,527,637,590,622,632,722.0,645,739,863.0,957.0,940,757,807.0,890.0
743,13734,US,112146,40.5875,-86.6716666667,Census,City,IN,"Delphi, Indiana",0,0,0,0,0,0,1381,1395,1614,2040,1928,2135,2161,2087,1929.0,2213,2530,2517.0,2582.0,3042,2531,3015.0,2893.0
802,12754,US,112611,41.2941666667,-86.6225,Census,City,IN,"Knox, Indiana",0,0,0,0,0,0,0,124,244,316,790,1466,1644,1577,1815.0,2165,3034,3458.0,3519.0,3674,3705,3721.0,3704.0
813,10282,US,33878948,38.6611111111,-86.4533333333,Census,Town,IN,"Orleans, Indiana",0,0,0,0,0,0,0,0,905,812,857,1236,1367,1408,1422.0,1428,1531,1659.0,1834.0,2161,2083,2273.0,2142.0
828,10451,US,112390,38.8961111111,-87.1852777778,Census,Town,IN,"Sandborn, Indiana",0,0,0,0,0,0,0,0,0,252,0,0,445,530,641.0,602,572,547.0,528.0,576,455,451.0,415.0
882,9950,US,112263,41.0180555556,-86.4127777778,Census,Town,IN,"Kewanna, Indiana",0,0,0,0,0,0,0,0,0,283,647,646,728,695,682.0,701,680,683.0,614.0,711,542,614.0,613.0
894,18276,US,112590,39.5219444444,-85.7763888889,Census,City,IN,"Shelbyville, Indiana",0,0,0,0,0,446,995,1960,2731,3745,5451,7169,9500,9701,10618.0,10791,11734,14317.0,15094.0,14989,15336,17951.0,19191.0
913,21629,US,96097,,,Census,US County,IN,"Marion County, Indiana",0,0,0,0,7192,16080,24103,39855,71939,102782,141156,197227,263661,348061,422666.0,460926,551777,697567.0,792299.0,765233,797159,860454.0,903393.0
966,10852,US,112111,41.21,-84.9683333333,Census,Town,IN,"Grabill, Indiana",0,0,0,0,0,0,0,0,0,0,0,0,0,0,276.0,288,370,495.0,570.0,658,751,1113.0,1053.0
999,5634,US,112596,41.7294444444,-86.2222222222,Census,Census-designated place,IN,"Georgetown, St. Joseph County, Indiana",0,0,0,0,0,0,0,0,0,0,0,0,0,0,0.0,0,0,0.0,0.0,0,3993,4497.0,0.0
1105,12447,US,112447,40.2741666667,-85.8380555556,Census,City,IN,"Elwood, Indiana",0,0,0,0,0,0,0,0,310,751,2284,12950,11028,10790,10685.0,10913,11362,11793.0,11196.0,10867,9494,9737.0,8614.0
1171,10091,US,112438,41.6972222222,-86.8572222222,Census,Town,IN,"Trail Creek, Indiana",0,0,0,0,0,0,0,0,0,0,0,0,0,0,295.0,326,817,1552.0,2697.0,2581,2463,2296.0,2052.0
1180,13000,US,112536,38.4916666667,-87.2802777778,Census,City,IN,"Petersburg, Indiana",0,0,0,0,0,0,386,683,923,1193,1494,1751,2170,2367,2609.0,3075,3035,2939.0,2697.0,2987,2449,2570.0,2383.0
1224,11121,US,112450,40.0680555556,-85.8475,Census,Town,IN,"Lapel, Indiana",0,0,0,0,0,0,0,0,0,0,0,869,1045,1079,1140.0,1146,1389,1772.0,1796.0,1881,1742,1855.0,2068.0
1245,9542,US,112573,40.2372222222,-84.9172222222,Census,Town,IN,"Saratoga, Indiana",0,0,0,0,0,0,0,0,0,136,0,0,410,327,303.0,349,333,363.0,406.0,338,266,288.0,254.0
1350,11094,US,112530,39.7922222222,-87.3702777778,Census,Town,IN,"Montezuma, Indiana",0,0,0,0,0,0,0,580,624,781,658,1172,1537,1178,1292.0,1366,1220,1231.0,1192.0,1352,1134,1179.0,1022.0
1383,14360,US,112265,38.2469444444,-87.5761111111,Census,Town,IN,"Fort Branch, Indiana",0,0,0,0,0,0,0,0,0,778,748,849,1182,1389,1341.0,1552,1944,1983.0,2535.0,2504,2447,2320.0,2771.0
1387,10791,US,112649,40.0522222222,-87.4352777778,Census,Town,IN,"Perrysville, Indiana",0,0,0,0,0,0,742,721,690,645,507,0,0,0,435.0,451,462,497.0,510.0,532,443,502.0,456.0
1449,11177,US,112644,39.9472222222,-87.4647222222,Census,Town,IN,"Cayuga, Indiana",0,0,0,0,0,0,0,0,0,0,0,832,911,933,968.0,1126,1022,904.0,1090.0,1258,1083,1109.0,1162.0
1451,7173,US,13770631,40.4836111111,-86.1358333333,Census,Township,IN,"Center Township, Howard County, Indiana",0,0,0,0,0,0,0,0,0,0,0,0,0,0,0.0,0,0,0.0,0.0,0,0,47619.0,45275.0
1466,23163,US,112503,39.4233333333,-86.4238888889,Census,City,IN,"Martinsville, Indiana",0,0,0,0,0,0,334,640,1131,1943,2680,4038,4529,4895,4962.0,5009,5991,7525.0,9723.0,11311,11677,11698.0,11828.0
1539,15203,US,96096,41.33,-86.26,Census,US County,IN,"Marshall County, Indiana",0,0,0,0,0,1651,5348,12722,20211,23414,23818,25119,24175,23744,25077.0,25935,29468,32443.0,34986.0,39155,42182,45128.0,47051.0
1567,11927,US,112181,38.3355555556,-86.4605555556,Census,Town,IN,"English, Indiana",0,0,0,0,0,0,0,0,0,0,423,649,583,576,704.0,757,839,698.0,664.0,633,614,673.0,645.0
1578,10093,US,112685,39.9763888889,-85.0858333333,Census,Town,IN,"Economy, Indiana",0,0,0,0,0,0,0,0,0,249,0,0,0,0,212.0,251,285,280.0,285.0,237,151,200.0,187.0
1705,25116,US,112441,38.8627777778,-86.4922222222,Census,City,IN,"Bedford, Indiana",0,0,0,0,0,0,962,0,0,2198,3351,6115,8716,9076,13208.0,12514,12562,13024.0,13087.0,14410,13817,13768.0,13413.0
1722,11385,US,112377,39.52,-86.1655555556,Census,Town,IN,"Bargersville, Indiana",0,0,0,0,0,0,0,0,0,77,0,0,0,290,282.0,297,413,586.0,873.0,1647,1681,2120.0,4013.0
1817,19029,US,112707,41.2313888889,-85.3194444444,Census,Town,IN,"Churubusco, Indiana",0,0,0,0,0,0,0,0,0,720,869,884,870,916,1095.0,1122,1232,1284.0,1528.0,1638,1781,1666.0,1796.0
1894,19485,US,96075,40.15,-85.01,Census,US County,IN,"Randolph County, Indiana",0,0,0,1808,3912,10684,14725,18997,22862,26435,28085,28653,29013,26484,24859.0,26766,27141,28434.0,28915.0,29997,27148,27401.0,26171.0
2063,11307,US,112496,40.195,-86.9786111111,Census,Town,IN,"New Richmond, Indiana",0,0,0,0,0,0,0,0,0,72,0,357,464,436,391.0,368,391,394.0,381.0,403,312,349.0,333.0
2075,18581,US,112678,38.6041666667,-86.0988888889,Census,City,IN,"Salem, Indiana",0,0,0,0,0,0,1223,1372,1294,1615,1974,1995,2283,2836,3194.0,3194,3271,4546.0,5041.0,5290,5619,6172.0,6319.0
2085,14071,US,112466,39.7919444444,-86.25,Census,Town,IN,"Speedway, Indiana",0,0,0,0,0,0,0,0,0,0,0,0,0,0,1420.0,2325,5498,9624.0,14523.0,12641,13092,12881.0,11812.0
2099,6708,US,112548,41.5436111111,-87.1366666667,Census,Census-designated place,IN,"South Haven, Indiana",0,0,0,0,0,0,0,0,0,0,0,0,0,0,0.0,0,0,0.0,4876.0,6679,6112,5619.0,5282.0
2113,13470,US,112363,40.9380555556,-87.1513888889,Census,City,IN,"Rensselaer, Indiana",0,0,0,0,0,0,241,535,617,968,1455,2255,2393,2912,2798.0,3214,4072,4740.0,4688.0,4944,5045,5294.0,5859.0
2130,14800,US,96115,39.77,-86.51,Census,US County,IN,"Hendricks County, Indiana",0,0,0,0,3975,11264,14083,16953,20277,22981,21498,21292,20840,20291,19725.0,20151,24594,40896.0,53974.0,69804,75717,104093.0,145448.0
2131,5076,US,13713953,39.1336111111,-86.9822222222,Census,Township,IN,"Jefferson Township, Greene County, Indiana",0,0,0,0,0,0,0,0,0,0,0,0,0,0,0.0,0,0,0.0,0.0,0,0,2036.0,2094.0
2134,15786,US,96131,,,Census,US County,IN,"Delaware County, Indiana",0,0,0,3677,2374,8843,10843,15753,19030,22926,30131,49624,51414,56377,67270.0,74963,90252,110938.0,129219.0,128587,119659,118769.0,117671.0
2137,8858,US,112318,38.1636111111,-86.0505555556,Census,Town,IN,"New Middletown, Indiana",0,0,0,0,0,0,0,0,0,171,212,167,145,119,118.0,115,153,132.0,133.0,115,82,77.0,93.0
2217,21122,US,96090,39.48,-86.45,Census,US County,IN,"Morgan County, Indiana",0,0,0,0,5593,10741,14576,16110,17528,18900,18643,20457,21182,20010,19424.0,19801,23726,33875.0,44176.0,51999,55920,66689.0,68894.0
2232,12409,US,112694,40.8805555556,-85.1683333333,Census,Town,IN,"Ossian, Indiana",0,0,0,0,0,0,0,0,0,522,0,529,661,724,788.0,784,761,1108.0,1538.0,1945,2428,2943.0,3289.0
2280,19237,US,112367,40.4933333333,-85.1475,Census,Town,IN,"Pennville, Indiana",0,0,0,0,0,0,0,0,0,0,697,773,800,646,578.0,598,626,730.0,798.0,805,637,706.0,701.0
2308,10770,US,152202,39.8522222222,-86.1727777778,Census,Town,IN,"Crows Nest, Indiana",0,0,0,0,0,0,0,0,0,0,0,0,0,0,79.0,112,86,122.0,100.0,106,114,96.0,73.0
2311,8497,US,112489,39.2991666667,-86.65,Census,Town,IN,"Stinesville, Indiana",0,0,0,0,0,0,0,0,140,0,0,288,497,299,310.0,337,355,288.0,291.0,227,204,194.0,198.0
2334,27087,US,112246,38.3019444444,-85.8213888889,Census,City,IN,"New Albany, Indiana",0,0,0,0,2079,4226,8181,12647,15396,16423,21059,20628,20629,22992,25819.0,25414,29346,37812.0,38402.0,37103,36322,37603.0,36372.0
2336,5570,US,13713965,39.0347222222,-86.9002777778,Census,Township,IN,"Richland Township, Greene County, Indiana",0,0,0,0,0,0,0,0,0,0,0,0,0,0,0.0,0,0,0.0,0.0,0,0,5008.0,5019.0
2423,15379,US,112442,38.7338888889,-86.4744444444,Census,City,IN,"Mitchell, Indiana",0,0,0,0,0,0,0,0,1087,1439,1583,1772,3438,3025,3226.0,3393,3245,3552.0,4092.0,4641,4669,4567.0,4350.0
2459,10564,US,112195,39.1213888889,-84.8538888889,Census,City,IN,"Greendale, Indiana",0,0,0,0,0,0,0,0,0,286,435,473,697,763,1050.0,1548,2018,2861.0,3783.0,3795,3881,4296.0,4520.0
2515,20420,US,96112,40.83,-85.49,Census,US County,IN,"Huntington County, Indiana",0,0,0,0,0,1579,7850,14867,19036,21805,27644,28901,28982,31671,29073.0,29931,31400,33814.0,34970.0,35596,35427,38075.0,37124.0
2520,11113,US,112210,41.5261111111,-85.0647222222,Census,Town,IN,"Ashley, Indiana",0,0,0,0,0,0,0,0,0,0,0,1040,639,618,623.0,675,680,721.0,721.0,841,767,1010.0,983.0
2600,14105,US,112628,40.51,-86.8383333333,Census,Town,IN,"Battle Ground, Indiana",0,0,0,0,0,0,0,0,0,0,456,150,443,444,448.0,506,634,804.0,818.0,812,806,1323.0,1334.0
2601,12464,US,112493,39.9152777778,-86.7991666667,Census,Town,IN,"Ladoga, Indiana",0,0,0,0,0,0,0,0,878,928,857,1176,1148,1010,829.0,936,912,974.0,1099.0,1151,1124,1047.0,985.0
2634,10113,US,112650,39.6216666667,-87.4530555556,Census,Town,IN,"Universal, Indiana",0,0,0,0,0,0,0,0,0,0,0,0,0,1570,642.0,603,479,424.0,462.0,428,392,419.0,362.0
2657,22847,US,112477,41.3438888889,-86.3125,Census,City,IN,"Plymouth, Indiana",0,0,0,0,0,0,0,1277,2482,2570,2728,3656,3838,4338,5290.0,5713,6704,7558.0,7661.0,7693,8303,9840.0,10033.0
2666,10146,US,112189,38.8413888889,-86.9911111111,Census,Town,IN,"Odon, Indiana",0,0,0,0,0,0,0,0,0,0,764,923,1064,985,981.0,958,1177,1192.0,1433.0,1463,1475,1376.0,1354.0
2667,12986,US,112523,38.5577777778,-86.4691666667,Census,Town,IN,"Paoli, Indiana",0,0,0,0,0,0,461,0,628,696,707,1186,1278,1520,2016.0,2218,2575,2754.0,3281.0,3637,3542,3844.0,3677.0
2672,12528,US,112127,40.5183333333,-87.3813888889,Census,Town,IN,"Boswell, Indiana",0,0,0,0,0,0,0,0,0,330,558,824,814,880,817.0,877,963,957.0,998.0,810,767,827.0,778.0
2707,11645,US,112606,41.7186111111,-86.2516666667,Census,Town,IN,"Roseland, Indiana",0,0,0,0,0,0,0,0,0,0,0,0,0,0,777.0,782,984,971.0,895.0,832,706,1809.0,630.0
2724,15589,US,112412,41.5002777778,-87.5122222222,Census,Town,IN,"Dyer, Indiana",0,0,0,0,0,0,0,0,0,0,0,0,545,479,672.0,976,1556,3993.0,4906.0,9555,10923,13895.0,16390.0
2776,11545,US,112640,38.0911111111,-87.5761111111,Census,Town,IN,"Darmstadt, Indiana",0,0,0,0,0,0,0,0,0,150,0,0,0,0,0.0,0,0,0.0,0.0,1280,1346,1313.0,1407.0
2817,19752,US,91017,38.1188888889,-86.9213888889,Census,Town,IN,"Santa Claus, Indiana",0,0,0,0,0,0,0,0,0,0,0,0,0,0,0.0,0,0,0.0,63.0,514,927,2041.0,2481.0
2821,19685,US,112138,40.0522222222,-86.4716666667,Census,City,IN,"Lebanon, Indiana",0,0,0,0,0,0,0,892,1572,2625,3682,4465,5474,6257,6445.0,6529,7631,9523.0,9766.0,11456,12059,14222.0,15792.0
2824,12329,US,112141,39.9961111111,-86.3447222222,Census,Town,IN,"Whitestown, Indiana",0,0,0,0,0,0,0,0,0,0,0,0,0,0,0.0,0,550,613.0,569.0,497,476,471.0,2867.0
2929,9783,US,112332,39.9511111111,-85.4863888889,Census,Town,IN,"Cadiz, Indiana",0,0,0,0,0,0,0,0,0,594,307,253,209,148,165.0,182,222,198.0,207.0,180,202,161.0,150.0
2938,17514,US,112419,41.5697222222,-87.2597222222,Census,City,IN,"Lake Station, Indiana",0,0,0,0,0,0,0,0,0,170,0,0,484,813,2409.0,3401,5635,9309.0,9858.0,15087,13899,13948.0,12572.0
2964,23510,US,112701,40.6625,-86.8675,Census,Town,IN,"Chalmers, Indiana",0,0,0,0,0,0,0,0,0,0,0,462,513,528,510.0,475,508,548.0,544.0,554,525,513.0,508.0
3003,27181,US,112601,41.6675,-86.1713888889,Census,City,IN,"Mishawaka, Indiana",0,0,0,0,0,0,1412,1488,2617,2640,3371,5560,11886,15195,28630.0,28298,32918,33361.0,36060.0,40201,42608,46557.0,48252.0
3023,11072,US,112314,38.0322222222,-86.0852777778,Census,Town,IN,"Laconia, Indiana",0,0,0,0,0,0,0,0,0,112,133,135,82,83,103.0,83,82,75.0,64.0,58,75,29.0,50.0
3041,11457,US,112247,40.2902777778,-87.2469444444,Census,City,IN,"Attica, Indiana",0,0,0,0,0,0,0,1713,2273,2150,2320,3005,3335,3392,3700.0,3760,3862,4341.0,4262.0,3841,3457,3491.0,3245.0
3131,11599,US,112498,39.8783333333,-87.0430555556,Census,Town,IN,"Waveland, Indiana",0,0,0,0,0,0,0,0,0,592,663,648,676,590,542.0,530,553,549.0,557.0,559,474,416.0,420.0
3134,10686,US,112632,40.3733333333,-86.9491666667,Census,Town,IN,"Shadeland, Indiana",0,0,0,0,0,0,0,0,0,0,0,0,0,0,0.0,0,0,0.0,0.0,0,1674,1682.0,1610.0
3212,13883,US,112708,41.1586111111,-85.4877777778,Census,City,IN,"Columbia City, Indiana",0,0,0,0,0,0,0,887,1663,2244,3027,2975,3448,3499,3805.0,4219,4745,4803.0,4911.0,5091,5706,7077.0,8750.0
3220,18501,US,112329,39.6975,-86.3847222222,Census,Town,IN,"Plainfield, Indiana",0,0,0,0,0,0,251,0,795,50,909,0,1303,1373,1617.0,1811,2585,5460.0,8211.0,9191,10433,18396.0,27631.0
3240,19224,US,112123,39.3,-85.7708333333,Census,Town,IN,"Hope, Indiana",0,0,0,0,0,0,0,527,765,835,1009,1088,1223,1183,1085.0,1046,1215,1489.0,1603.0,2185,2171,2140.0,2102.0
3308,9052,US,112205,39.2108333333,-85.4336111111,Census,Town,IN,"Millhousen, Indiana",0,0,0,0,0,0,0,0,0,331,224,265,211,165,162.0,180,184,212.0,252.0,214,151,136.0,127.0
3386,10193,US,112185,38.5611111111,-86.9477777778,Census,Town,IN,"Alfordsville, Indiana",0,0,0,0,0,0,0,0,0,119,0,0,0,0,90.0,106,101,121.0,105.0,132,74,112.0,101.0
3391,10389,US,112145,40.6091666667,-86.5386111111,Census,Town,IN,"Camden, Indiana",0,0,0,0,0,0,168,316,476,457,0,0,557,597,538.0,590,600,601.0,577.0,618,607,582.0,611.0
3399,16411,US,112425,41.4891666667,-87.4430555556,Census,Town,IN,"Schererville, Indiana",0,0,0,0,0,0,0,0,0,0,0,0,0,483,580.0,998,1457,2875.0,3663.0,13209,19926,24851.0,29243.0
3480,19801,US,112428,41.6761111111,-87.4905555556,Census,City,IN,"Whiting, Indiana",0,0,0,0,0,0,0,0,0,115,200,3983,6587,10145,10880.0,10307,9669,8137.0,7054.0,5630,5155,5137.0,4997.0
3490,11590,US,112286,40.4672222222,-85.5,Census,Town,IN,"Upland, Indiana",0,0,0,0,0,0,0,0,0,176,0,1208,1080,1301,906.0,900,1565,1999.0,3202.0,3335,3295,3803.0,3845.0
3539,20565,US,112305,39.7913888889,-85.7713888889,Census,City,IN,"Greenfield, Indiana",0,0,0,0,0,0,0,744,1203,2013,3100,4489,4448,4168,4188.0,4821,6159,9049.0,9986.0,11288,11657,14600.0,20602.0
3592,12530,US,341429,39.3094444444,-85.3294444444,Census,Town,IN,"New Point, Indiana",0,0,0,0,0,0,0,0,0,174,0,451,341,317,342.0,328,322,319.0,381.0,296,296,290.0,331.0
3620,13682,US,112663,40.1966666667,-87.5272222222,Census,Town,IN,"State Line City, Indiana",0,0,0,0,0,0,0,0,0,268,201,174,194,178,165.0,157,152,171.0,176.0,233,182,141.0,143.0
3632,10509,US,112272,38.4055555556,-87.5863888889,Census,Town,IN,"Patoka, Indiana",0,0,0,0,0,0,99,409,844,775,729,710,657,673,634.0,569,626,579.0,529.0,832,704,749.0,735.0
3644,15823,US,57222,40.3,-86.48,Census,US County,IN,"Clinton County, Indiana",0,0,0,0,1423,7508,11869,14505,17330,23472,27370,28202,26674,27737,27329.0,28411,29734,30765.0,30547.0,31545,30974,33866.0,33224.0
3690,56888,US,112224,40.1933333333,-85.3880555556,Census,City,IN,"Muncie, Indiana",0,0,0,0,0,0,606,1782,2992,5219,11345,20942,24005,36524,46548.0,49720,58479,68603.0,69082.0,76460,71035,67430.0,70085.0
3921,10728,US,112400,41.1997222222,-85.7066666667,Census,Town,IN,"Pierceton, Indiana",0,0,0,0,0,0,0,293,1063,1084,897,886,817,1018,878.0,895,973,1186.0,1175.0,1086,1030,695.0,1015.0
3931,9871,US,112208,39.1761111111,-85.5741666667,Census,Town,IN,"Westport, Indiana",0,0,0,0,0,0,0,0,0,212,452,614,675,709,637.0,644,658,833.0,1170.0,1450,1478,1515.0,1379.0
3935,9600,US,112392,38.6641666667,-87.3077777778,Census,Town,IN,"Wheatland, Indiana",0,0,0,0,0,0,0,0,0,220,0,0,0,0,806.0,713,735,614.0,562.0,532,439,504.0,480.0
4063,10374,US,112482,40.6591666667,-86.1016666667,Census,Town,IN,"Bunker Hill, Indiana",0,0,0,0,0,0,0,0,0,596,538,568,668,550,528.0,561,659,1049.0,956.0,984,1010,987.0,888.0
4078,6239,US,13770643,40.5222222222,-86.3091666667,Census,Township,IN,"Ervin Township, Howard County, Indiana",0,0,0,0,0,0,0,0,0,0,0,0,0,0,0.0,0,0,0.0,0.0,0,0,2331.0,2227.0
4090,5214,US,13713887,39.1227777778,-86.7527777778,Census,Township,IN,"Beech Creek Township, Greene County, Indiana",0,0,0,0,0,0,0,0,0,0,0,0,0,0,0.0,0,0,0.0,0.0,0,0,2365.0,2595.0
4145,36571,US,96126,40.12,-87.24,Census,US County,IN,"Fountain County, Indiana",0,0,0,0,7619,11218,13253,15566,16389,20228,19558,21446,20439,18823,17971.0,18299,17836,18706.0,18257.0,19033,17808,17954.0,17240.0
4167,10192,US,112339,39.9972222222,-85.2505555556,Census,Town,IN,"Mooreland, Indiana",0,0,0,0,0,0,0,0,0,0,0,309,455,404,384.0,496,497,477.0,495.0,479,465,393.0,375.0
4178,11972,US,112323,39.6894444444,-86.5227777778,Census,Town,IN,"Clayton, Indiana",0,0,0,0,0,0,0,0,0,145,0,0,497,493,561.0,558,598,653.0,736.0,703,610,693.0,972.0
4251,10535,US,112260,39.3394444444,-85.2047222222,Census,Town,IN,"Oldenburg, Indiana",0,0,0,0,0,0,0,300,160,673,690,957,956,628,575.0,533,591,694.0,758.0,770,715,647.0,674.0
4268,10335,US,112519,41.4908333333,-85.3641666667,Census,Town,IN,"Rome City, Indiana",0,0,0,0,0,0,0,0,351,440,0,0,0,0,0.0,0,0,0.0,1354.0,1319,1138,1615.0,1361.0
4304,14052,US,112368,40.4338888889,-84.98,Census,City,IN,"Portland, Indiana",0,0,0,0,0,0,0,0,462,1694,3725,4798,5130,5958,5276.0,6362,7064,6999.0,7115.0,7074,6483,6437.0,6223.0
4318,11951,US,112307,39.7225,-85.8897222222,Census,Town,IN,"New Palestine, Indiana",0,0,0,0,0,0,0,0,0,391,404,444,450,442,450.0,448,504,725.0,863.0,749,671,1264.0,2055.0
4380,11546,US,112112,41.2277777778,-85.1694444444,Census,Town,IN,"Huntertown, Indiana",0,0,0,0,0,0,0,0,0,0,0,0,0,0,0.0,0,0,0.0,775.0,1265,1330,1771.0,4810.0
4441,11072,US,112538,38.3822222222,-87.2138888889,Census,Town,IN,"Winslow, Indiana",0,0,0,0,0,0,0,0,0,199,0,536,932,1140,1175.0,1382,1322,1089.0,1030.0,1017,875,881.0,864.0
4473,10166,US,112657,40.8377777778,-85.7277777778,Census,Town,IN,"Lagro, Indiana",0,0,0,0,0,0,293,594,519,600,549,456,463,515,467.0,542,545,763.0,552.0,549,496,454.0,415.0
4518,10666,US,112114,41.215,-85.0155555556,Census,Town,IN,"Leo-Cedarville, Indiana",0,0,0,0,0,0,0,0,0,0,0,0,0,0,0.0,0,0,0.0,0.0,0,0,2782.0,3603.0
4563,10019,US,112371,38.7358333333,-85.2455555556,Census,Town,IN,"Brooksburg, Indiana",0,0,0,0,0,0,0,0,0,148,120,149,150,117,112.0,100,132,129.0,104.0,132,79,74.0,81.0
4601,10728,US,112173,40.1938888889,-86.6680555556,Census,Town,IN,"Colfax, Indiana",0,0,0,0,0,0,0,0,187,638,730,767,801,793,690.0,717,725,725.0,633.0,823,727,768.0,691.0
4603,10076,US,152201,39.8308333333,-86.1991666667,Census,Town,IN,"Wynnedale, Indiana",0,0,0,0,0,0,0,0,0,0,0,0,0,0,0.0,60,75,174.0,124.0,289,269,275.0,231.0
4688,16576,US,112545,41.6241666667,-87.1913888889,Census,Town,IN,"Ogden Dunes, Indiana",0,0,0,0,0,0,0,0,0,0,0,0,0,0,50.0,144,429,947.0,1361.0,1489,1499,1313.0,1110.0
4742,10207,US,112563,39.6719444444,-86.7536111111,Census,Town,IN,"Fillmore, Indiana",0,0,0,0,0,0,0,0,0,180,0,0,0,0,0.0,0,0,0.0,0.0,0,497,545.0,533.0
4745,10885,US,112512,40.9455555556,-87.4541666667,Census,Town,IN,"Morocco, Indiana",0,0,0,0,0,0,0,0,0,174,397,920,927,1064,1006.0,1151,1141,1341.0,1285.0,1348,1044,1127.0,1129.0
4750,71209,US,96102,41.8,-87.6333333333,Census,County,IN,"Lake County, Indiana",0,0,0,0,0,1468,3991,9145,12339,15091,23886,37892,82864,159957,261310.0,293195,368152,513269.0,546253.0,522965,475594,484564.0,496005.0
4826,9803,US,112568,40.0244444444,-85.1830555556,Census,Town,IN,"Losantville, Indiana",0,0,0,0,0,0,0,0,0,52,0,177,300,321,252.0,253,247,251.0,212.0,306,253,280.0,237.0
4864,10655,US,112317,38.1019444444,-86.2747222222,Census,Town,IN,"New Amsterdam, Indiana",0,0,0,0,0,0,0,0,0,186,172,200,134,137,101.0,86,76,43.0,32.0,31,30,24.0,27.0
4865,23776,US,96086,38.54,-86.5,Census,US County,IN,"Orange County, Indiana",0,0,0,5368,7901,9602,10809,12076,13497,14363,14678,16854,17192,16974,17459.0,17311,16879,16877.0,16968.0,18677,18409,19306.0,19840.0
4907,18593,US,96055,38.6,-86.11,Census,US County,IN,"Washington County, Indiana",0,0,0,9039,13064,15269,17040,17909,18495,18955,18619,19409,17445,16645,16285.0,17008,16520,17819.0,19278.0,21932,23717,27223.0,28262.0
4916,15052,US,112693,40.7380555556,-85.1722222222,Census,City,IN,"Bluffton, Indiana",0,0,0,0,0,0,477,760,1131,2354,3589,4479,4987,5391,5074.0,5417,6076,6238.0,8297.0,8705,9020,9536.0,9897.0
4921,9913,US,112167,39.5988888889,-87.1075,Census,Town,IN,"Carbon, Indiana",0,0,0,0,0,0,0,0,0,600,521,951,493,572,476.0,510,480,409.0,344.0,307,350,334.0,397.0
4927,52541,US,96101,41.6,-86.7166666667,Census,County,IN,"LaPorte County, Indiana",0,0,0,0,0,8184,12145,22919,27062,30985,34445,38386,45797,50443,60490.0,63660,76808,95111.0,105342.0,108632,107066,110106.0,111467.0
4940,10310,US,112571,40.1902777778,-85.2033333333,Census,Town,IN,"Parker City, Indiana",0,0,0,0,0,0,0,0,0,0,0,909,800,697,794.0,786,915,1181.0,1179.0,1414,1323,1416.0,1419.0
4948,11458,US,112221,40.1208333333,-85.5588888889,Census,Town,IN,"Daleville, Indiana",0,0,0,0,0,0,0,0,0,297,0,0,0,0,0.0,0,0,0.0,0.0,0,1681,1658.0,1647.0
4954,16445,US,96140,40.76,-86.35,Census,US County,IN,"Cass County, Indiana",0,0,0,0,1162,5480,11021,16843,24193,27611,31152,34545,36368,38333,34518.0,36908,38793,40931.0,40456.0,40936,38413,40930.0,38966.0
4992,11177,US,112115,40.9727777778,-84.8686111111,Census,Town,IN,"Monroeville, Indiana",0,0,0,0,0,0,0,0,630,578,673,690,910,864,897.0,994,1150,1294.0,1353.0,1372,1232,1236.0,1235.0
5100,12504,US,34084766,38.69,-85.74,Census,US County,IN,"Scott County, Indiana",0,0,0,2334,3092,4242,5885,7303,7873,8343,7833,8307,8323,7424,6664.0,8978,11519,14463.0,17144.0,20422,20991,22960.0,24181.0
5145,10837,US,112653,39.3897222222,-87.3005555556,Census,Town,IN,"Riley, Indiana",0,0,0,0,0,0,0,0,0,0,0,0,0,0,260.0,287,251,248.0,257.0,269,232,160.0,221.0
5168,10681,US,112597,41.7383333333,-86.1488888889,Census,Census-designated place,IN,"Granger, Indiana",0,0,0,0,0,0,0,0,0,0,0,0,0,0,0.0,0,0,0.0,0.0,0,20241,28284.0,30465.0
5266,11016,US,112122,39.2669444444,-85.6986111111,Census,Town,IN,"Hartsville, Indiana",0,0,0,0,0,0,0,187,433,486,474,439,358,284,342.0,318,340,399.0,434.0,379,391,376.0,362.0
5294,10117,US,112695,40.6561111111,-85.2222222222,Census,Town,IN,"Poneto, Indiana",0,0,0,0,0,0,0,0,0,0,0,332,308,270,237.0,270,244,289.0,286.0,250,236,240.0,166.0
5299,9679,US,112309,39.7769444444,-85.8544444444,Census,Town,IN,"Spring Lake, Indiana",0,0,0,0,0,0,0,0,0,0,0,0,0,0,69.0,111,156,206.0,263.0,236,216,262.0,218.0
5338,12781,US,112514,41.395,-85.4219444444,Census,Town,IN,"Albion, Indiana",0,0,0,0,0,0,0,0,476,926,1229,1324,1213,1142,1108.0,1234,1341,1325.0,1498.0,1637,1823,2284.0,2349.0
5348,8450,US,112445,40.1252777778,-85.6875,Census,Town,IN,"Country Club Heights, Indiana",0,0,0,0,0,0,0,0,0,0,0,0,0,0,0.0,0,0,83.0,118.0,97,112,91.0,79.0
5351,11300,US,112338,40.0572222222,-85.5411111111,Census,Town,IN,"Middletown, Indiana",0,0,0,0,0,0,188,368,711,606,851,1801,1174,1273,1348.0,1520,1731,2033.0,2046.0,2978,2333,2488.0,2322.0
5358,11070,US,112387,38.8113888889,-87.2516666667,Census,Town,IN,"Edwardsport, Indiana",0,0,0,0,0,0,0,0,0,777,670,0,0,0,0.0,0,0,533.0,482.0,459,380,363.0,303.0
5404,9847,US,112671,38.0816666667,-87.1188888889,Census,Town,IN,"Tennyson, Indiana",0,0,0,0,0,0,0,0,0,0,0,302,371,386,335.0,293,409,312.0,335.0,331,267,290.0,279.0
5414,37229,US,96063,40.31,-86.05,Census,US County,IN,"Tipton County, Indiana",0,0,0,0,0,0,3532,8170,11953,14407,18157,19116,17459,16152,15208.0,15135,15566,15856.0,16650.0,16819,16119,16577.0,15936.0
5480,10456,US,112535,37.9938888889,-86.7994444444,Census,Town,IN,"Troy, Indiana",0,0,0,0,0,0,0,363,480,495,554,599,510,454,562.0,599,537,528.0,575.0,550,465,392.0,385.0
5491,13354,US,112578,39.1227777778,-85.1305555556,Census,Town,IN,"Milan, Indiana",0,0,0,0,0,0,0,0,0,106,318,422,557,718,877.0,1000,1014,1174.0,1260.0,1566,1529,1816.0,1899.0
5497,10210,US,112532,39.6230555556,-87.2811111111,Census,Town,IN,"Rosedale, Indiana",0,0,0,0,0,0,0,0,0,207,873,865,1166,741,657.0,712,673,726.0,817.0,744,783,750.0,725.0
5570,9559,US,112252,40.2047222222,-87.1491666667,Census,Town,IN,"Newtown, Indiana",0,0,0,0,0,0,0,0,0,0,0,0,0,329,264.0,293,287,321.0,286.0,277,243,162.0,256.0
5612,11624,US,112403,41.4233333333,-85.75,Census,Town,IN,"Syracuse, Indiana",0,0,0,0,0,0,0,182,227,491,518,928,1379,1171,1190.0,1346,1453,1595.0,1546.0,2579,2729,3038.0,2810.0
5640,19424,US,112285,40.5697222222,-85.7669444444,Census,Town,IN,"Sweetser, Indiana",0,0,0,0,0,0,0,0,0,246,0,0,0,0,0.0,0,0,896.0,1076.0,944,924,906.0,1229.0
5642,32867,US,96147,41.09,-85.06,Census,US County,IN,"Allen County, Indiana",0,0,0,0,996,5942,16919,29328,43494,54763,66689,77270,93386,114303,146743.0,155084,183722,232196.0,280455.0,294335,300836,331849.0,355329.0
5685,10845,US,112319,38.4075,-86.1105555556,Census,Town,IN,"Palmyra, Indiana",0,0,0,0,0,0,0,0,0,0,0,0,252,227,288.0,274,327,470.0,483.0,692,621,633.0,930.0
5701,7120,US,13770925,39.7736111111,-86.1394444444,Census,Township,IN,"Center Township, Marion County, Indiana",0,0,0,0,0,0,0,0,0,0,117328,167970,218497,283414,300073.0,314505,337211,333351.0,273634.0,208624,182140,167055.0,142787.0
5714,16552,US,96098,40.16,-85.72,Census,US County,IN,"Madison County, Indiana",0,0,0,0,2238,8874,12375,16518,22770,27527,36487,70470,65224,69151,82888.0,88575,103911,125819.0,138451.0,139336,130669,133358.0,131636.0
5733,4846,US,13713942,39.1213888889,-86.8869444444,Census,Township,IN,"Highland Township, Greene County, Indiana",0,0,0,0,0,0,0,0,0,0,0,0,0,0,0.0,0,0,0.0,0.0,0,0,655.0,718.0
5776,9160,US,112344,39.8083333333,-85.2902777778,Census,Town,IN,"Straughn, Indiana",0,0,0,0,0,0,0,0,0,143,200,186,234,261,212.0,275,345,349.0,329.0,331,318,263.0,222.0
5784,114478,US,96144,40.47,-85.32,Census,US County,IN,"Blackford County, Indiana",0,0,0,0,0,1226,2860,4122,6272,8020,10461,17213,15820,14084,13617.0,13783,14026,14792.0,15888.0,15570,14067,14048.0,12766.0
5860,11812,US,112686,39.9544444444,-84.92,Census,Town,IN,"Fountain City, Indiana",0,0,0,0,0,0,0,0,0,471,492,455,448,375,480.0,491,588,833.0,852.0,839,766,735.0,796.0
5873,20428,US,96127,38.32,-85.9,Census,US County,IN,"Floyd County, Indiana",0,0,0,2776,6361,9454,14875,20183,23300,24590,29458,30118,30293,30661,34655.0,35061,43955,51397.0,55622.0,61169,64404,70823.0,74578.0
5893,9972,US,112591,38.0136111111,-87.0355555556,Census,Town,IN,"Chrisney, Indiana",0,0,0,0,0,0,0,0,0,0,0,513,524,495,414.0,437,439,380.0,550.0,537,511,544.0,481.0
5909,17440,US,96067,41.64,-85.0,Census,US County,IN,"Steuben County, Indiana",0,0,0,0,0,2578,6104,10374,12854,14645,14478,15219,14274,13360,13386.0,13740,17087,17184.0,20159.0,24694,27446,33214.0,34185.0
5918,13630,US,96062,39.62,-84.92,Census,US County,IN,"Union County, Indiana",0,0,0,0,7944,8017,6944,7109,6341,7673,7006,6748,6260,6021,5880.0,6017,6412,6457.0,6582.0,6860,6976,7349.0,7516.0
5946,8893,US,152181,39.8672222222,-86.1638888889,Census,Town,IN,"North Crows Nest, Indiana",0,0,0,0,0,0,0,0,0,0,0,0,0,0,0.0,0,46,60.0,50.0,82,57,42.0,45.0
5949,17456,US,112359,38.9563888889,-85.89,Census,City,IN,"Seymour, Indiana",0,0,0,0,0,0,0,966,2372,4250,5337,6445,6305,7348,7508.0,8620,9629,11629.0,13352.0,15050,15576,18101.0,17503.0
5995,10050,US,112566,39.8572222222,-86.9833333333,Census,Town,IN,"Russellville, Indiana",0,0,0,0,0,0,0,0,0,157,327,298,443,463,411.0,380,361,372.0,390.0,376,336,340.0,358.0
5998,15224,US,112518,41.4641666667,-85.5913888889,Census,City,IN,"Ligonier, Indiana",0,0,0,0,0,0,0,0,1514,2010,2195,2231,2173,2037,2064.0,2178,2375,2595.0,3034.0,3134,3443,4357.0,4405.0
6011,10771,US,112481,40.6027777778,-85.9286111111,Census,Town,IN,"Amboy, Indiana",0,0,0,0,0,0,0,0,0,208,402,402,521,460,431.0,450,414,446.0,473.0,450,370,360.0,384.0
6055,9654,US,112242,39.6261111111,-85.3005555556,Census,Town,IN,"Glenwood, Indiana",0,0,0,0,0,0,0,0,0,216,0,0,266,324,374.0,338,412,382.0,452.0,370,285,318.0,250.0
6122,16551,US,96083,38.08,-86.64,Census,US County,IN,"Perry County, Indiana",0,0,0,2330,3369,4655,7268,11847,14801,16997,18240,18778,18078,16692,16625.0,17770,17367,17232.0,19075.0,19346,19107,18899.0,19338.0
6231,11069,US,112223,40.3136111111,-85.5008333333,Census,Town,IN,"Gaston, Indiana",0,0,0,0,0,0,0,0,0,0,0,0,638,541,654.0,677,729,801.0,928.0,1150,979,1010.0,871.0
6309,18101,US,57773,39.4,-87.11,Census,US County,IN,"Clay County, Indiana",0,0,0,0,1616,5567,7944,12161,19084,25854,30536,34285,32535,29447,26479.0,25365,23918,24207.0,23933.0,24862,24705,26556.0,26890.0
6343,11143,US,112136,39.9966666667,-86.6191666667,Census,Town,IN,"Advance, Indiana",0,0,0,0,0,0,0,0,0,0,0,0,416,417,358.0,365,413,463.0,561.0,559,520,562.0,477.0
6350,15525,US,112240,41.5344444444,-86.0161111111,Census,Town,IN,"Wakarusa, Indiana",0,0,0,0,0,0,0,0,245,377,0,917,859,816,973.0,1033,1143,1145.0,1160.0,1281,1667,1618.0,1758.0
6365,9844,US,112476,41.4577777778,-86.3088888889,Census,Town,IN,"La Paz, Indiana",0,0,0,0,0,0,0,0,0,84,0,0,263,274,375.0,429,512,545.0,604.0,651,562,489.0,561.0
6376,10182,US,112187,38.8766666667,-87.085,Census,Town,IN,"Elnora, Indiana",0,0,0,0,0,0,0,0,0,0,0,908,961,865,856.0,799,849,824.0,873.0,756,679,721.0,640.0
6467,12302,US,112533,37.91,-86.74,Census,City,IN,"Cannelton, Indiana",0,0,0,0,0,0,0,2155,2481,1834,1991,2188,2130,2008,2265.0,2240,2027,1829.0,2280.0,2373,1786,1209.0,1563.0
6476,12241,US,112254,39.9872222222,-87.1480555556,Census,Town,IN,"Wallace, Indiana",0,0,0,0,0,0,0,0,0,0,0,0,116,111,128.0,123,123,122.0,136.0,88,89,100.0,105.0
6522,13036,US,112126,40.49,-87.5161111111,Census,Town,IN,"Ambia, Indiana",0,0,0,0,0,0,0,0,0,253,293,438,359,459,433.0,603,356,351.0,300.0,274,249,197.0,239.0
6560,12281,US,112502,39.5413888889,-86.37,Census,Town,IN,"Brooklyn, Indiana",0,0,0,0,0,0,0,0,0,244,0,0,572,528,545.0,485,592,866.0,911.0,888,1162,1545.0,1598.0
6616,12024,US,112490,39.9836111111,-87.055,Census,Town,IN,"Alamo, Indiana",0,0,0,0,0,0,0,0,0,220,272,241,209,167,163.0,155,163,144.0,145.0,178,112,137.0,66.0
6636,14525,US,96118,39.82,-85.77,Census,US County,IN,"Hancock County, Indiana",0,0,0,0,1436,7535,9698,12802,15123,17123,17829,19189,19030,17210,16605.0,17302,20332,26665.0,35096.0,43939,45527,55391.0,70002.0
6646,10516,US,112687,39.8913888889,-85.0422222222,Census,Town,IN,"Greens Fork, Indiana",0,0,0,0,0,0,0,0,0,0,0,0,0,380,333.0,413,413,474.0,444.0,426,416,371.0,423.0
6696,9873,US,152200,39.9013888889,-86.1494444444,Census,Town,IN,"Williams Creek, Indiana",0,0,0,0,0,0,0,0,0,0,0,0,0,0,0.0,119,288,454.0,485.0,427,425,413.0,407.0
6697,26939,US,112159,38.2955555556,-85.7313888889,Census,City,IN,"Jeffersonville, Indiana",0,0,0,0,0,0,2122,4020,7254,9357,10666,10774,10412,10098,11946.0,11493,14685,19522.0,20008.0,21220,21841,27362.0,44953.0
6727,23589,US,96120,,,Census,US County,IN,"Hamilton County, Indiana",0,0,0,0,0,0,0,0,0,0,26123,29914,27026,24222,23444.0,24614,28491,40132.0,54532.0,82027,108936,182740.0,274569.0
6832,12952,US,33564332,39.6688888889,-86.13,Census,Town,IN,"Homecroft, Indiana",0,0,0,0,0,0,0,0,0,0,0,0,0,0,0.0,0,659,959.0,964.0,831,758,751.0,722.0
6984,12809,US,112312,38.2877777778,-86.0658333333,Census,Town,IN,"Crandall, Indiana",0,0,0,0,0,0,0,0,0,0,0,137,133,133,132.0,146,149,166.0,188.0,176,147,131.0,152.0
7023,78579,US,96057,40.35,-87.36,Census,US County,IN,"Warren County, Indiana",0,0,0,0,2861,5656,7387,10057,10204,11497,10955,11371,10899,9699,9167.0,9055,8535,8545.0,8705.0,8976,8176,8419.0,8508.0
7041,10505,US,112366,40.5341666667,-84.9641666667,Census,Town,IN,"Bryant, Indiana",0,0,0,0,0,0,0,0,0,189,0,384,469,428,319.0,332,339,316.0,320.0,277,273,272.0,252.0
7060,10909,US,112621,39.2533333333,-87.3813888889,Census,Town,IN,"Farmersburg, Indiana",0,0,0,0,0,0,0,0,0,237,301,625,1115,1141,993.0,1005,1024,1027.0,962.0,1240,1159,1180.0,1118.0
7082,9199,US,112170,39.5352777778,-87.0738888889,Census,Town,IN,"Harmony, Indiana",0,0,0,0,0,0,0,0,597,838,1020,0,0,0,0.0,0,0,0.0,0.0,613,645,589.0,656.0
7121,15360,US,96070,38.01,-87.01,Census,US County,IN,"Spencer County, Indiana",0,0,0,1882,3196,6305,8616,14556,17998,22122,22060,22407,20676,18400,16713.0,16211,16174,16074.0,17134.0,19361,19490,20391.0,20952.0
7183,24173,US,96089,40.95,-87.4,Census,County,IN,"Newton County, Indiana",0,0,0,0,0,0,0,2360,5829,8167,8803,10448,10504,10144,9841.0,10775,11006,11502.0,11606.0,14844,13551,14566.0,14244.0
7219,14301,US,112235,41.6738888889,-85.7094444444,Census,Town,IN,"Middlebury, Indiana",0,0,0,0,0,0,0,0,0,502,542,572,600,599,656.0,722,839,917.0,1055.0,1665,2004,2956.0,3420.0
7223,9966,US,112696,40.8294444444,-85.2425,Census,Town,IN,"Uniondale, Indiana",0,0,0,0,0,0,0,0,0,0,0,0,189,257,226.0,301,293,311.0,349.0,303,289,277.0,310.0
7309,10043,US,112188,38.6633333333,-87.0472222222,Census,Town,IN,"Montgomery, Indiana",0,0,0,0,0,0,0,0,135,155,415,616,511,576,445.0,510,538,446.0,411.0,390,351,368.0,343.0
7349,13051,US,112547,41.6261111111,-87.0716666667,Census,Town,IN,"Porter, Indiana",0,0,0,0,0,0,0,0,0,224,0,0,524,699,805.0,1190,1458,2189.0,3058.0,2988,3118,4972.0,4858.0
7401,35522,US,96129,,,Census,US County,IN,"Elkhart County, Indiana",0,0,0,0,0,935,12690,20986,26026,33454,39201,45052,49008,56384,68875.0,72634,84512,106790.0,126529.0,137330,156198,182791.0,197559.0
7404,10089,US,112679,38.6641666667,-86.2897222222,Census,Town,IN,"Saltillo, Indiana",0,0,0,0,0,0,0,0,0,0,0,207,162,127,160.0,125,122,121.0,134.0,134,117,107.0,92.0
7521,8909,US,112691,39.8472222222,-84.8905555556,Census,Town,IN,"Spring Grove, Indiana",0,0,0,0,0,0,0,0,0,0,99,113,122,76,191.0,237,333,471.0,437.0,469,420,386.0,344.0
7533,18696,US,96146,39.21,-85.9,Census,US County,IN,"Bartholomew County, Indiana",0,0,0,0,5476,10042,12428,17865,21133,22777,23867,24594,24813,23887,24864.0,28276,36108,48198.0,57022.0,65088,63657,71435.0,76794.0
7560,9429,US,112251,40.1638888889,-87.1480555556,Census,Town,IN,"Mellott, Indiana",0,0,0,0,0,0,0,0,0,0,0,0,372,340,312.0,302,266,312.0,325.0,294,222,207.0,197.0
7630,19386,US,112301,40.1338888889,-86.22,Census,Town,IN,"Sheridan, Indiana",0,0,0,0,0,0,0,0,0,308,1134,1795,1768,1761,1763.0,1720,1965,2165.0,2137.0,2200,2046,2520.0,2665.0
7671,9685,US,112569,40.0475,-84.9422222222,Census,Town,IN,"Lynn, Indiana",0,0,0,0,0,0,0,0,0,239,518,705,917,808,936.0,1014,1149,1260.0,1360.0,1250,1183,1143.0,1097.0
7676,16531,US,112595,37.8836111111,-87.0530555556,Census,City,IN,"Rockport, Indiana",0,0,0,0,0,0,412,834,1720,2382,2314,2882,2736,2581,2396.0,2421,2493,2474.0,2565.0,2590,2315,2160.0,2270.0
7682,12892,US,112526,39.2869444444,-86.7641666667,Census,Town,IN,"Spencer, Indiana",0,0,0,0,0,0,335,0,971,1655,1868,2026,2150,2066,2179.0,2375,2394,2557.0,2553.0,2732,2609,2508.0,2217.0
7713,12966,US,112383,39.5494444444,-86.0861111111,Census,Town,IN,"Whiteland, Indiana",0,0,0,0,0,0,0,0,0,230,212,334,343,388,419.0,403,465,1368.0,1492.0,1956,2446,3958.0,4169.0
7733,9717,US,112184,38.3425,-86.2736111111,Census,Town,IN,"Milltown, Indiana",0,0,0,0,0,0,0,0,87,106,0,0,586,615,795.0,760,760,793.0,829.0,1006,917,932.0,818.0
7834,27603,US,57251,40.75,-84.94,Census,US County,IN,"Adams County, Indiana",0,0,0,0,0,2264,5797,9252,11382,15385,20181,22232,21840,20503,19957.0,21254,22393,24643.0,26871.0,29619,31095,33625.0,34387.0
7996,28441,US,112436,41.7094444444,-86.8869444444,Census,City,IN,"Michigan City, Indiana",0,0,0,0,0,0,999,3320,3985,7366,10773,14850,19027,19457,26735.0,26476,28395,36653.0,39369.0,36850,33822,32900.0,31479.0
7999,36946,US,112550,41.4761111111,-87.0569444444,Census,City,IN,"Valparaiso, Indiana",0,0,0,0,0,0,522,1698,2765,4461,5090,6280,6987,6518,8079.0,8736,12028,15227.0,20020.0,22247,24414,27428.0,31730.0
8017,11195,US,112183,38.3705555556,-86.3433333333,Census,Town,IN,"Marengo, Indiana",0,0,0,0,0,0,0,0,0,0,669,700,686,747,806.0,812,801,803.0,767.0,892,856,829.0,828.0
8025,10182,US,112350,40.8608333333,-85.6008333333,Census,Town,IN,"Andrews, Indiana",0,0,0,0,0,0,0,0,449,454,1390,746,957,1071,883.0,954,1083,1132.0,1207.0,1243,1118,1290.0,1149.0
8065,21452,US,112416,41.5497222222,-87.4580555556,Census,Town,IN,"Highland, Lake County, Indiana",0,0,0,0,0,0,0,0,0,0,0,0,304,542,1553.0,2723,5878,16284.0,24947.0,25935,23696,23546.0,23727.0
8110,25640,US,96059,39.43,-87.39,Census,US County,IN,"Vigo County, Indiana",0,0,0,3390,5766,12076,15289,22517,33549,45658,50195,62035,87930,100212,98861.0,99709,105160,108458.0,114528.0,112385,106107,105848.0,107848.0
8151,10314,US,112452,40.2716666667,-85.7241666667,Census,Town,IN,"Orestes, Indiana",0,0,0,0,0,0,0,0,0,0,0,778,420,395,357.0,412,482,507.0,519.0,539,458,334.0,414.0
8155,13374,US,112517,41.4416666667,-85.2605555556,Census,City,IN,"Kendallville, Indiana",0,0,0,0,0,0,0,0,2164,2373,2960,3354,4981,5273,5439.0,5431,6119,6765.0,6838.0,7299,7773,9616.0,9862.0
8166,102145,US,112607,41.6725,-86.2552777778,Census,City,IN,"South Bend, Indiana",0,0,0,0,0,0,1652,3832,7206,13280,21819,35999,53684,70983,104193.0,101268,115911,132445.0,125850.0,109727,105511,107789.0,101166.0
8172,9589,US,112292,38.9238888889,-87.0188888889,Census,Town,IN,"Newberry, Indiana",0,0,0,0,0,0,0,0,0,329,0,0,455,439,306.0,360,340,256.0,295.0,246,207,206.0,193.0
8218,12522,US,112603,41.7041666667,-86.5047222222,Census,Town,IN,"New Carlisle, Indiana",0,0,0,0,0,0,0,0,0,530,607,597,612,609,718.0,747,983,1376.0,1434.0,1439,1446,1505.0,1861.0
8269,14286,US,112520,38.95,-84.8566666667,Census,City,IN,"Rising Sun, Indiana",0,0,0,0,0,0,1674,1733,1760,1806,1689,1548,1513,1411,1379.0,1545,1930,2230.0,2305.0,2478,2311,2470.0,2304.0
8346,9373,US,112343,40.0469444444,-85.3927777778,Census,Town,IN,"Springport, Indiana",0,0,0,0,0,0,0,0,0,118,0,0,0,139,183.0,189,217,253.0,236.0,221,194,174.0,149.0
8348,23794,US,6071690,,,Census,Region,IN,Northern Indiana,0,0,0,0,0,0,0,0,0,0,524581,597433,687867,809770,1015942.0,1085251,1297939,1621357.0,1802562.0,1891741,1901209,2062933.0,2147765.0
8402,5045,US,13713929,39.0419444444,-87.0041666667,Census,Township,IN,"Fairplay Township, Greene County, Indiana",0,0,0,0,0,0,0,0,0,0,0,0,0,0,0.0,0,0,0.0,0.0,0,0,666.0,575.0
8639,16672,US,112155,38.4705555556,-85.9469444444,Census,Town,IN,"Borden, Indiana",0,0,0,0,0,0,0,0,0,0,0,0,350,333,358.0,392,426,327.0,337.0,384,270,818.0,808.0
8651,13875,US,112637,40.3622222222,-85.9569444444,Census,Town,IN,"Windfall, Indiana",0,0,0,0,0,0,0,0,0,570,561,957,899,801,734.0,835,963,1135.0,946.0,911,779,712.0,708.0
8714,27194,US,96110,41.0166666667,-87.1166666667,Census,County,IN,"Jasper County, Indiana",0,0,0,0,0,1267,3540,4291,6354,9464,11185,14292,13044,13961,13388.0,14397,17031,18842.0,20429.0,26138,24960,30043.0,33478.0
8787,12079,US,112630,40.3744444444,-86.7694444444,Census,Town,IN,"Dayton, Indiana",0,0,0,0,0,0,0,0,385,376,0,0,0,0,0.0,0,0,0.0,0.0,781,996,1120.0,1420.0
8809,9344,US,112615,41.7375,-84.8333333333,Census,Town,IN,"Clear Lake, Indiana",0,0,0,0,0,0,0,0,0,0,0,0,0,0,0.0,65,151,147.0,271.0,301,272,244.0,339.0
8823,31648,US,112433,41.6091666667,-86.7175,Census,City,IN,"La Porte, Indiana",0,0,0,0,0,0,1824,5028,6581,6195,7126,7113,10525,15158,15755.0,16180,17882,21157.0,22140.0,21796,21507,21621.0,22053.0
8831,10323,US,112337,39.8072222222,-85.3516666667,Census,Town,IN,"Lewisville, Indiana",0,0,0,0,0,0,193,0,416,446,420,404,446,460,442.0,531,591,592.0,530.0,577,437,395.0,366.0
8853,18719,US,112346,40.4786111111,-85.9647222222,Census,Town,IN,"Greentown, Indiana",0,0,0,0,0,0,0,0,0,236,731,1287,1156,1163,1081.0,1080,1180,1266.0,1870.0,2265,2172,2546.0,2415.0
8903,7491,US,112420,41.4077777778,-87.2180555556,Census,Census-designated place,IN,"Lakes of the Four Seasons, Indiana",0,0,0,0,0,0,0,0,0,0,0,0,0,0,0.0,0,0,0.0,0.0,0,6556,7291.0,7033.0
9160,5145,US,13713946,38.9505555556,-86.7558333333,Census,Township,IN,"Jackson Township, Greene County, Indiana",0,0,0,0,0,0,0,0,0,0,0,0,0,0,0.0,0,0,0.0,0.0,0,0,2076.0,1947.0
9171,16410,US,96114,39.93,-85.4,Census,US County,IN,"Henry County, Indiana",0,0,0,0,6497,15128,17605,20119,22986,24016,23879,25088,29758,34682,35238.0,40208,45505,48899.0,52603.0,53336,48139,48508.0,49462.0
9231,10956,US,112509,40.7644444444,-87.295,Census,Town,IN,"Goodland, Indiana",0,0,0,0,0,0,0,0,0,628,889,1205,1105,1120,978.0,1097,1218,1202.0,1176.0,1200,1033,1096.0,1043.0
9287,11444,US,112575,40.1730555556,-84.9775,Census,City,IN,"Winchester, Indiana",0,0,0,0,0,0,532,0,1456,1958,3014,3705,4266,4021,4487.0,5303,5467,5742.0,5493.0,5659,5095,5037.0,4935.0
9452,10719,US,112698,40.6011111111,-86.8658333333,Census,Town,IN,"Brookston, Indiana",0,0,0,0,0,0,0,0,406,561,447,949,907,815,844.0,826,1014,1202.0,1232.0,1701,1804,1717.0,1554.0
9456,42353,US,112234,41.6830555556,-85.9688888889,Census,City,IN,"Elkhart, Indiana",0,0,0,0,0,0,0,1439,3265,6953,11360,15184,19282,24277,32949.0,33434,35646,40274.0,43152.0,41305,43627,51874.0,50949.0
9503,7155,US,13770670,40.4344444444,-86.0519444444,Census,Township,IN,"Taylor Township, Howard County, Indiana",0,0,0,0,0,0,0,0,0,0,0,0,0,0,0.0,0,0,0.0,0.0,0,0,9536.0,9294.0
9577,16779,US,96054,39.86,-85.01,Census,US County,IN,"Wayne County, Indiana",0,0,0,12119,18571,23290,25320,29558,34048,38613,37628,38970,43757,48136,54809.0,59229,68566,74039.0,79109.0,76058,71951,71097.0,68917.0
9586,11408,US,112515,41.3638888889,-85.2363888889,Census,Town,IN,"Avilla, Indiana",0,0,0,0,0,0,0,0,138,446,576,658,579,537,559.0,534,669,919.0,881.0,1272,1366,2049.0,2401.0
9592,19353,US,112300,40.05,-86.0213888889,Census,City,IN,"Noblesville, Indiana",0,0,0,0,0,0,664,1115,1435,2221,3054,4792,5073,4758,4811.0,5575,6567,7664.0,7548.0,12056,17655,28590.0,51969.0
9630,17082,US,96074,39.1,-85.26,Census,US County,IN,"Ripley County, Indiana",0,0,0,1822,3989,10392,14820,19054,20977,21627,19350,19881,19452,18694,18078.0,18898,18763,20641.0,21138.0,24398,24616,26523.0,28818.0
9796,9046,US,112501,39.5333333333,-86.3766666667,Census,Town,IN,"Bethany, Indiana",0,0,0,0,0,0,0,0,0,62,0,0,0,0,0.0,0,0,119.0,121.0,127,90,94.0,81.0
9842,15656,US,112655,39.4636111111,-87.4488888889,Census,Town,IN,"West Terre Haute, Indiana",0,0,0,0,0,0,0,0,0,0,0,651,3083,4310,3588.0,3729,3357,3006.0,2704.0,2806,2495,2330.0,2236.0
9851,9611,US,112393,41.1544444444,-85.9691666667,Census,Town,IN,"Burket, Indiana",0,0,0,0,0,0,0,0,0,0,0,0,0,0,0.0,216,217,259.0,210.0,260,200,195.0,195.0
9877,10158,US,112684,39.8127777778,-85.1380555556,Census,Town,IN,"East Germantown, Indiana",0,0,0,0,0,0,0,465,536,451,338,305,302,267,291.0,305,389,367.0,447.0,438,372,243.0,410.0
9904,9600,US,112190,38.8055555556,-87.1519444444,Census,Town,IN,"Plainville, Indiana",0,0,0,0,0,0,0,0,0,91,0,0,0,0,603.0,619,568,545.0,538.0,556,444,513.0,476.0
9912,10700,US,112634,40.2875,-86.23,Census,Town,IN,"Kempton, Indiana",0,0,0,0,0,0,0,0,0,206,0,0,600,498,469.0,403,438,480.0,469.0,410,362,380.0,335.0
10027,10165,US,112669,38.1997222222,-87.3113888889,Census,Town,IN,"Lynnville, Indiana",0,0,0,0,0,0,0,0,0,304,0,0,297,412,264.0,371,404,409.0,556.0,566,640,781.0,888.0
10053,15957,US,96085,39.31,-86.84,Census,US County,IN,"Owen County, Indiana",0,0,0,838,4017,8359,12106,14376,16137,15901,15040,15149,14053,12760,11351.0,12090,11763,11400.0,12163.0,15841,17281,21786.0,21575.0
10102,16055,US,112682,39.8161111111,-84.9955555556,Census,Town,IN,"Centerville, Indiana",0,0,0,0,0,0,920,960,1077,875,864,785,1019,917,993.0,1162,1386,2378.0,2380.0,2284,2398,2427.0,2552.0
10234,12741,US,112129,40.6183333333,-87.3191666667,Census,Town,IN,"Fowler, Indiana",0,0,0,0,0,0,0,0,0,967,1285,1429,1491,1442,1564.0,1903,2117,2491.0,2643.0,2319,2333,2415.0,2317.0
10238,12158,US,112567,40.1888888889,-85.1272222222,Census,Town,IN,"Farmland, Indiana",0,0,0,0,0,0,0,0,532,661,770,870,907,878,853.0,914,943,1102.0,1262.0,1560,1412,1456.0,1333.0
10323,15797,US,96079,38.02,-87.86,Census,US County,IN,"Posey County, Indiana",0,0,0,4061,6549,9683,12549,16167,19185,20857,21529,22333,21670,19334,17853.0,19183,19818,19214.0,21740.0,26414,25968,27061.0,25910.0
10338,11134,US,112527,39.8316666667,-87.2494444444,Census,Town,IN,"Bloomingdale, Indiana",0,0,0,0,0,0,0,0,0,355,431,505,528,479,412.0,432,434,455.0,391.0,409,341,319.0,335.0
10358,11497,US,112605,41.6636111111,-86.0752777778,Census,Town,IN,"Osceola, Indiana",0,0,0,0,0,0,0,0,0,129,0,0,0,0,432.0,498,1091,1350.0,1572.0,1990,1999,1859.0,2463.0
10499,14302,US,112245,38.3727777778,-85.9886111111,Census,Town,IN,"Greenville, Indiana",0,0,0,0,0,0,0,0,0,394,313,309,227,225,257.0,285,298,453.0,611.0,537,508,591.0,595.0
10510,11946,US,112232,41.7211111111,-85.8183333333,Census,Town,IN,"Bristol, Indiana",0,0,0,0,0,0,0,0,681,661,535,546,535,568,699.0,694,738,991.0,1100.0,1203,1133,1382.0,1602.0
10539,12396,US,112284,40.5069444444,-85.8252777778,Census,Town,IN,"Swayzee, Indiana",0,0,0,0,0,0,0,0,0,0,0,1162,836,650,604.0,661,690,863.0,1073.0,1127,1059,1011.0,981.0
10616,19289,US,112539,41.6841666667,-86.9855555556,Census,Town,IN,"Beverly Shores, Indiana",0,0,0,0,0,0,0,0,0,0,0,0,0,0,0.0,0,488,773.0,946.0,864,622,708.0,613.0
10643,10686,US,112680,39.7416666667,-84.8511111111,Census,Town,IN,"Boston, Indiana",0,0,0,0,0,0,0,0,0,137,146,134,122,190,184.0,182,257,240.0,210.0,189,159,177.0,138.0
10669,45950,US,112631,40.4172222222,-86.8786111111,Census,City,IN,"Lafayette, Indiana",0,0,0,0,0,0,6129,9387,13506,14860,16243,18116,20081,22486,26240.0,28798,35558,42330.0,44955.0,43011,43764,56397.0,67140.0
10695,16078,US,112677,38.5036111111,-86.0147222222,Census,Town,IN,"New Pekin, Indiana",0,0,0,0,0,0,0,0,0,0,0,0,246,356,383.0,434,543,661.0,912.0,1125,1095,1334.0,1401.0
10785,13475,US,112681,39.8130555556,-85.1708333333,Census,Town,IN,"Cambridge City, Indiana",0,0,0,0,0,0,1217,1622,2162,2370,1782,1754,2237,1963,2113.0,2207,2559,2569.0,2481.0,2407,2091,2121.0,1870.0
10878,10990,US,112648,39.885,-87.4063888889,Census,Town,IN,"Newport, Indiana",0,0,0,0,0,0,328,287,398,591,551,610,732,703,777.0,795,660,627.0,708.0,704,627,578.0,515.0
10892,19116,US,96130,38.36,-86.88,Census,US County,IN,"Dubois County, Indiana",0,0,0,1168,1778,3632,6321,10394,12597,15992,20253,20357,19843,19915,20553.0,22579,23785,27463.0,30934.0,34238,36616,39674.0,41889.0
10959,10244,US,112556,40.9858333333,-86.8838888889,Census,Town,IN,"Francesville, Indiana",0,0,0,0,0,0,0,189,281,368,403,596,729,648,712.0,804,856,1002.0,1015.0,944,969,905.0,879.0
10984,10384,US,112639,39.5694444444,-84.8175,Census,Town,IN,"West College Corner, Indiana",0,0,0,0,0,0,0,0,0,0,290,392,432,439,437.0,454,513,613.0,709.0,614,686,634.0,676.0
11045,12916,US,3551570,41.1980555556,-87.1991666667,Census,Town,IN,"DeMotte, Indiana",0,0,0,0,0,0,0,0,0,0,0,0,0,0,0.0,0,0,0.0,1697.0,2559,2482,3234.0,3814.0
11086,23332,US,112378,39.4897222222,-86.0566666667,Census,City,IN,"Franklin, Indiana",0,0,0,0,0,0,882,2367,2707,3110,3781,4005,4502,4909,5682.0,6264,7316,9453.0,11477.0,11563,12907,19463.0,23712.0
11092,8089,US,112454,40.1094444444,-85.7294444444,Census,Town,IN,"River Forest, Indiana",0,0,0,0,0,0,0,0,0,0,0,0,0,0,0.0,0,0,23.0,27.0,29,16,28.0,22.0
11098,9437,US,112549,41.6886111111,-86.9463888889,Census,Town,IN,"Town of Pines, Indiana",0,0,0,0,0,0,0,0,0,0,0,0,0,0,0.0,0,0,939.0,1007.0,962,789,798.0,708.0
11104,9022,US,112426,41.1883333333,-87.4483333333,Census,Town,IN,"Schneider, Indiana",0,0,0,0,0,0,0,0,0,0,0,0,0,258,264.0,283,356,405.0,426.0,364,310,317.0,277.0
11118,16286,US,96143,40.05,-86.47,Census,US County,IN,"Boone County, Indiana",0,0,0,0,621,8121,11631,16753,22593,25922,26572,26321,24673,23575,22290.0,22081,23993,27543.0,30870.0,36446,38147,46107.0,56640.0
11131,10291,US,112409,41.5255555556,-85.3661111111,Census,Town,IN,"Wolcottville, Indiana",0,0,0,0,0,0,0,0,0,428,0,659,627,666,646.0,612,672,720.0,915.0,890,879,933.0,998.0
11142,12561,US,112474,41.2172222222,-86.4216666667,Census,Town,IN,"Culver, Indiana",0,0,0,0,0,0,0,0,0,0,0,505,810,1080,1502.0,1605,1563,1558.0,1783.0,1601,1404,1539.0,1353.0
11152,12713,US,112543,41.3216666667,-87.2016666667,Census,Town,IN,"Hebron, Indiana",0,0,0,0,0,0,0,0,0,715,689,794,821,832,693.0,949,1010,1401.0,1624.0,2696,3183,3596.0,3724.0
11247,13299,US,112542,41.6463888889,-87.085,Census,Town,IN,"Dune Acres, Indiana",0,0,0,0,0,0,0,0,0,0,0,0,0,0,12.0,46,86,238.0,301.0,291,263,213.0,182.0
11403,10906,US,112153,40.8638888889,-86.4997222222,Census,Town,IN,"Royal Center, Indiana",0,0,0,0,0,0,0,0,306,399,527,657,909,900,777.0,865,876,966.0,987.0,908,859,832.0,861.0
11408,9299,US,112507,39.395,-86.5616666667,Census,Town,IN,"Paragon, Indiana",0,0,0,0,0,0,0,0,0,306,0,413,409,444,366.0,454,463,560.0,538.0,538,515,663.0,659.0
11440,11458,US,112295,40.1755555556,-86.0197222222,Census,Town,IN,"Arcadia, Indiana",0,0,0,0,0,0,0,0,0,433,670,1413,990,1060,912.0,968,1073,1271.0,1338.0,1801,1468,1747.0,1666.0
11519,14310,US,96053,40.73,-85.22,Census,US County,IN,"Wells County, Indiana",0,0,0,0,0,1822,6152,10844,13585,18442,21514,23449,22418,20509,18411.0,19099,19564,21220.0,23821.0,25401,25948,27600.0,27636.0
11614,12298,US,112705,40.75,-86.8736111111,Census,Town,IN,"Reynolds, Indiana",0,0,0,0,0,0,0,15,306,370,348,398,377,379,362.0,408,499,547.0,641.0,632,528,547.0,533.0
11630,14334,US,112316,38.0236111111,-86.2019444444,Census,Town,IN,"Mauckport, Indiana",0,0,0,0,0,0,0,0,0,278,272,290,279,239,203.0,154,154,107.0,119.0,109,95,83.0,81.0
11680,33733,US,112491,40.0388888889,-86.8966666667,Census,City,IN,"Crawfordsville, Indiana",0,0,0,0,0,1327,1513,1922,3701,5251,6089,6649,9371,10139,10355.0,11089,12851,14231.0,13842.0,13325,13584,15243.0,15915.0
11698,10751,US,112660,40.9111111111,-85.9236111111,Census,Town,IN,"Roann, Indiana",0,0,0,0,0,0,0,0,0,350,582,631,447,414,395.0,429,492,478.0,509.0,548,447,400.0,479.0
11714,65701,US,12650,41.5955555556,-87.3452777778,Census,City,IN,"Gary, Indiana",0,0,0,0,0,0,0,0,0,0,0,0,16802,55378,100666.0,111719,133911,178320.0,175415.0,151968,116646,102746.0,80294.0
11741,16047,US,112191,38.6583333333,-87.175,Census,City,IN,"Washington, Indiana",0,0,0,0,0,0,0,0,2901,4323,6064,8551,7854,8743,9070.0,9312,10987,10846.0,11358.0,11325,10838,11380.0,11509.0
11753,14307,US,112524,38.5669444444,-86.6116666667,Census,Town,IN,"West Baden Springs, Indiana",0,0,0,0,0,0,0,0,0,0,0,0,746,832,1174.0,949,1047,879.0,930.0,796,675,618.0,574.0
11767,10677,US,112506,39.3736111111,-86.2605555556,Census,Town,IN,"Morgantown, Indiana",0,0,0,0,0,0,230,0,0,509,0,0,667,831,748.0,724,838,971.0,1134.0,897,978,964.0,986.0
11768,20571,US,112553,37.9366666667,-87.8988888889,Census,City,IN,"Mount Vernon, Indiana",0,0,0,0,0,0,1120,1994,2880,3730,4705,5132,5563,5284,5035.0,5638,6150,5970.0,6770.0,7656,7217,7478.0,6687.0
11786,10159,US,112619,38.9622222222,-87.4005555556,Census,Town,IN,"Carlisle, Indiana",0,0,0,0,0,0,0,459,499,489,503,699,850,973,852.0,874,767,755.0,714.0,717,613,2660.0,692.0
11792,16946,US,112325,39.7608333333,-86.5177777778,Census,Town,IN,"Danville, Indiana",0,0,0,0,0,0,386,895,1040,1598,1569,1802,1640,1729,1930.0,2093,2802,3287.0,3771.0,4220,4345,6418.0,9001.0
11827,9904,US,112617,41.5325,-85.0816666667,Census,Town,IN,"Hudson, Indiana",0,0,0,0,0,0,0,0,0,316,0,558,390,385,431.0,437,420,428.0,464.0,447,438,596.0,518.0
11828,13086,US,112531,39.7652777778,-87.2288888889,Census,Town,IN,"Rockville, Indiana",0,0,0,0,0,0,726,728,1187,1684,1689,2045,1943,1908,1832.0,2208,2467,2756.0,2820.0,2785,2706,2765.0,2607.0
11840,52612,US,96080,41.85,-87.1166666667,Census,County,IN,"Porter County, Indiana",0,0,0,0,0,2162,5234,10313,13942,17227,18052,19175,20540,20256,22821.0,27836,40076,60279.0,87114.0,119816,128932,146798.0,164343.0
11890,10755,US,112608,41.4638888889,-86.4844444444,Census,Town,IN,"Walkerton, Indiana",0,0,0,0,0,0,0,0,0,754,885,1037,1003,1031,1137.0,1178,2102,2044.0,2006.0,2051,2061,2274.0,2144.0
11995,11257,US,112593,38.1088888889,-87.0302777778,Census,Town,IN,"Gentryville, Indiana",0,0,0,0,0,0,0,0,0,0,0,464,383,291,271.0,258,234,297.0,281.0,299,277,262.0,268.0
12001,9930,US,112333,39.8030555556,-85.4369444444,Census,Town,IN,"Dunreith, Indiana",0,0,0,0,0,0,0,0,0,149,168,205,181,184,160.0,187,196,236.0,200.0,184,205,184.0,177.0
12100,10334,US,112552,38.2044444444,-87.915,Census,Town,IN,"Griffin, Indiana",0,0,0,0,0,0,0,0,0,0,0,0,275,341,208.0,386,249,212.0,178.0,192,171,160.0,172.0
12124,10807,US,112225,40.1911111111,-85.2725,Census,Town,IN,"Selma, Indiana",0,0,0,0,0,0,0,0,0,244,0,0,350,318,344.0,424,499,562.0,890.0,1056,800,880.0,866.0
12187,14003,US,112304,39.9347222222,-85.8472222222,Census,Town,IN,"Fortville, Indiana",0,0,0,0,0,0,0,0,387,634,685,1006,1174,1213,1289.0,1463,1786,2209.0,2460.0,2787,2690,3444.0,3929.0
12225,12248,US,112163,38.3869444444,-85.7575,Census,Town,IN,"Sellersburg, Indiana",0,0,0,0,0,0,0,0,0,169,508,761,676,915,1050.0,1121,1664,2679.0,3177.0,3211,5745,6071.0,6128.0
12264,10951,US,112565,39.8502777778,-86.8002777778,Census,Town,IN,"Roachdale, Indiana",0,0,0,0,0,0,0,0,0,86,428,942,849,876,631.0,736,918,927.0,1004.0,958,902,975.0,926.0
12274,11320,US,112303,39.7836111111,-85.9522222222,Census,Town,IN,"Cumberland, Indiana",0,0,0,0,0,0,0,0,0,299,0,0,0,0,0.0,0,0,872.0,1478.0,3375,4557,5500.0,5169.0
12286,9339,US,112168,39.4158333333,-87.0766666667,Census,Town,IN,"Center Point, Indiana",0,0,0,0,0,0,0,0,226,295,517,600,414,371,372.0,332,297,268.0,275.0,242,278,292.0,242.0
12324,10321,US,112594,37.9355555556,-86.9847222222,Census,Town,IN,"Grandview, Indiana",0,0,0,0,0,0,0,0,0,686,694,822,735,689,588.0,607,664,599.0,696.0,670,761,696.0,749.0
12352,9919,US,152187,39.7808333333,-86.0522222222,Census,Town,IN,"Warren Park, Indiana",0,0,0,0,0,0,0,0,0,0,0,0,0,0,164.0,237,336,852.0,1887.0,1803,1763,1656.0,1480.0
12375,10837,US,112402,41.0725,-85.8905555556,Census,Town,IN,"Silver Lake, Indiana",0,0,0,0,0,0,0,0,0,534,570,504,493,452,442.0,471,472,514.0,588.0,576,528,546.0,915.0
12417,9794,US,112172,39.4872222222,-87.1883333333,Census,Town,IN,"Staunton, Indiana",0,0,0,0,0,0,0,0,589,581,549,693,746,642,482.0,387,487,490.0,582.0,607,592,550.0,534.0
12432,29976,US,9138832,40.7536111111,-86.3605555556,Census,City,IN,"Logansport, Indiana",0,0,0,0,0,0,2251,2979,8950,11198,13328,16204,19050,21626,18508.0,20177,21031,21106.0,19255.0,17899,16812,19684.0,18396.0
12464,12329,US,112212,41.4302777778,-84.8719444444,Census,City,IN,"Butler, Indiana",0,0,0,0,0,0,0,0,0,1056,2521,2063,1818,1745,1643.0,1794,1914,2176.0,2394.0,2509,2601,2725.0,2684.0
12471,9682,US,112269,38.2530555556,-87.3919444444,Census,Town,IN,"Mackey, Indiana",0,0,0,0,0,0,0,0,0,0,0,0,0,0,0.0,0,0,98.0,121.0,165,89,142.0,106.0
12577,9686,US,112275,38.2780555556,-87.3775,Census,Town,IN,"Somerville, Indiana",0,0,0,0,0,0,0,0,0,0,0,0,0,0,273.0,373,353,317.0,313.0,340,223,312.0,293.0
12595,21488,US,112645,39.66,-87.4058333333,Census,City,IN,"Clinton, Indiana",0,0,0,0,0,0,321,307,564,965,1365,2918,6229,10962,7936.0,7092,6462,5843.0,5340.0,5267,5040,5126.0,4893.0
12656,9202,US,112478,38.8927777778,-86.9013888889,Census,Town,IN,"Crane, Indiana",0,0,0,0,0,0,0,0,0,0,0,0,0,0,0.0,0,0,0.0,339.0,297,216,203.0,184.0
12674,10614,US,112268,38.4888888889,-87.5416666667,Census,Town,IN,"Hazleton, Indiana",0,0,0,0,0,0,0,0,356,618,608,758,648,605,507.0,516,498,507.0,416.0,368,357,288.0,263.0
12695,13481,US,112664,40.2705555556,-87.3858333333,Census,Town,IN,"West Lebanon, Indiana",0,0,0,0,0,0,0,0,0,665,644,688,642,637,595.0,581,642,720.0,899.0,946,760,793.0,723.0
12727,11542,US,112495,39.9519444444,-86.9208333333,Census,Town,IN,"New Market, Indiana",0,0,0,0,0,0,0,0,0,119,0,0,334,403,330.0,323,370,578.0,640.0,608,614,659.0,636.0
12739,11164,US,112581,39.1291666667,-85.2919444444,Census,Town,IN,"Osgood, Indiana",0,0,0,0,0,0,0,0,0,758,841,1035,1169,1093,1173.0,1198,1228,1434.0,1346.0,1554,1688,1669.0,1624.0
12749,10398,US,112289,39.1613888889,-87.2011111111,Census,City,IN,"Jasonville, Indiana",0,0,0,0,0,0,0,0,0,69,0,0,3295,4461,3536.0,3418,2937,2436.0,2335.0,2497,2200,2490.0,2222.0
12753,9657,US,112340,40.0038888889,-85.3855555556,Census,Town,IN,"Mount Summit, Indiana",0,0,0,0,0,0,0,0,108,200,231,0,193,274,274.0,265,295,424.0,395.0,357,238,313.0,352.0
12804,10863,US,112278,40.4880555556,-85.6055555556,Census,City,IN,"Gas City, Indiana",0,0,0,0,0,0,0,0,0,145,145,3622,3224,2870,3087.0,3488,3787,4469.0,5742.0,6370,6296,5940.0,5965.0
12859,9642,US,112446,40.1022222222,-85.7355555556,Census,Town,IN,"Edgewood, Indiana",0,0,0,0,0,0,0,0,0,0,0,0,0,0,0.0,229,796,2119.0,2326.0,2215,2057,1988.0,1913.0
12882,10376,US,112706,40.7588888889,-87.0422222222,Census,Town,IN,"Wolcott, Indiana",0,0,0,0,0,0,0,146,109,239,246,825,873,868,747.0,736,778,877.0,894.0,923,886,989.0,1001.0
12892,13374,US,112521,38.5469444444,-86.6188888889,Census,Town,IN,"French Lick, Indiana",0,0,0,0,0,0,0,0,0,0,0,260,1803,1980,2462.0,2042,1946,1954.0,2059.0,2265,2087,1941.0,1807.0
12914,10463,US,112558,41.1575,-86.4827777778,Census,Town,IN,"Monterey, Indiana",0,0,0,0,0,0,0,0,210,144,226,261,260,304,283.0,288,250,278.0,268.0,236,230,231.0,218.0
12956,9094,US,112148,40.6680555556,-86.7236111111,Census,Town,IN,"Yeoman, Indiana",0,0,0,0,0,0,0,0,0,0,0,0,0,0,160.0,160,180,172.0,145.0,154,131,96.0,139.0
12999,38915,US,112391,38.6783333333,-87.5161111111,Census,City,IN,"Vincennes, Indiana",0,0,0,0,0,0,2070,3960,5440,7680,8853,10249,14895,17160,17564.0,18228,18831,18046.0,19867.0,20857,19859,18701.0,18423.0
13078,11541,US,112555,38.1691666667,-87.7836111111,Census,Town,IN,"Poseyville, Indiana",0,0,0,0,0,0,0,0,213,0,571,628,780,881,810.0,948,1005,997.0,1035.0,1247,1089,1187.0,1045.0
13082,11004,US,112327,39.8594444444,-86.6458333333,Census,Town,IN,"North Salem, Indiana",0,0,0,0,0,0,0,160,261,358,505,599,569,595,466.0,511,544,626.0,601.0,581,499,591.0,518.0
13088,117405,US,11232,41.0805555556,-85.1391666667,Census,City,IN,"Fort Wayne, Indiana",0,0,0,0,0,0,4282,10388,17718,26880,35393,45115,63933,86549,114946.0,118410,133607,161776.0,178269.0,172196,173072,205727.0,253691.0
13107,6093,US,32024158,41.553072,-87.336509,Census,Neighborhood,IN,Glen Park (Gary),0,0,0,0,0,0,0,0,0,0,0,0,0,2887,15974.0,17949,21373,27329.0,32671.0,32399,27705,25454.0,18875.0
13124,19395,US,112453,40.0027777778,-85.7466666667,Census,Town,IN,"Pendleton, Indiana",0,0,0,0,0,0,389,0,675,614,996,1512,1293,1244,1538.0,1681,2082,2472.0,2243.0,2130,2309,3873.0,4253.0
13173,12195,US,112473,41.4472222222,-86.1494444444,Census,Town,IN,"Bremen, Indiana",0,0,0,0,0,0,0,0,0,1028,1076,1671,2008,2084,2105.0,2179,2664,3026.0,3487.0,3565,4725,4486.0,4588.0
13316,29090,US,96139,,,Census,US County,IN,"Clark County, Indiana",0,0,5670,8709,10686,14595,15828,20502,24770,28610,30259,31835,30260,29381,30764.0,31020,48330,62795.0,75876.0,88838,87774,96472.0,110232.0
13360,11799,US,112480,38.6663888889,-86.7925,Census,Town,IN,"Shoals, Indiana",0,0,0,0,0,0,0,0,513,706,738,683,1015,1034,1128.0,1031,1039,1022.0,1039.0,967,853,807.0,756.0
13364,15813,US,112290,39.0363888889,-87.1655555556,Census,City,IN,"Linton, Indiana",0,0,0,0,0,0,0,0,0,0,958,3071,5906,5856,5085.0,6263,5973,5736.0,5450.0,6315,5814,5774.0,5413.0
13389,5071,US,13713918,39.0347222222,-86.7538888889,Census,Township,IN,"Center Township, Greene County, Indiana",0,0,0,0,0,0,0,0,0,0,0,0,0,0,0.0,0,0,0.0,0.0,0,0,3109.0,3535.0
13405,10846,US,112175,40.1938888889,-86.36,Census,Town,IN,"Kirklin, Indiana",0,0,0,0,0,0,59,0,141,252,550,624,699,695,644.0,712,734,767.0,736.0,662,707,766.0,788.0
13423,11305,US,112293,39.0341666667,-87.0544444444,Census,Town,IN,"Switz City, Indiana",0,0,0,0,0,0,0,0,0,187,0,0,0,0,450.0,405,328,339.0,301.0,300,257,311.0,293.0
13465,10654,US,112572,40.2908333333,-85.0291666667,Census,Town,IN,"Ridgeville, Indiana",0,0,0,0,0,0,0,0,716,775,922,0,440,1042,909.0,1003,950,950.0,924.0,933,808,843.0,803.0
13485,15590,US,112120,39.3527777778,-85.9675,Census,Town,IN,"Edinburgh, Indiana",0,0,0,0,0,0,0,1100,1799,1814,2031,1820,2040,2376,2209.0,2466,3283,3664.0,5079.0,4856,4536,4505.0,4480.0
13493,14588,US,96082,38.4,-87.23,Census,US County,IN,"Pike County, Indiana",0,0,0,1472,2475,4769,7720,10078,13779,16383,18544,20486,19684,18684,16361.0,17045,14995,12797.0,12281.0,13465,12509,12837.0,12845.0
13598,12024,US,112139,40.1288888889,-86.6088888889,Census,Town,IN,"Thorntown, Indiana",0,0,0,0,0,0,0,1016,1526,1515,1530,1511,1508,1432,1325.0,1226,1380,1486.0,1399.0,1468,1506,1562.0,1520.0
13632,9488,US,112110,40.7444444444,-84.9405555556,Census,Town,IN,"Monroe, Adams County, Indiana",0,0,0,0,0,0,0,0,0,97,0,0,334,384,322.0,405,428,499.0,622.0,739,788,734.0,842.0
13652,12935,US,112117,41.1261111111,-84.8527777778,Census,City,IN,"Woodburn, Indiana",0,0,0,0,0,0,0,0,0,0,0,236,375,474,493.0,471,540,585.0,688.0,1002,1321,1579.0,1520.0
13671,11266,US,112398,41.4091666667,-85.8469444444,Census,Town,IN,"Milford, Kosciusko County, Indiana",0,0,0,0,0,0,0,209,432,492,677,905,814,811,869.0,901,952,1167.0,1264.0,1153,1388,1550.0,1562.0
13689,9599,US,112388,38.6158333333,-87.3552777778,Census,Town,IN,"Monroe City, Indiana",0,0,0,0,0,0,0,0,0,401,589,688,630,530,544.0,518,453,505.0,603.0,569,538,548.0,545.0
13726,10660,US,15868841,41.525,-85.6972222222,Census,Town,IN,"Millersburg, Indiana",0,0,0,0,0,0,0,0,52,449,394,481,428,385,344.0,384,437,489.0,618.0,809,854,868.0,903.0
13781,16190,US,112667,38.0419444444,-87.3688888889,Census,Town,IN,"Chandler, Indiana",0,0,0,0,0,0,0,0,0,0,0,0,0,0,0.0,0,0,1784.0,2032.0,3043,3099,3094.0,2887.0
13851,27057,US,112564,39.6422222222,-86.8561111111,Census,City,IN,"Greencastle, Indiana",0,0,0,0,0,0,1382,2096,3227,3644,4390,3661,3790,3780,4613.0,4872,6888,8506.0,8852.0,8403,8984,9880.0,10326.0
13852,15353,US,112198,39.0961111111,-84.8577777778,Census,City,IN,"Lawrenceburg, Indiana",0,0,0,0,0,0,2651,0,3159,4668,4284,4326,3930,3466,4072.0,4413,4806,5004.0,4636.0,4403,4375,4685.0,5042.0
13856,35653,US,96084,,,Census,US County,IN,"Parke County, Indiana",0,0,0,0,7535,13499,14968,15538,18166,19460,20296,23000,22214,18875,16561.0,17358,15674,14804.0,14600.0,16372,15410,17241.0,17339.0
13909,11460,US,112561,39.7616666667,-86.8111111111,Census,Town,IN,"Bainbridge, Indiana",0,0,0,0,0,0,0,0,0,420,473,431,449,475,406.0,414,455,603.0,703.0,644,682,743.0,746.0
13912,13019,US,112659,41.0038888889,-85.7725,Census,Town,IN,"North Manchester, Indiana",0,0,0,0,0,0,0,0,0,1585,2384,2398,2428,2711,2765.0,3170,3977,4377.0,5791.0,5998,6383,6260.0,6112.0
13963,14570,US,96095,38.71,-86.8,Census,US County,IN,"Martin County, Indiana",0,0,0,1032,2010,3875,5941,8975,11103,13475,13973,14711,12950,11865,10103.0,10300,10678,10608.0,10969.0,11001,10369,10369.0,10334.0
14162,13643,US,112710,41.0858333333,-85.6272222222,Census,Town,IN,"South Whitley, Indiana",0,0,0,0,0,0,0,0,0,408,720,1113,1176,1074,1102.0,1118,1299,1325.0,1362.0,1575,1482,1782.0,1751.0
14227,17407,US,112703,40.7466666667,-86.7652777778,Census,City,IN,"Monticello, Indiana",0,0,0,0,0,0,0,565,887,1193,1518,2107,2168,2536,2331.0,3153,3467,4035.0,4869.0,5162,5237,5723.0,5378.0
14231,10798,US,112354,40.9641666667,-85.3744444444,Census,Town,IN,"Roanoke, Indiana",0,0,0,0,0,0,0,270,627,597,532,536,699,760,849.0,808,905,935.0,858.0,891,1018,1495.0,1722.0
14262,10932,US,112262,40.9472222222,-86.2638888889,Census,Town,IN,"Fulton, Indiana",0,0,0,0,0,0,0,0,0,0,0,0,296,361,397.0,373,366,410.0,372.0,393,371,326.0,333.0
14300,10797,US,112551,38.1880555556,-87.7066666667,Census,Town,IN,"Cynthiana, Indiana",0,0,0,0,0,0,0,0,0,313,0,502,610,568,556.0,535,591,663.0,793.0,874,669,693.0,545.0
14328,16001,US,96125,39.42,-85.06,Census,US County,IN,"Franklin County, Indiana",0,0,0,10763,10190,13349,17968,19549,20223,20092,18366,16388,15335,14806,14498.0,14412,16034,17015.0,16943.0,19612,19580,22151.0,23087.0
14412,15465,US,96135,,,Census,US County,IN,"Daviess County, Indiana",0,0,0,3432,4543,6720,10352,13323,16747,21552,26227,29914,27747,26856,25832.0,26163,26762,26636.0,26602.0,27836,27533,29820.0,31648.0
14432,9966,US,112440,41.5458333333,-86.9041666667,Census,Town,IN,"Westville, Indiana",0,0,0,0,0,0,0,0,640,627,522,468,503,408,496.0,523,624,789.0,2614.0,2887,2255,2116.0,5853.0
14484,6243,US,13770651,40.5288888889,-86.0586111111,Census,Township,IN,"Howard Township, Howard County, Indiana",0,0,0,0,0,0,0,0,0,0,0,0,0,0,0.0,0,0,0.0,0.0,0,0,2866.0,2579.0
14497,10958,US,112654,39.4922222222,-87.2663888889,Census,Town,IN,"Seelyville, Indiana",0,0,0,0,0,0,0,0,0,0,0,0,1188,915,825.0,807,898,1114.0,1195.0,1374,1090,1182.0,1029.0
14543,16301,US,96121,39.04,-86.97,Census,US County,IN,"Greene County, Indiana",0,0,0,0,4242,8321,12313,16041,19514,22996,24379,28530,36873,36770,31481.0,31330,27886,26327.0,26894.0,30416,30410,33157.0,33165.0
14799,9236,US,112140,40.0641666667,-86.4633333333,Census,Town,IN,"Ulen, Indiana",0,0,0,0,0,0,0,0,0,0,0,0,0,0,74.0,99,83,130.0,138.0,193,50,123.0,117.0
14855,10455,US,112216,41.3147222222,-84.9008333333,Census,"&quot;GR1&quot;&gt;publisher=[[United States Census Bureau|accessdate=2011-04-23|date=2011-02-12|title=US Gazetteer files: 2010, 2000, and 1990}}",IN,"Saint Joe, Indiana",0,0,0,0,0,0,0,0,0,180,0,483,391,386,407.0,437,479,499.0,564.0,546,452,478.0,460.0
14874,17211,US,112479,38.6763888889,-86.9147222222,Census,City,IN,"Loogootee, Indiana",0,0,0,0,0,0,0,0,748,885,988,1382,2154,2385,2203.0,2325,2424,2858.0,2953.0,3100,2884,2741.0,2751.0
14971,46964,US,96060,39.85,-87.46,Census,US County,IN,"Vermillion County, Indiana",0,0,0,0,5692,8274,8661,9422,10840,12025,13154,15252,18865,27625,23238.0,21787,19723,17683.0,16793.0,18229,16773,16788.0,16212.0
15004,9332,US,112544,41.3155555556,-87.0275,Census,Town,IN,"Kouts, Indiana",0,0,0,0,0,0,0,0,0,214,0,0,0,0,583.0,732,718,1007.0,1388.0,1619,1603,1698.0,1879.0
15032,15764,US,96111,38.91,-86.04,Census,US County,IN,"Jackson County, Indiana",0,0,0,4010,4870,8961,11047,16286,18974,23050,24139,26633,24727,24228,23731.0,26612,28237,30556.0,33187.0,36523,37730,41335.0,42376.0
15069,11395,US,112365,41.1913888889,-87.0525,Census,Town,IN,"Wheatfield, Indiana",0,0,0,0,0,0,0,0,0,0,0,366,357,382,401.0,439,496,679.0,713.0,755,621,772.0,853.0
15084,19778,US,96087,38.95,-84.97,Census,US County,IN,"Ohio County, Indiana",0,0,0,0,0,0,5308,5462,5837,5563,4955,4724,4329,4024,3747.0,3782,4223,4165.0,4289.0,5114,5315,5623.0,6128.0
15092,12066,US,112179,40.4191666667,-86.5963888889,Census,Town,IN,"Rossville, Indiana",0,0,0,0,0,0,160,329,389,475,594,598,677,595,626.0,627,739,831.0,830.0,1148,1175,1513.0,1653.0
15137,9448,US,112200,39.2872222222,-84.9672222222,Census,Town,IN,"Saint Leon, Indiana",0,0,0,0,0,0,0,0,0,254,368,369,261,257,276.0,276,288,319.0,435.0,515,493,387.0,678.0
15255,15130,US,96136,38.29,-86.46,Census,US County,IN,"Crawford County, Indiana",0,0,0,2583,3238,5282,6524,8226,9851,12356,13941,13476,12057,11201,10160.0,10171,9289,8379.0,8033.0,9820,9914,10743.0,10713.0
15268,20169,US,112322,39.8419444444,-86.3955555556,Census,Town,IN,"Brownsburg, Indiana",0,0,0,0,0,0,132,0,551,667,623,676,876,1063,1042.0,1136,1578,4478.0,5751.0,6242,7628,14520.0,21285.0
15319,14562,US,112702,40.8636111111,-86.8797222222,Census,Town,IN,"Monon, Indiana",0,0,0,0,0,0,0,0,0,288,1064,1160,1184,1357,1374.0,1262,1439,1417.0,1548.0,1540,1585,1733.0,1777.0
15323,14598,US,96106,39.49,-86.1,Census,US County,IN,"Johnson County, Indiana",0,0,0,0,4019,9352,12101,14854,18366,19537,19561,20223,20394,20739,21706.0,22493,26183,43704.0,61138.0,77240,88109,115209.0,139654.0
15327,39222,US,112423,41.5513888889,-87.5013888889,Census,Town,IN,"Munster, Indiana",0,0,0,0,0,0,0,0,0,0,0,0,543,605,975.0,1751,4753,10313.0,16514.0,20671,19949,21511.0,23603.0
15336,20961,US,112635,40.3788888889,-86.0866666667,Census,Town,IN,"Sharpsville, Indiana",0,0,0,0,0,0,0,0,0,280,377,0,0,0,512.0,518,508,663.0,672.0,617,769,618.0,607.0
15382,14438,US,112349,40.4188888889,-86.2719444444,Census,Town,IN,"Russiaville, Indiana",0,0,0,0,0,0,0,0,160,419,603,0,0,0,0.0,0,0,0.0,844.0,973,1014,1092.0,1094.0
15428,15028,US,112407,41.6769444444,-85.58,Census,Town,IN,"Shipshewana, Indiana",0,0,0,0,0,0,0,0,0,0,0,0,0,248,262.0,286,277,312.0,448.0,466,524,536.0,658.0
15490,10464,US,112324,39.6875,-86.6691666667,Census,Town,IN,"Coatesville, Indiana",0,0,0,0,0,0,0,0,0,499,0,0,472,522,434.0,377,444,497.0,453.0,474,469,516.0,523.0
15512,6547,US,13770639,40.5227777778,-86.1936111111,Census,Township,IN,"Clay Township, Howard County, Indiana",0,0,0,0,0,0,0,0,0,0,0,0,0,0,0.0,0,0,0.0,0.0,0,0,4042.0,3885.0
15519,10430,US,112689,39.7855555556,-85.1561111111,Census,Town,IN,"Milton, Indiana",0,0,0,0,0,0,765,0,823,855,742,682,601,580,612.0,646,752,700.0,694.0,729,634,611.0,490.0
15529,8550,US,112456,40.1183333333,-85.6955555556,Census,Town,IN,"Woodlawn Heights, Indiana",0,0,0,0,0,0,0,0,0,0,0,0,0,0,19.0,59,31,29.0,51.0,109,109,73.0,79.0
15534,12568,US,112638,39.6358333333,-84.9288888889,Census,Town,IN,"Liberty, Indiana",0,0,0,0,0,0,420,572,700,1096,1314,1449,1338,1292,1241.0,1496,1730,1745.0,1831.0,1844,2051,2061.0,2133.0
15551,10520,US,112529,39.7263888889,-87.3313888889,Census,Town,IN,"Mecca, Indiana",0,0,0,0,0,0,0,0,0,0,0,0,0,0,0.0,0,0,0.0,0.0,482,331,355.0,335.0
15580,9929,US,112370,40.3819444444,-84.8661111111,Census,Town,IN,"Salamonia, Indiana",0,0,0,0,0,0,0,0,0,133,150,168,169,194,180.0,191,181,142.0,162.0,147,138,158.0,157.0
15607,9951,US,112381,39.3508333333,-86.1091666667,Census,Town,IN,"Princes Lakes, Indiana",0,0,0,0,0,0,0,0,0,0,0,0,0,0,0.0,0,0,374.0,597.0,937,1055,1506.0,1312.0
15737,13906,US,96065,38.82,-85.03,Census,US County,IN,"Switzerland County, Indiana",0,0,0,3934,7028,9920,12932,12698,12134,13336,12514,11840,9914,9311,8432.0,8167,7599,7092.0,6306.0,7153,7738,9065.0,10613.0
15814,10341,US,112147,40.5458333333,-86.5233333333,Census,Town,IN,"Flora, Indiana",0,0,0,0,0,0,0,0,0,224,639,1209,1386,1441,1449.0,1468,1657,1742.0,1877.0,2303,2179,2227.0,2036.0
15845,10500,US,112429,41.4127777778,-87.2608333333,Census,Town,IN,"Winfield, Indiana",0,0,0,0,0,0,0,0,0,0,0,0,0,0,0.0,0,0,0.0,0.0,0,637,2298.0,4383.0
15856,15646,US,96109,,,Census,US County,IN,"Jay County, Indiana",0,0,0,0,0,3863,7047,11399,15000,19282,23478,26818,24961,23318,20846.0,22601,23157,22572.0,23575.0,23239,21512,21806.0,21253.0
15903,10484,US,112213,41.4366666667,-85.1461111111,Census,Town,IN,"Corunna, Indiana",0,0,0,0,0,0,0,0,242,276,0,0,318,272,268.0,278,338,361.0,359.0,304,241,254.0,254.0
15937,9742,US,112258,39.5008333333,-85.1869444444,Census,Town,IN,"Laurel, Indiana",0,0,0,0,0,0,0,670,741,670,0,600,503,515,516.0,533,680,848.0,753.0,819,544,579.0,512.0
16050,26525,US,112211,41.3655555556,-85.0563888889,Census,City,IN,"Auburn, Indiana",0,0,0,0,0,0,260,639,677,1542,2415,3396,3919,4650,5088.0,5415,5879,6350.0,7388.0,8122,9379,12074.0,13086.0
16083,14367,US,112174,40.2822222222,-86.5113888889,Census,City,IN,"Frankfort, Indiana",0,0,0,0,0,0,582,773,1300,2803,5919,7100,8634,11585,12196.0,13706,15028,15302.0,14956.0,15168,14754,16662.0,16422.0
16130,10222,US,112202,39.2613888889,-84.8208333333,Census,Town,IN,"West Harrison, Indiana",0,0,0,0,0,0,0,0,0,290,320,304,281,258,279.0,311,308,341.0,395.0,328,318,284.0,289.0
16168,20826,US,112328,39.8672222222,-86.4613888889,Census,Town,IN,"Pittsboro, Indiana",0,0,0,0,0,0,0,148,201,418,0,0,408,549,489.0,510,599,826.0,867.0,891,815,1588.0,2928.0
16212,10186,US,112372,38.8905555556,-85.5163888889,Census,Town,IN,"Dupont, Indiana",0,0,0,0,0,0,0,0,0,192,0,0,0,0,0.0,0,0,0.0,357.0,392,391,392.0,339.0
16231,30331,US,112633,40.4419444444,-86.9125,Census,City,IN,"West Lafayette, Indiana",0,0,0,0,0,0,0,0,0,717,1242,2302,3867,3830,5095.0,6270,11873,12680.0,19157.0,21247,25907,28778.0,42010.0
16289,20432,US,112142,39.9530555556,-86.2694444444,Census,Town,IN,"Zionsville, Indiana",0,0,0,0,0,0,0,365,956,855,825,765,840,957,1131.0,1314,1536,1822.0,1857.0,3948,5281,8775.0,14160.0
16294,14735,US,96051,41.14,-85.5,Census,US County,IN,"Whitley County, Indiana",0,0,0,0,0,1237,5190,10730,14399,16941,17768,17328,16892,15660,15931.0,17001,18828,20954.0,23395.0,26215,27651,30707.0,33292.0
16420,14783,US,112505,39.6080555556,-86.3691666667,Census,Town,IN,"Mooresville, Indiana",0,0,0,0,0,0,550,780,1229,864,891,974,1608,1781,1910.0,1979,2264,3856.0,5800.0,5349,5541,9273.0,9326.0
16425,10839,US,112668,38.16,-87.4475,Census,Town,IN,"Elberfeld, Indiana",0,0,0,0,0,0,0,0,0,0,0,0,438,473,546.0,520,499,485.0,834.0,640,635,636.0,625.0
16475,11611,US,112508,40.8661111111,-87.3658333333,Census,Town,IN,"Brook, Indiana",0,0,0,0,0,0,0,0,0,0,0,677,1067,975,815.0,888,915,845.0,919.0,926,899,1062.0,997.0
16497,17856,US,112665,40.2869444444,-87.2919444444,Census,Town,IN,"Williamsport, Indiana",0,0,0,0,0,0,279,520,988,913,1027,1245,1243,1088,1053.0,1222,1241,1353.0,1661.0,1747,1798,1935.0,1898.0
16606,10792,US,112306,39.8966666667,-85.9219444444,Census,Town,IN,"McCordsville, Indiana",0,0,0,0,0,0,0,0,168,180,0,0,0,0,0.0,0,0,0.0,0.0,0,684,1134.0,4797.0
16660,12583,US,112510,40.7697222222,-87.4461111111,Census,Town,IN,"Kentland, Indiana",0,0,0,0,0,0,0,0,802,982,918,1006,1209,1283,1355.0,1608,1633,1783.0,1864.0,1936,1798,1822.0,1748.0
16708,10442,US,112124,39.0608333333,-85.8897222222,Census,Town,IN,"Jonesville, Indiana",0,0,0,0,0,0,0,0,206,266,0,268,213,213,162.0,181,225,196.0,202.0,213,221,220.0,177.0
16716,12095,US,112217,41.4313888889,-85.0225,Census,Town,IN,"Waterloo, Indiana",0,0,0,0,0,0,0,343,1259,1376,1478,1244,1167,1172,1244.0,1257,1414,1432.0,1876.0,1951,2040,2200.0,2242.0
16795,6057,US,13770648,40.4138888889,-86.2702777778,Census,Township,IN,"Honey Creek Township, Howard County, Indiana",0,0,0,0,0,0,0,0,0,0,0,0,0,0,0.0,0,0,0.0,0.0,0,0,1966.0,2109.0
16812,11333,US,112199,39.1125,-85.0886111111,Census,Town,IN,"Moores Hill, Indiana",0,0,0,0,0,0,206,0,617,333,469,338,424,285,349.0,359,445,476.0,616.0,566,649,635.0,597.0
16853,15881,US,112182,38.1991666667,-86.3422222222,Census,Town,IN,"Leavenworth, Indiana",0,0,0,0,0,0,0,0,567,716,792,655,690,611,418.0,394,358,387.0,330.0,356,320,353.0,238.0
16863,13377,US,112570,40.0463888889,-85.1269444444,Census,Town,IN,"Modoc, Indiana",0,0,0,0,0,0,0,0,0,0,0,221,261,256,236.0,237,275,238.0,275.0,243,218,225.0,196.0
16865,10658,US,112647,39.6816666667,-87.4136111111,Census,Town,IN,"Fairview Park, Indiana",0,0,0,0,0,0,0,0,0,0,0,0,630,1301,1106.0,1074,902,1039.0,1067.0,1545,1446,1496.0,1386.0
16891,11120,US,112623,39.0569444444,-87.5666666667,Census,Town,IN,"Merom, Indiana",0,0,0,0,0,0,0,234,426,407,412,478,521,503,397.0,499,374,352.0,305.0,360,257,294.0,228.0
17053,17883,US,112351,40.8819444444,-85.4955555556,Census,City,IN,"Huntington, Indiana",0,0,0,0,0,0,594,1664,2925,3863,7328,9491,10272,14000,13420.0,13903,15079,16185.0,16217.0,16202,16389,17450.0,17391.0
17058,10864,US,112227,38.3158333333,-86.6952777778,Census,Town,IN,"Birdseye, Indiana",0,0,0,0,0,0,0,0,0,0,419,476,439,527,366.0,370,354,366.0,404.0,533,472,465.0,416.0
17061,13280,US,112588,39.5888888889,-85.8619444444,Census,Town,IN,"Fairland, Indiana",0,0,0,0,0,0,0,0,0,367,513,0,0,0,0.0,0,0,0.0,0.0,0,0,0.0,315.0
17114,17815,US,112107,40.6580555556,-84.9541666667,Census,City,IN,"Berne, Indiana",0,0,0,0,0,0,0,0,0,0,544,1037,1316,1537,1883.0,2075,2277,2644.0,2988.0,3300,3559,4150.0,3999.0
17171,12329,US,112560,41.05,-86.6,Census,Town,IN,"Winamac, Indiana",0,0,0,0,0,0,0,206,906,835,1215,1684,1607,1684,1679.0,1835,2166,2375.0,2341.0,2370,2262,2418.0,2490.0
17202,10024,US,112449,39.9575,-85.8025,Census,Town,IN,"Ingalls, Indiana",0,0,0,0,0,0,0,0,0,0,0,542,322,399,430.0,442,666,873.0,888.0,909,889,1168.0,2394.0
17234,22140,US,112417,41.5286111111,-87.2675,Census,City,IN,"Hobart, Indiana",0,0,0,0,0,0,0,0,0,600,1010,1390,1753,3450,5787.0,7166,10244,18680.0,21485.0,22987,21822,25363.0,29059.0
17351,9827,US,112576,39.0763888889,-85.3852777778,Census,Town,IN,"Holton, Indiana",0,0,0,0,0,0,0,0,0,366,0,0,0,0,0.0,0,0,0.0,0.0,487,451,407.0,480.0
17353,15887,US,96108,38.79,-85.44,Census,US County,IN,"Jefferson County, Indiana",0,0,0,8038,11465,16614,23916,25036,29741,25977,24507,22913,20483,20709,19182.0,19912,21613,24061.0,27006.0,30419,29797,31705.0,32428.0
17365,9435,US,112335,39.9038888889,-85.5188888889,Census,Town,IN,"Kennard, Indiana",0,0,0,0,0,0,0,0,0,0,0,417,449,541,440.0,522,485,466.0,518.0,441,382,455.0,471.0
17448,32540,US,112134,40.5530555556,-85.2813888889,Census,City,IN,"Montpelier, Indiana",0,0,0,0,0,0,0,0,231,618,808,3405,2786,2297,1859.0,1800,1826,1954.0,2093.0,1995,1880,1929.0,1805.0
17483,20240,US,96099,38.8,-86.55,Census,County,IN,"Lawrence County, Indiana",0,0,0,4116,9234,11782,12097,13692,14628,18543,19792,25729,30625,28228,35583.0,35045,34346,36564.0,38038.0,42472,42836,45922.0,46134.0
17503,9906,US,112389,38.8713888889,-87.4402777778,Census,Town,IN,"Oaktown, Indiana",0,0,0,0,0,0,0,0,0,0,0,0,608,779,771.0,793,763,798.0,726.0,776,655,633.0,608.0
17508,10342,US,112207,39.4283333333,-85.6291666667,Census,Town,IN,"St. Paul, Indiana",0,0,0,0,0,0,0,0,0,555,0,0,0,0,678.0,695,669,702.0,785.0,976,1032,1022.0,1031.0
17511,9903,US,112353,40.7416666667,-85.5613888889,Census,Town,IN,"Mount Etna, Indiana",0,0,0,0,0,0,0,155,221,182,0,175,148,137,135.0,139,171,192.0,164.0,122,111,110.0,94.0
17517,10059,US,152180,39.8841666667,-86.1563888889,Census,Town,IN,"Meridian Hills, Indiana",0,0,0,0,0,0,0,0,0,0,0,0,0,0,0.0,0,708,1807.0,1850.0,1801,1728,1713.0,1616.0
17711,6130,US,13770674,40.4402777778,-85.9130555556,Census,Township,IN,"Union Township, Howard County, Indiana",0,0,0,0,0,0,0,0,0,0,0,0,0,0,0.0,0,0,0.0,0.0,0,0,1056.0,1029.0
17765,17767,US,96141,40.58,-86.56,Census,US County,IN,"Carroll County, Indiana",0,0,0,0,1611,7819,11015,13489,16152,18345,20021,19953,17970,16315,15049.0,15410,16010,16934.0,17734.0,19722,18809,20165.0,20155.0
17904,10488,US,112369,40.3494444444,-85.1511111111,Census,Town,IN,"Redkey, Indiana",0,0,0,0,0,0,0,0,0,386,922,2206,1714,1386,1370.0,1538,1639,1746.0,1667.0,1537,1383,1427.0,1353.0
17940,13672,US,112130,40.4888888889,-87.0952777778,Census,Town,IN,"Otterbein, Indiana",0,0,0,0,0,0,0,0,0,0,0,0,652,702,616.0,570,641,788.0,916.0,1118,1291,1312.0,1262.0
17960,10856,US,112604,41.5330555556,-86.4302777778,Census,Town,IN,"North Liberty, Indiana",0,0,0,0,0,0,0,0,223,346,0,504,681,684,823.0,978,1165,1241.0,1259.0,1211,1366,1402.0,1896.0
18077,13131,US,112618,41.7305555556,-85.1697222222,Census,Town,IN,"Orland, Indiana",0,0,0,0,0,0,0,0,0,416,0,0,0,322,310.0,307,386,424.0,457.0,424,361,341.0,434.0
18192,11037,US,112656,40.6730555556,-85.7216666667,Census,Town,IN,"La Fontaine, Indiana",0,0,0,0,0,0,0,0,0,295,0,0,683,601,604.0,554,627,779.0,793.0,946,909,900.0,875.0
18203,36579,US,112241,39.6538888889,-85.1377777778,Census,City,IN,"Connersville, Indiana",0,0,0,0,0,596,1396,2119,2496,3228,4548,6836,7738,9901,12795.0,12898,15550,17698.0,17604.0,17023,15550,15411.0,13481.0
18216,15571,US,96052,40.75,-86.86,Census,US County,IN,"White County, Indiana",0,0,0,0,0,1832,4761,8258,10554,13795,15671,19138,17602,17351,15831.0,17037,18042,19709.0,20995.0,23867,23265,25267.0,24643.0
18219,28627,US,16760255,41.5819444444,-87.1866666667,Census,City,IN,"Portage, Indiana",0,0,0,0,0,0,0,0,0,0,0,0,0,0,0.0,0,2116,11822.0,19127.0,27409,29060,33496.0,36828.0
18248,16552,US,57233,,,Census,US County,IN,"Putnam County, Indiana",0,0,0,0,8262,16843,18615,20681,21514,22501,22335,21478,20520,19880,20448.0,20839,22950,24927.0,26932.0,29163,30315,36019.0,37963.0
18272,9439,US,112692,39.9436111111,-84.8302777778,Census,Town,IN,"Whitewater, Indiana",0,0,0,0,0,0,0,0,0,181,123,155,112,96,121.0,114,104,102.0,111.0,107,111,78.0,83.0
18298,10357,US,112154,40.6622222222,-86.2419444444,Census,Town,IN,"Walton, Indiana",0,0,0,0,0,0,0,0,0,453,469,498,579,713,685.0,710,837,1079.0,1054.0,1202,1053,1069.0,1049.0
18327,20856,US,96145,40.61,-87.31,Census,US County,IN,"Benton County, Indiana",0,0,0,0,0,0,1144,2809,5615,11108,11903,13123,12688,12206,11886.0,11117,11462,11912.0,11262.0,10218,9441,9421.0,8854.0
18336,11401,US,112315,38.2386111111,-85.9855555556,Census,Town,IN,"Lanesville, Indiana",0,0,0,0,0,0,0,0,157,280,277,324,290,269,273.0,267,314,346.0,586.0,570,512,614.0,564.0
18347,10449,US,112584,39.7391666667,-85.5705555556,Census,Town,IN,"Carthage, Indiana",0,0,0,0,0,0,0,0,481,500,482,1028,873,902,931.0,937,1065,1043.0,946.0,886,887,928.0,927.0
18434,10288,US,112674,38.4605555556,-86.2780555556,Census,Town,IN,"Hardinsburg, Indiana",0,0,0,0,0,0,0,0,199,133,138,210,254,253,254.0,275,247,218.0,263.0,298,322,244.0,248.0
18553,15929,US,112192,39.0586111111,-84.9036111111,Census,City,IN,"Aurora, Indiana",0,0,0,0,0,0,1954,2990,3304,4435,3929,3645,4410,4299,4386.0,4828,4780,4119.0,4293.0,3816,3825,3965.0,3750.0
18555,10675,US,112308,39.8905555556,-85.5797222222,Census,Town,IN,"Shirley, Indiana",0,0,0,0,0,0,0,0,0,0,0,381,1519,1079,761.0,952,1087,1038.0,958.0,919,817,806.0,830.0
18560,15653,US,112574,40.2011111111,-84.815,Census,City,IN,"Union City, Indiana",0,0,0,0,0,0,0,0,1439,2478,2681,2716,3209,3406,3084.0,3535,3572,4047.0,3995.0,3908,3612,3622.0,3584.0
18612,11437,US,112448,40.2222222222,-85.7719444444,Census,Town,IN,"Frankton, Indiana",0,0,0,0,0,0,0,0,270,391,520,1464,936,739,829.0,824,1047,1445.0,1796.0,2080,1736,1905.0,1862.0
18617,10721,US,112435,41.7563888889,-86.8183333333,Census,Town,IN,"Michiana Shores, Indiana",0,0,0,0,0,0,0,0,0,0,0,0,0,0,0.0,0,107,229.0,449.0,464,378,330.0,313.0
18622,32170,US,112457,39.7177777778,-86.0913888889,Census,City,IN,"Beech Grove, Indiana",0,0,0,0,0,0,0,0,0,0,0,0,568,1459,3552.0,3847,5612,10973.0,13559.0,13196,13383,14880.0,14192.0
18630,8711,US,14289151,37.9452777778,-87.1677777778,Census,Town,IN,"Richland City, Indiana",0,0,0,0,0,0,0,0,0,0,0,0,0,0,0.0,0,0,0.0,0.0,0,0,0.0,425.0
18635,63852,US,112554,38.1286111111,-87.9341666667,Census,Town,IN,"New Harmony, Indiana",0,0,0,0,0,0,0,825,836,1095,1197,1341,1229,1126,1022.0,1390,1360,1121.0,971.0,945,846,916.0,789.0
18666,17708,US,112341,39.9236111111,-85.365,Census,City,IN,"New Castle, Indiana",0,0,0,0,0,0,666,417,1556,2299,2697,3406,9446,14458,14027.0,16620,18271,20349.0,21215.0,20056,17753,17780.0,18114.0
18676,10463,US,112109,40.5925,-84.96,Census,Town,IN,"Geneva, Indiana",0,0,0,0,0,0,0,0,0,467,748,1076,1140,879,895.0,966,999,1053.0,1100.0,1430,1280,1368.0,1293.0
18707,9881,US,112119,39.2816666667,-85.87,Census,Town,IN,"Clifford, Indiana",0,0,0,0,0,0,0,0,0,134,175,233,210,185,179.0,188,232,241.0,275.0,310,308,291.0,233.0
18760,9937,US,112697,40.7008333333,-85.0788888889,Census,Town,IN,"Vera Cruz, Indiana",0,0,0,0,0,0,0,0,0,260,233,199,133,113,94.0,142,143,176.0,140.0,117,83,55.0,80.0
18805,17047,US,96088,41.4,-85.42,Census,US County,IN,"Noble County, Indiana",0,0,0,0,0,2702,7946,14915,20389,22956,23359,23533,24009,22470,22404.0,22776,25075,28162.0,31382.0,35443,37877,46275.0,47536.0
18831,11220,US,112261,41.0388888889,-86.0247222222,Census,Town,IN,"Akron, Indiana",0,0,0,0,0,0,0,0,0,193,0,0,768,930,932.0,990,946,958.0,1019.0,1045,1001,1076.0,1167.0
18912,10771,US,112497,39.9644444444,-86.715,Census,Town,IN,"New Ross, Indiana",0,0,0,0,0,0,0,0,0,317,270,284,296,351,350.0,355,336,332.0,318.0,306,331,334.0,347.0
18918,29076,US,112379,39.6113888889,-86.1180555556,Census,City,IN,"Greenwood, Indiana",0,0,0,0,0,0,0,0,0,448,862,1503,1608,1907,2377.0,2499,3066,7169.0,11869.0,19327,26265,36037.0,49791.0
18931,16158,US,112143,39.2030555556,-86.2383333333,Census,Town,IN,"Nashville, Indiana",0,0,0,0,0,0,0,0,270,348,395,393,354,323,369.0,493,526,489.0,527.0,705,873,825.0,803.0
18981,19612,US,112357,38.7961111111,-85.8408333333,Census,Town,IN,"Crothersville, Indiana",0,0,0,0,0,0,0,0,0,435,599,765,1038,1131,979.0,1169,1276,1449.0,1663.0,1747,1687,1570.0,1591.0
19001,13360,US,112540,41.6147222222,-87.1244444444,Census,Town,IN,"Burns Harbor, Indiana",0,0,0,0,0,0,0,0,0,0,0,0,0,0,0.0,0,0,0.0,1284.0,920,786,766.0,1156.0
19023,9641,US,112709,41.1788888889,-85.6244444444,Census,Town,IN,"Larwill, Indiana",0,0,0,0,0,0,0,0,0,506,0,0,0,264,252.0,319,316,994.0,324.0,286,219,282.0,283.0
19027,22049,US,96066,39.09,-87.41,Census,US County,IN,"Sullivan County, Indiana",0,0,0,3498,4630,8315,10141,15064,18453,20336,21877,26005,32439,31630,28133.0,27014,23667,21721.0,19889.0,21107,18993,21751.0,21475.0
19038,4898,US,13713972,39.1308333333,-87.0797222222,Census,Township,IN,"Smith Township, Greene County, Indiana",0,0,0,0,0,0,0,0,0,0,0,0,0,0,0.0,0,0,0.0,0.0,0,0,344.0,383.0
19063,9869,US,112513,40.9525,-87.2983333333,Census,Town,IN,"Mount Ayr, Indiana",0,0,0,0,0,0,0,0,0,0,0,0,231,199,216.0,207,222,186.0,194.0,207,151,147.0,122.0
19120,14319,US,112270,38.3380555556,-87.3472222222,Census,City,IN,"Oakland City, Indiana",0,0,0,0,0,0,0,0,0,731,1524,1991,2370,2270,2842.0,3068,3539,3016.0,3289.0,3301,2810,2588.0,2429.0
19140,11088,US,112646,39.8066666667,-87.4941666667,Census,Town,IN,"Dana, Indiana",0,0,0,0,0,0,0,0,0,183,495,893,748,884,859.0,845,854,811.0,720.0,803,612,662.0,608.0
19150,10639,US,112229,38.2458333333,-87.0383333333,Census,Town,IN,"Holland, Indiana",0,0,0,0,0,0,0,0,0,199,0,0,0,0,323.0,380,501,661.0,662.0,683,675,695.0,626.0
19264,24413,US,112231,38.3913888889,-86.9308333333,Census,City,IN,"Jasper, Indiana",0,0,0,0,0,0,0,0,547,1040,1281,1863,2196,2539,3905.0,5041,5215,6737.0,8641.0,9097,10030,12100.0,15038.0
19401,9201,US,112431,41.4811111111,-86.6925,Census,Town,IN,"Kingsford Heights, Indiana",0,0,0,0,0,0,0,0,0,0,0,0,0,0,0.0,0,1104,1276.0,1200.0,1618,1486,1453.0,1435.0
19407,11270,US,112144,40.4805555556,-86.3944444444,Census,Town,IN,"Burlington, Indiana",0,0,0,0,0,0,164,0,0,0,0,0,0,0,0.0,0,0,0.0,685.0,680,568,444.0,603.0
19449,5999,US,13770663,40.4516666667,-86.3163888889,Census,Township,IN,"Monroe Township, Howard County, Indiana",0,0,0,0,0,0,0,0,0,0,0,0,0,0,0.0,0,0,0.0,0.0,0,0,1387.0,1407.0
19522,10882,US,112382,39.4141666667,-86.1533333333,Census,Town,IN,"Trafalgar, Indiana",0,0,0,0,0,0,0,0,0,462,0,0,0,0,0.0,0,439,459.0,457.0,466,531,798.0,1101.0
19563,11512,US,112494,40.1886111111,-86.9033333333,Census,Town,IN,"Linden, Indiana",0,0,0,0,0,0,0,0,0,130,0,572,556,555,541.0,580,590,619.0,713.0,700,718,700.0,759.0
19575,19250,US,96056,38.1,-87.27,Census,US County,IN,"Warrick County, Indiana",0,0,0,1749,2877,6321,8811,13261,17653,20162,21161,22329,21911,19862,18230.0,19435,21527,23577.0,27972.0,41474,44920,52383.0,59689.0
19590,7939,US,13770661,40.4997222222,-85.9808333333,Census,Township,IN,"Liberty Township, Howard County, Indiana",0,0,0,0,0,0,0,0,0,0,0,0,0,0,0.0,0,0,0.0,0.0,0,0,5032.0,4862.0
19629,11453,US,112313,38.1241666667,-85.9736111111,Census,Town,IN,"Elizabeth, Indiana",0,0,0,0,0,0,0,0,216,282,267,271,238,193,178.0,209,211,214.0,195.0,178,153,137.0,162.0
19692,11825,US,112443,38.8955555556,-86.5247222222,Census,Town,IN,"Oolitic, Indiana",0,0,0,0,0,0,0,0,0,0,0,0,1079,883,1210.0,1186,1125,1140.0,1155.0,1495,1424,1152.0,1184.0
19795,14552,US,112427,41.4483333333,-87.4766666667,Census,Town,IN,"St. John, Indiana",0,0,0,0,0,0,0,0,0,40,0,0,0,279,332.0,383,684,1128.0,1757.0,3974,4921,8382.0,14850.0
19829,10951,US,112326,39.8852777778,-86.5441666667,Census,Town,IN,"Lizton, Indiana",0,0,0,0,0,0,0,0,0,0,0,0,224,182,217.0,200,276,366.0,397.0,456,410,372.0,488.0
19965,18164,US,112116,41.0677777778,-85.0213888889,Census,City,IN,"New Haven, Indiana",0,0,0,0,0,0,0,0,912,858,1079,950,1038,1237,1702.0,1872,2336,3396.0,5346.0,6714,9320,12406.0,14794.0
19988,42567,US,112487,39.1622222222,-86.5291666667,Census,City,IN,"Bloomington, Indiana",0,0,0,0,0,0,1305,2419,1032,2756,4018,6460,8838,11595,18227.0,20870,28163,31357.0,43262.0,52044,60633,69291.0,80405.0
20022,16637,US,96105,38.69,-87.42,Census,US County,IN,"Knox County, Indiana",0,2517,7945,5437,6525,10657,11084,16056,21562,26324,28044,32746,39183,46195,43813.0,43973,43415,41561.0,41546.0,41838,39884,39256.0,38440.0
20035,10535,US,112277,40.4097222222,-85.5730555556,Census,Town,IN,"Fowlerton, Indiana",0,0,0,0,0,0,0,0,0,0,0,0,293,225,204.0,255,292,297.0,337.0,300,306,298.0,261.0
20134,17081,US,112616,41.7311111111,-84.9325,Census,Town,IN,"Fremont, Indiana",0,0,0,0,0,0,0,0,392,632,672,709,694,729,802.0,855,947,937.0,1043.0,1180,1407,1696.0,2138.0
20171,19962,US,112541,41.6041666667,-87.0583333333,Census,Town,IN,"Chesterton, Indiana",0,0,0,0,0,0,0,0,0,488,931,788,1400,1604,2231.0,2470,3175,4335.0,6177.0,8531,9124,10488.0,13068.0
20225,17925,US,96134,39.15,-84.98,Census,US County,IN,"Dearborn County, Indiana",0,0,7310,11468,13974,19327,20166,24406,24116,26671,23364,22194,21396,20033,21056.0,23053,25141,28674.0,29430.0,34291,38835,46109.0,50047.0
20244,11096,US,112180,38.1227777778,-86.42,Census,Town,IN,"Alton, Indiana",0,0,0,0,0,0,0,0,137,259,277,238,161,128,109.0,78,71,57.0,56.0,64,57,53.0,55.0
20289,13219,US,112248,40.1405555556,-87.3930555556,Census,City,IN,"Covington, Indiana",0,0,0,0,0,0,1176,1366,1888,1920,1891,2213,2069,1945,2008.0,2096,2235,2759.0,2641.0,2883,2747,2565.0,2645.0
20292,10621,US,112672,38.6522222222,-86.2616666667,Census,Town,IN,"Campbellsburg, Indiana",0,0,0,0,0,0,0,0,0,386,418,672,666,659,558.0,608,637,612.0,678.0,695,606,578.0,585.0
20295,4644,US,13713936,39.0355555556,-87.0858333333,Census,Township,IN,"Grant Township, Greene County, Indiana",0,0,0,0,0,0,0,0,0,0,0,0,0,0,0.0,0,0,0.0,0.0,0,0,690.0,739.0
20334,23472,US,112413,41.6388888889,-87.4622222222,Census,City,IN,"East Chicago, Indiana",0,0,0,0,0,0,0,0,0,0,1255,3411,19098,35967,54784.0,54637,54263,57669.0,46982.0,39786,33892,32414.0,29698.0
20372,10069,US,112528,39.8466666667,-87.1872222222,Census,Town,IN,"Marshall, Indiana",0,0,0,0,0,0,0,0,0,0,0,0,334,334,293.0,321,326,360.0,365.0,413,379,360.0,324.0
20449,16120,US,112661,40.8008333333,-85.8272222222,Census,City,IN,"Wabash, Indiana",0,0,0,0,0,0,966,1520,2881,3800,5105,8618,8687,9872,8840.0,9653,10621,12621.0,13379.0,12985,12127,11743.0,10666.0
20477,15665,US,112557,41.0802777778,-86.8886111111,Census,Town,IN,"Medaryville, Indiana",0,0,0,0,0,0,0,98,193,0,0,0,710,624,610.0,703,833,758.0,732.0,731,689,565.0,614.0
20543,9634,US,112259,39.4075,-84.8755555556,Census,Town,IN,"Mount Carmel, Indiana",0,0,0,0,0,0,0,0,0,182,142,153,142,127,150.0,120,134,142.0,128.0,151,108,106.0,86.0
20600,11616,US,112331,40.0597222222,-85.2388888889,Census,Town,IN,"Blountsville, Indiana",0,0,0,0,0,0,0,0,178,188,0,0,159,153,151.0,169,229,218.0,220.0,213,155,166.0,134.0
20633,11574,US,112625,39.0969444444,-87.4063888889,Census,City,IN,"Sullivan, Indiana",0,0,0,0,0,0,0,949,1396,2161,2222,3118,4115,4489,5306.0,5077,5423,4979.0,4683.0,4774,4663,4617.0,4249.0
20742,16339,US,96094,40.77,-86.05,Census,US County,IN,"Miami County, Indiana",0,0,0,0,0,3048,11304,16851,21052,24083,25823,28344,29350,28668,29032.0,27926,28201,38000.0,39246.0,39820,36897,36082.0,36903.0
20745,29157,US,112280,40.5491666667,-85.6647222222,Census,City,IN,"Marion, Indiana",0,0,0,0,0,0,703,0,1658,3182,8759,17337,19359,23747,24496.0,26767,30081,37854.0,39607.0,35874,32618,31320.0,29948.0
20746,26035,US,96142,39.2,-86.23,Census,US County,IN,"Brown County, Indiana",0,0,0,0,0,2364,4846,6507,8681,10264,10308,9727,7975,7019,5168.0,6189,6209,7024.0,9057.0,12377,14080,14957.0,15242.0
20786,11246,US,112397,41.1730555556,-86.0391666667,Census,Town,IN,"Mentone, Indiana",0,0,0,0,0,0,0,0,0,0,780,757,728,678,704.0,731,798,813.0,830.0,973,912,898.0,1001.0
20856,12632,US,112376,38.985,-85.61,Census,Town,IN,"Vernon, Indiana",0,0,0,0,0,0,690,630,673,616,613,557,453,423,410.0,413,480,461.0,440.0,329,370,330.0,318.0
20920,32146,US,112444,40.1,-85.6813888889,Census,City,IN,"Anderson, Indiana",0,0,0,0,0,0,5727,6527,9186,11425,10019,20178,22476,29767,39804.0,41572,46820,49061.0,70787.0,64695,59459,59734.0,56129.0
21005,12151,US,112592,38.1686111111,-86.9880555556,Census,Town,IN,"Dale, Indiana",0,0,0,0,0,0,0,0,0,318,659,624,583,688,770.0,763,850,900.0,1113.0,1693,1553,1568.0,1593.0
21245,52965,US,112299,39.9561111111,-86.0127777778,Census,City,IN,"Fishers, Indiana",0,0,0,0,0,0,0,0,0,138,0,0,188,142,138.0,164,219,344.0,628.0,2008,7508,37835.0,76794.0
21250,13451,US,112410,41.3672222222,-87.4383333333,Census,Town,IN,"Cedar Lake, Indiana",0,0,0,0,0,0,0,0,0,0,0,0,0,0,0.0,0,3907,5766.0,7589.0,8754,8885,9279.0,11560.0
21269,15839,US,112627,38.7458333333,-85.0711111111,Census,Town,IN,"Vevay, Indiana",0,0,0,0,0,1200,0,1198,0,1884,1663,1588,1256,1175,1183.0,1209,1309,1503.0,1463.0,1343,1393,1735.0,1683.0
21281,12949,US,112399,41.3252777778,-85.6972222222,Census,Town,IN,"North Webster, Indiana",0,0,0,0,0,0,0,0,0,0,0,0,0,0,0.0,343,487,494.0,456.0,709,881,1067.0,1146.0
21303,8995,US,112152,40.6944444444,-86.1941666667,Census,Town,IN,"Onward, Indiana",0,0,0,0,0,0,0,0,0,0,0,0,0,0,135.0,127,140,153.0,111.0,121,63,81.0,100.0
21371,10373,US,112683,39.8119444444,-85.2061111111,Census,Town,IN,"Dublin, Indiana",0,0,0,0,0,0,713,967,1076,1070,806,698,704,630,727.0,751,993,1021.0,1021.0,979,805,697.0,790.0
21397,14123,US,112256,39.4222222222,-85.0094444444,Census,Town,IN,"Brookville, Indiana",0,0,0,0,0,0,1177,1284,0,1813,2028,2037,2169,2220,2148.0,2194,2538,2596.0,2864.0,2980,2529,2652.0,2596.0
21436,9910,US,112424,41.5577777778,-87.2738888889,Census,Town,IN,"New Chicago, Indiana",0,0,0,0,0,0,0,0,0,0,0,0,105,300,481.0,466,921,2312.0,2231.0,2581,2066,2063.0,2035.0
21540,11182,US,112220,40.1122222222,-85.5963888889,Census,Town,IN,"Chesterfield, Indiana",0,0,0,0,0,0,0,0,203,150,0,0,285,319,460.0,581,1086,2588.0,3001.0,2701,2730,2969.0,2547.0
21655,19773,US,112422,41.4855555556,-87.3352777778,Census,Town,IN,"Merrillville, Indiana",0,0,0,0,0,0,0,0,0,106,0,0,0,0,0.0,0,0,0.0,15918.0,27677,27257,30560.0,35246.0
21664,12271,US,112612,41.2169444444,-86.7758333333,Census,Town,IN,"North Judson, Indiana",0,0,0,0,0,0,0,0,115,165,572,868,1122,1189,1348.0,1408,1705,1942.0,1738.0,1653,1582,1675.0,1772.0
21864,9105,US,152186,39.8327777778,-86.1925,Census,Town,IN,"Spring Hill, Indiana",0,0,0,0,0,0,0,0,0,0,0,0,0,0,22.0,28,27,25.0,22.0,27,112,97.0,98.0
21865,24087,US,112411,41.4216666667,-87.3561111111,Census,City,IN,"Crown Point, Indiana",0,0,0,0,0,0,0,0,0,1708,1907,2336,2526,3232,4046.0,4643,5839,8443.0,10931.0,16455,17728,19806.0,27317.0
21879,22923,US,58106,40.04,-86.89,Census,US County,IN,"Montgomery County, Indiana",0,0,0,0,7317,14438,18084,20888,23765,27316,28025,29388,29296,28490,26980.0,27231,29122,32089.0,33930.0,35501,34436,37629.0,38124.0
21887,14889,US,96071,39.52,-85.79,Census,US County,IN,"Shelby County, Indiana",0,0,0,0,6295,12005,15502,19569,21892,25257,25454,26491,26802,25982,26552.0,25953,28026,34093.0,37797.0,39887,40307,43445.0,44436.0
21914,15348,US,11476,40.4177777778,-85.6488888889,Census,Town,IN,"Fairmount, Indiana",0,0,0,0,0,0,0,0,337,563,1462,3205,2506,2155,2056.0,2382,2646,3080.0,3427.0,3286,3130,2992.0,2954.0
21931,36520,US,6830,39.2138888889,-85.9111111111,Census,City,IN,"Columbus, Indiana",0,0,0,0,0,0,1008,1840,3359,4813,6719,8130,8813,8990,9935.0,11738,18370,20778.0,26457.0,30614,31802,39059.0,44061.0
21984,10058,US,112209,41.3508333333,-85.1527777778,Census,Town,IN,"Altona, Indiana",0,0,0,0,0,0,0,0,0,100,0,0,349,382,342.0,340,344,313.0,269.0,263,156,198.0,197.0
22030,12049,US,112384,38.7736111111,-87.3080555556,Census,City,IN,"Bicknell, Indiana",0,0,0,0,0,0,0,0,0,298,0,0,2794,7635,5212.0,5110,4572,3878.0,3717.0,4713,3357,3378.0,2915.0
22129,18565,US,112165,39.525,-87.1275,Census,City,IN,"Brazil, Indiana",0,0,0,0,0,0,84,0,2186,3441,5905,7786,9340,9293,8744.0,8126,8434,8853.0,8163.0,7852,7640,8188.0,7912.0
22136,10657,US,112582,39.2363888889,-85.0938888889,Census,Town,IN,"Sunman, Indiana",0,0,0,0,0,0,0,0,0,0,0,370,353,372,355.0,352,358,446.0,707.0,924,623,805.0,1049.0
22146,11005,US,112362,40.7627777778,-87.1516666667,Census,Town,IN,"Remington, Indiana",0,0,0,0,0,0,0,0,390,761,940,1120,982,1044,879.0,869,1053,1207.0,1127.0,1268,1247,1323.0,1185.0
22172,20131,US,112237,41.4441666667,-85.9994444444,Census,City,IN,"Nappanee, Indiana",0,0,0,0,0,0,0,0,0,547,1493,2208,2260,2678,2957.0,3028,3393,3895.0,4159.0,4694,5510,6710.0,6648.0
22183,13567,US,96133,39.3,-85.5,Census,US County,IN,"Decatur County, Indiana",0,0,0,0,5887,12171,15107,17294,19053,19779,19277,19518,18793,17813,17308.0,17722,18218,20019.0,22738.0,23841,23645,24555.0,25740.0
22187,10474,US,112171,39.5261111111,-87.0908333333,Census,Town,IN,"Knightsville, Indiana",0,0,0,0,0,0,0,0,1071,958,1148,1171,1081,767,704.0,677,678,722.0,788.0,763,740,624.0,872.0
22266,12525,US,3082,40.2630555556,-85.6763888889,Census,City,IN,"Alexandria, Indiana",0,0,0,0,0,0,0,0,287,488,715,7221,5096,4172,4408.0,4801,5147,5582.0,5600.0,6028,5709,6260.0,5145.0
22273,11247,US,112276,40.5797222222,-85.8688888889,Census,Town,IN,"Converse, Indiana",0,0,0,0,0,0,0,0,0,732,921,1415,1164,1049,931.0,943,979,1044.0,1163.0,1279,1144,1137.0,1265.0
22280,10160,US,112118,40.9158333333,-85.2813888889,Census,Town,IN,"Zanesville, Indiana",0,0,0,0,0,0,0,0,0,93,0,0,0,0,0.0,0,0,0.0,0.0,0,0,602.0,600.0
22309,17859,US,96092,39.16,-86.52,Census,US County,IN,"Monroe County, Indiana",0,0,0,2679,6577,10143,11286,12847,14168,15875,17673,20873,23426,24519,35974.0,36534,50080,59225.0,84849.0,98785,108978,120563.0,137974.0
22324,13956,US,112587,38.6853611111,-85.7695972222,Census,City,IN,"Scottsburg, Indiana",0,0,0,0,0,0,0,0,0,454,618,1274,1669,1609,1702.0,2189,2953,3810.0,4791.0,5068,5334,6040.0,6747.0
22362,9743,US,112401,41.1052777778,-85.7430555556,Census,Town,IN,"Sidney, Indiana",0,0,0,0,0,0,0,0,0,0,0,0,0,223,182.0,194,168,208.0,179.0,194,167,168.0,83.0
22451,11665,US,112355,40.685,-85.4233333333,Census,Town,IN,"Warren, Indiana",0,0,0,0,0,0,0,0,0,503,1120,1523,1189,1520,1177.0,1388,1247,1241.0,1229.0,1254,1185,1272.0,1239.0
