,article_length,country,id,lat,lon,other_years,poptype,settlement_type,state,title,y1790,y1800,y1810,y1820,y1830,y1840,y1850,y1860,y1870,y1880,y1890,y1900,y1910,y1920,y1930,y1940,y1950,y1960,y1970,y1980,y1990,y2000,y2010
0,12896,US,112521,38.5469444444,-86.6188888889,,Census,Town,IN,"French Lick, Indiana",0,0,0,0,0,0,0,0,0,0,0,260,1803,1980,2462.0,2042,1946,1954.0,2059.0,2265.0,2087.0,1941.0,1807.0
46,10784,US,112262,40.9472222222,-86.2638888889,,Census,Town,IN,"Fulton, Indiana",0,0,0,0,0,0,0,0,0,0,0,0,296,361,397.0,373,366,410.0,372.0,393.0,371.0,326.0,333.0
74,33550,US,96145,40.61,-87.31,,Census,US County,IN,"Benton County, Indiana",0,0,0,0,0,0,1144,2809,5615,11108,11903,13123,12688,12206,11886.0,11117,11462,11912.0,11262.0,10218.0,9441.0,9421.0,8854.0
140,18043,US,112107,40.6580555556,-84.9541666667,,Census,City,IN,"Berne, Indiana",0,0,0,0,0,0,0,0,0,0,544,1037,1316,1537,1883.0,2075,2277,2644.0,2988.0,3300.0,3559.0,4150.0,3999.0
146,29308,US,96098,40.16,-85.72,,Census,US County,IN,"Madison County, Indiana",0,0,0,0,2238,8874,12375,16518,22770,27527,36487,70470,65224,69151,82888.0,88575,103911,125819.0,138451.0,139336.0,130669.0,133358.0,131636.0
149,13594,US,112406,41.6436111111,-85.4172222222,,Census,Town,IN,"LaGrange, Indiana",0,0,0,0,0,0,0,650,1038,1367,1784,1703,1772,1610,1640.0,1814,1892,1990.0,2053.0,2164.0,2382.0,2919.0,2625.0
181,13665,US,112228,38.2252777778,-86.8611111111,,Census,Town,IN,"Ferdinand, Indiana",0,0,0,0,0,0,0,0,0,500,627,0,827,884,846.0,990,1252,1427.0,1432.0,2192.0,2318.0,2277.0,2157.0
206,7016,US,112559,40.9725,-86.5569444444,,Census,Census-designated place,IN,"Star City, Indiana",0,0,0,0,0,0,0,0,0,0,0,0,0,0,0.0,0,0,0.0,0.0,0.0,0.0,0.0,0.0
222,24114,US,112413,41.6388888889,-87.4622222222,,Census,City,IN,"East Chicago, Indiana",0,0,0,0,0,0,0,0,0,0,1255,3411,19098,35967,54784.0,54637,54263,57669.0,46982.0,39786.0,33892.0,32414.0,29698.0
275,10928,US,112497,39.9644444444,-86.715,,Census,Town,IN,"New Ross, Indiana",0,0,0,0,0,0,0,0,0,317,270,284,296,351,350.0,355,336,332.0,318.0,306.0,331.0,334.0,347.0
405,14107,US,112248,40.1405555556,-87.3930555556,,Census,City,IN,"Covington, Indiana",0,0,0,0,0,0,1176,1366,1888,1920,1891,2213,2069,1945,2008.0,2096,2235,2759.0,2641.0,2883.0,2747.0,2565.0,2645.0
490,15774,US,112627,38.7458333333,-85.0711111111,,Census,Town,IN,"Vevay, Indiana",0,0,0,0,0,1200,0,1198,0,1884,1663,1588,1256,1175,1183.0,1209,1309,1503.0,1463.0,1343.0,1393.0,1735.0,1683.0
515,10946,US,112450,40.0680555556,-85.8475,,Census,Town,IN,"Lapel, Indiana",0,0,0,0,0,0,0,0,0,0,0,869,1045,1079,1140.0,1146,1389,1772.0,1796.0,1881.0,1742.0,1855.0,2068.0
527,10424,US,112390,38.8961111111,-87.1852777778,,Census,Town,IN,"Sandborn, Indiana",0,0,0,0,0,0,0,0,0,252,0,0,445,530,641.0,602,572,547.0,528.0,576.0,455.0,451.0,415.0
550,29006,US,57233,,,,Census,US County,IN,"Putnam County, Indiana",0,0,0,0,8262,16843,18615,20681,21514,22501,22335,21478,20520,19880,20448.0,20839,22950,24927.0,26932.0,29163.0,30315.0,36019.0,37963.0
563,10491,US,112229,38.2458333333,-87.0383333333,,Census,Town,IN,"Holland, Indiana",0,0,0,0,0,0,0,0,0,199,0,0,0,0,323.0,380,501,661.0,662.0,683.0,675.0,695.0,626.0
582,9625,US,112200,39.2872222222,-84.9672222222,,Census,Town,IN,"St. Leon, Indiana",0,0,0,0,0,0,0,0,0,254,368,369,261,257,276.0,276,288,319.0,435.0,515.0,493.0,387.0,678.0
723,31578,US,96130,38.36,-86.88,,Census,US County,IN,"Dubois County, Indiana",0,0,0,1168,1778,3632,6321,10394,12597,15992,20253,20357,19843,19915,20553.0,22579,23785,27463.0,30934.0,34238.0,36616.0,39674.0,41889.0
790,9100,US,112431,41.4811111111,-86.6925,,Census,Town,IN,"Kingsford Heights, Indiana",0,0,0,0,0,0,0,0,0,0,0,0,0,0,0.0,0,1104,1276.0,1200.0,1618.0,1486.0,1453.0,1435.0
866,16397,US,112155,38.4705555556,-85.9469444444,,Census,Town,IN,"Borden, Indiana",0,0,0,0,0,0,0,0,0,0,0,0,350,333,358.0,392,426,327.0,337.0,384.0,270.0,818.0,808.0
895,10190,US,112439,41.4297222222,-86.8986111111,,Census,Town,IN,"Wanatah, Indiana",0,0,0,0,0,0,0,0,0,372,0,0,0,0,0.0,0,0,0.0,773.0,879.0,852.0,1013.0,1048.0
911,11271,US,112296,40.2138888889,-86.0255555556,,Census,Town,IN,"Atlanta, Indiana",0,0,0,0,0,0,0,0,0,0,0,1000,876,678,551.0,479,613,602.0,620.0,657.0,703.0,761.0,725.0
942,28044,US,112564,39.6422222222,-86.8561111111,,Census,City,IN,"Greencastle, Indiana",0,0,0,0,0,0,1382,2096,3227,3644,4390,3661,3790,3780,4613.0,4872,6888,8506.0,8852.0,8403.0,8984.0,9880.0,10326.0
978,9661,US,112309,39.7769444444,-85.8544444444,,Census,Town,IN,"Spring Lake, Indiana",0,0,0,0,0,0,0,0,0,0,0,0,0,0,69.0,111,156,206.0,263.0,236.0,216.0,262.0,218.0
1009,13059,US,112547,41.6261111111,-87.0716666667,,Census,Town,IN,"Porter, Indiana",0,0,0,0,0,0,0,0,0,224,0,0,524,699,805.0,1190,1458,2189.0,3058.0,2988.0,3118.0,4972.0,4858.0
1062,10230,US,112599,41.7144444444,-86.2305555556,,Census,Town,IN,"Indian Village, Indiana",0,0,0,0,0,0,0,0,0,0,0,0,0,0,0.0,0,57,82.0,86.0,151.0,142.0,144.0,133.0
1076,10415,US,112689,39.7855555556,-85.1561111111,,Census,Town,IN,"Milton, Indiana",0,0,0,0,0,0,765,0,823,855,742,682,601,580,612.0,646,752,700.0,694.0,729.0,634.0,611.0,490.0
1098,13376,US,112517,41.4416666667,-85.2605555556,,Census,City,IN,"Kendallville, Indiana",0,0,0,0,0,0,0,0,2164,2373,2960,3354,4981,5273,5439.0,5431,6119,6765.0,6838.0,7299.0,7773.0,9616.0,9862.0
1116,14222,US,112132,40.3744444444,-85.2097222222,,Census,City,IN,"Dunkirk, Indiana",0,0,0,0,0,0,0,0,0,662,1024,3187,3031,2532,2583.0,2942,3048,3117.0,3465.0,3180.0,2739.0,2646.0,2362.0
1218,6093,US,32024158,41.553072,-87.336509,,Census,Neighborhood,IN,Glen Park (Gary),0,0,0,0,0,0,0,0,0,0,0,0,0,2887,15974.0,17949,21373,27329.0,32671.0,32399.0,27705.0,25454.0,18875.0
1259,10365,US,112639,39.5694444444,-84.8175,,Census,Town,IN,"West College Corner, Indiana",0,0,0,0,0,0,0,0,0,0,290,392,432,439,437.0,454,513,613.0,709.0,614.0,686.0,634.0,676.0
1276,88356,US,112348,40.4822222222,-86.1316666667,,Census,City,IN,"Kokomo, Indiana",0,0,0,0,0,0,0,1040,2177,4042,8261,10609,17010,30067,32843.0,33795,38672,47197.0,44042.0,47808.0,44962.0,46113.0,45468.0
1361,10255,US,112580,39.2041666667,-85.3286111111,,Census,Town,IN,"Napoleon, Indiana",0,0,0,0,0,0,0,0,0,250,0,0,0,0,0.0,0,0,290.0,282.0,246.0,238.0,238.0,234.0
1408,15141,US,112518,41.4641666667,-85.5913888889,,Census,City,IN,"Ligonier, Indiana",0,0,0,0,0,0,0,0,1514,2010,2195,2231,2173,2037,2064.0,2178,2375,2595.0,3034.0,3134.0,3443.0,4357.0,4405.0
1447,10337,US,112154,40.6622222222,-86.2419444444,,Census,Town,IN,"Walton, Indiana",0,0,0,0,0,0,0,0,0,453,469,498,579,713,685.0,710,837,1079.0,1054.0,1202.0,1053.0,1069.0,1049.0
1450,12044,US,112567,40.1888888889,-85.1272222222,,Census,Town,IN,"Farmland, Indiana",0,0,0,0,0,0,0,0,532,661,770,870,907,878,853.0,914,943,1102.0,1262.0,1560.0,1412.0,1456.0,1333.0
1461,7090,US,13770925,39.7736111111,-86.1394444444,,Census,Township,IN,"Center Township, Marion County, Indiana",0,0,0,0,0,0,0,0,0,0,117328,167970,218497,283414,300073.0,314505,337211,333351.0,273634.0,208624.0,182140.0,167055.0,142787.0
1466,4943,US,2970319,39.4969444444,-85.4697222222,,Census,Unincorporated community,IN,"Milroy, Indiana",0,0,0,0,0,0,0,0,0,0,0,0,0,0,0.0,0,0,0.0,0.0,0.0,0.0,0.0,0.0
1535,10993,US,112362,40.7627777778,-87.1516666667,,Census,Town,IN,"Remington, Indiana",0,0,0,0,0,0,0,0,390,761,940,1120,982,1044,879.0,869,1053,1207.0,1127.0,1268.0,1247.0,1323.0,1185.0
1655,5543,US,13713965,39.0347222222,-86.9002777778,,Census,Township,IN,"Richland Township, Greene County, Indiana",0,0,0,0,0,0,0,0,0,0,0,0,0,0,0.0,0,0,0.0,0.0,0.0,0.0,5008.0,5019.0
1657,10767,US,112626,38.8383333333,-84.8277777778,,Census,Town,IN,"Patriot, Indiana",0,0,0,0,0,0,0,0,0,467,434,408,340,289,288.0,257,315,277.0,216.0,265.0,190.0,202.0,209.0
1676,10022,US,112684,39.8127777778,-85.1380555556,,Census,Town,IN,"East Germantown, Indiana",0,0,0,0,0,0,0,465,536,451,338,305,302,267,291.0,305,389,367.0,447.0,438.0,372.0,243.0,410.0
1787,10630,US,112178,40.3438888889,-86.6661111111,,Census,Town,IN,"Mulberry, Indiana",0,0,0,0,0,0,0,0,0,229,0,0,0,0,0.0,0,950,1062.0,1075.0,1225.0,1262.0,1387.0,1254.0
1844,9093,US,112148,40.6680555556,-86.7236111111,,Census,Town,IN,"Yeoman, Indiana",0,0,0,0,0,0,0,0,0,0,0,0,0,0,160.0,160,180,172.0,145.0,154.0,131.0,96.0,139.0
1977,32229,US,112457,39.7177777778,-86.0913888889,,Census,City,IN,"Beech Grove, Indiana",0,0,0,0,0,0,0,0,0,0,0,0,568,1459,3552.0,3847,5612,10973.0,13559.0,13196.0,13383.0,14880.0,14192.0
2019,11201,US,112115,40.9727777778,-84.8686111111,,Census,Town,IN,"Monroeville, Indiana",0,0,0,0,0,0,0,0,630,578,673,690,910,864,897.0,994,1150,1294.0,1353.0,1372.0,1232.0,1236.0,1235.0
2076,29757,US,96088,41.4,-85.42,,Census,US County,IN,"Noble County, Indiana",0,0,0,0,0,2702,7946,14915,20389,22956,23359,23533,24009,22470,22404.0,22776,25075,28162.0,31382.0,35443.0,37877.0,46275.0,47536.0
2114,12076,US,112217,41.4313888889,-85.0225,,Census,Town,IN,"Waterloo, Indiana",0,0,0,0,0,0,0,343,1259,1376,1478,1244,1167,1172,1244.0,1257,1414,1432.0,1876.0,1951.0,2040.0,2200.0,2242.0
2122,13103,US,112588,39.5888888889,-85.8619444444,,Census,Town,IN,"Fairland, Indiana",0,0,0,0,0,0,0,0,0,367,513,0,0,0,0.0,0,0,0.0,0.0,0.0,0.0,0.0,315.0
2158,10303,US,112584,39.7391666667,-85.5705555556,,Census,Town,IN,"Carthage, Indiana",0,0,0,0,0,0,0,0,481,500,482,1028,873,902,931.0,937,1065,1043.0,946.0,886.0,887.0,928.0,927.0
2175,14261,US,112174,40.2822222222,-86.5113888889,,Census,City,IN,"Frankfort, Indiana",0,0,0,0,0,0,582,773,1300,2803,5919,7100,8634,11585,12196.0,13706,15028,15302.0,14956.0,15168.0,14754.0,16662.0,16422.0
2323,12156,US,112533,37.91,-86.74,,Census,City,IN,"Cannelton, Indiana",0,0,0,0,0,0,0,2155,2481,1834,1991,2188,2130,2008,2265.0,2240,2027,1829.0,2280.0,2373.0,1786.0,1209.0,1563.0
2483,23396,US,112411,41.4216666667,-87.3561111111,,Census,City,IN,"Crown Point, Indiana",0,0,0,0,0,0,0,0,0,1708,1907,2336,2526,3232,4046.0,4643,5839,8443.0,10931.0,16455.0,17728.0,19806.0,27317.0
2542,10115,US,112528,39.8466666667,-87.1872222222,,Census,Town,IN,"Marshall, Indiana",0,0,0,0,0,0,0,0,0,0,0,0,334,334,293.0,321,326,360.0,365.0,413.0,379.0,360.0,324.0
2550,11059,US,112515,41.3638888889,-85.2363888889,,Census,Town,IN,"Avilla, Indiana",0,0,0,0,0,0,0,0,138,446,576,658,579,537,559.0,534,669,919.0,881.0,1272.0,1366.0,2049.0,2401.0
2556,26038,US,96133,39.3,-85.5,,Census,US County,IN,"Decatur County, Indiana",0,0,0,0,5887,12171,15107,17294,19053,19779,19277,19518,18793,17813,17308.0,17722,18218,20019.0,22738.0,23841.0,23645.0,24555.0,25740.0
2603,66428,US,112554,38.1286111111,-87.9341666667,,Census,Town,IN,"New Harmony, Indiana",0,0,0,0,0,0,0,825,836,1095,1197,1341,1229,1126,1022.0,1390,1360,1121.0,971.0,945.0,846.0,916.0,789.0
2687,35046,US,112134,40.5530555556,-85.2813888889,,Census,City,IN,"Montpelier, Indiana",0,0,0,0,0,0,0,0,231,618,808,3405,2786,2297,1859.0,1800,1826,1954.0,2093.0,1995.0,1880.0,1929.0,1805.0
2716,36060,US,96086,38.54,-86.5,,Census,US County,IN,"Orange County, Indiana",0,0,0,5368,7901,9602,10809,12076,13497,14363,14678,16854,17192,16974,17459.0,17311,16879,16877.0,16968.0,18677.0,18409.0,19306.0,19840.0
2766,11579,US,112625,39.0969444444,-87.4063888889,,Census,City,IN,"Sullivan, Indiana",0,0,0,0,0,0,0,949,1396,2161,2222,3118,4115,4489,5306.0,5077,5423,4979.0,4683.0,4774.0,4663.0,4617.0,4249.0
2789,8039,US,112485,40.82,-86.1138888889,,Census,Census-designated place,IN,"Mexico, Indiana",0,0,0,0,0,0,0,0,0,0,0,0,0,0,0.0,0,0,0.0,0.0,0.0,0.0,0.0,0.0
2791,9905,US,152187,39.7808333333,-86.0522222222,,Census,Town,IN,"Warren Park, Indiana",0,0,0,0,0,0,0,0,0,0,0,0,0,0,164.0,237,336,852.0,1887.0,1803.0,1763.0,1656.0,1480.0
2816,5411,US,37215179,39.41,-85.3075,,Census,Census-designated place,IN,"Lake Santee, Indiana",0,0,0,0,0,0,0,0,0,0,0,0,0,0,0.0,0,0,0.0,0.0,0.0,0.0,0.0,0.0
2847,15826,US,112182,38.1991666667,-86.3422222222,,Census,Town,IN,"Leavenworth, Indiana",0,0,0,0,0,0,0,0,567,716,792,655,690,611,418.0,394,358,387.0,330.0,356.0,320.0,353.0,238.0
2866,5463,US,38915566,41.4416666667,-87.1141666667,,Census,Census-designated place,IN,"Aberdeen, Porter County, Indiana",0,0,0,0,0,0,0,0,0,0,0,0,0,0,0.0,0,0,0.0,0.0,0.0,0.0,0.0,0.0
2900,10043,US,112372,38.8905555556,-85.5163888889,,Census,Town,IN,"Dupont, Indiana",0,0,0,0,0,0,0,0,0,192,0,0,0,0,0.0,0,0,0.0,357.0,392.0,391.0,392.0,339.0
2918,11607,US,112112,41.2277777778,-85.1694444444,,Census,Town,IN,"Huntertown, Indiana",0,0,0,0,0,0,0,0,0,0,0,0,0,0,0.0,0,0,0.0,775.0,1265.0,1330.0,1771.0,4810.0
2952,15641,US,112655,39.4636111111,-87.4488888889,,Census,Town,IN,"West Terre Haute, Indiana",0,0,0,0,0,0,0,0,0,0,0,651,3083,4310,3588.0,3729,3357,3006.0,2704.0,2806.0,2495.0,2330.0,2236.0
2988,28797,US,96131,,,,Census,US County,IN,"Delaware County, Indiana",0,0,0,3677,2374,8843,10843,15753,19030,22926,30131,49624,51414,56377,67270.0,74963,90252,110938.0,129219.0,128587.0,119659.0,118769.0,117671.0
3046,10519,US,112647,39.6816666667,-87.4136111111,,Census,Town,IN,"Fairview Park, Indiana",0,0,0,0,0,0,0,0,0,0,0,0,630,1301,1106.0,1074,902,1039.0,1067.0,1545.0,1446.0,1496.0,1386.0
3142,9496,US,112358,38.8247222222,-86.1705555556,,Census,Town,IN,"Medora, Indiana",0,0,0,0,0,0,0,0,0,0,0,0,0,659,654.0,722,627,716.0,788.0,853.0,805.0,565.0,693.0
3217,8169,US,15173497,38.8469444444,-86.0977777778,,Census,Unincorporated community,IN,"Vallonia, Indiana",0,0,0,0,0,0,0,0,0,0,0,0,0,0,0.0,0,0,0.0,0.0,0.0,0.0,0.0,0.0
3269,10583,US,112173,40.1938888889,-86.6680555556,,Census,Town,IN,"Colfax, Indiana",0,0,0,0,0,0,0,0,187,638,730,767,801,793,690.0,717,725,725.0,633.0,823.0,727.0,768.0,691.0
3287,8343,US,112196,39.1663888889,-84.8416666667,,Census,Census-designated place,IN,"Hidden Valley, Indiana",0,0,0,0,0,0,0,0,0,0,0,0,0,0,0.0,0,0,0.0,0.0,0.0,0.0,0.0,0.0
3335,13863,US,112226,40.1752777778,-85.4819444444,,Census,Town,IN,"Yorktown, Indiana",0,0,0,0,0,0,0,0,0,331,0,0,0,797,909.0,906,1109,1137.0,1673.0,3945.0,4106.0,4785.0,9405.0
3381,10311,US,112283,40.3869444444,-85.4958333333,,Census,Town,IN,"Matthews, Indiana",0,0,0,0,0,0,0,0,0,0,0,0,688,502,513.0,468,501,627.0,728.0,745.0,571.0,595.0,596.0
3422,26872,US,96082,38.4,-87.23,,Census,US County,IN,"Pike County, Indiana",0,0,0,1472,2475,4769,7720,10078,13779,16383,18544,20486,19684,18684,16361.0,17045,14995,12797.0,12281.0,13465.0,12509.0,12837.0,12845.0
3434,28477,US,96108,38.79,-85.44,,Census,US County,IN,"Jefferson County, Indiana",0,0,0,8038,11465,16614,23916,25036,29741,25977,24507,22913,20483,20709,19182.0,19912,21613,24061.0,27006.0,30419.0,29797.0,31705.0,32428.0
3448,10222,US,112571,40.1902777778,-85.2033333333,,Census,Town,IN,"Parker City, Indiana",0,0,0,0,0,0,0,0,0,0,0,909,800,697,794.0,786,915,1181.0,1179.0,1414.0,1323.0,1416.0,1419.0
3560,9644,US,112249,40.1086111111,-87.1591666667,,Census,Town,IN,"Hillsboro, Indiana",0,0,0,0,0,0,0,0,0,266,0,500,528,537,448.0,516,526,517.0,505.0,561.0,499.0,489.0,538.0
3579,39267,US,112423,41.5513888889,-87.5013888889,,Census,Town,IN,"Munster, Indiana",0,0,0,0,0,0,0,0,0,0,0,0,543,605,975.0,1751,4753,10313.0,16514.0,20671.0,19949.0,21511.0,23603.0
3606,10347,US,112409,41.5255555556,-85.3661111111,,Census,Town,IN,"Wolcottville, Indiana",0,0,0,0,0,0,0,0,0,428,0,659,627,666,646.0,612,672,720.0,915.0,890.0,879.0,933.0,998.0
3617,36668,US,96064,40.39,-86.89,,Census,US County,IN,"Tippecanoe County, Indiana",0,0,0,0,7187,13724,19377,25726,33515,35966,35078,38659,40063,42813,47535.0,51020,74473,89122.0,109378.0,121702.0,130598.0,148955.0,172780.0
3624,5836,US,41089912,39.3111111111,-86.1227777778,,Census,Census-designated place,IN,"Cordry Sweetwater Lakes, Indiana",0,0,0,0,0,0,0,0,0,0,0,0,0,0,0.0,0,0,0.0,0.0,0.0,0.0,0.0,0.0
3679,9141,US,112344,39.8083333333,-85.2902777778,,Census,Town,IN,"Straughn, Indiana",0,0,0,0,0,0,0,0,0,143,200,186,234,261,212.0,275,345,349.0,329.0,331.0,318.0,263.0,222.0
3718,10826,US,112402,41.0725,-85.8905555556,,Census,Town,IN,"Silver Lake, Indiana",0,0,0,0,0,0,0,0,0,534,570,504,493,452,442.0,471,472,514.0,588.0,576.0,528.0,546.0,915.0
3767,27845,US,96052,40.75,-86.86,,Census,US County,IN,"White County, Indiana",0,0,0,0,0,1832,4761,8258,10554,13795,15671,19138,17602,17351,15831.0,17037,18042,19709.0,20995.0,23867.0,23265.0,25267.0,24643.0
3797,17270,US,112156,38.4519444444,-85.6672222222,,Census,City,IN,"Charlestown, Indiana",0,0,0,0,0,0,250,0,2204,1103,888,915,864,820,859.0,939,4785,5726.0,5933.0,5596.0,5889.0,5993.0,7585.0
3816,22139,US,112138,40.0522222222,-86.4716666667,,Census,City,IN,"Lebanon, Indiana",0,0,0,0,0,0,0,892,1572,2625,3682,4465,5474,6257,6445.0,6529,7631,9523.0,9766.0,11456.0,12059.0,14222.0,15792.0
3831,10717,US,112400,41.1997222222,-85.7066666667,,Census,Town,IN,"Pierceton, Indiana",0,0,0,0,0,0,0,293,1063,1084,897,886,817,1018,878.0,895,973,1186.0,1175.0,1086.0,1030.0,695.0,1015.0
3978,23252,US,112378,39.4897222222,-86.0566666667,,Census,City,IN,"Franklin, Indiana",0,0,0,0,0,0,882,2367,2707,3110,3781,4005,4502,4909,5682.0,6264,7316,9453.0,11477.0,11563.0,12907.0,19463.0,23712.0
4018,8091,US,112193,39.2180555556,-84.8622222222,,Census,Census-designated place,IN,"Bright, Indiana",0,0,0,0,0,0,0,0,0,0,0,0,0,0,0.0,0,0,0.0,0.0,0.0,0.0,0.0,0.0
4034,10506,US,112552,38.2044444444,-87.915,,Census,Town,IN,"Griffin, Indiana",0,0,0,0,0,0,0,0,0,0,0,0,275,341,208.0,386,249,212.0,178.0,192.0,171.0,160.0,172.0
4104,9557,US,112258,39.5008333333,-85.1869444444,,Census,Town,IN,"Laurel, Indiana",0,0,0,0,0,0,0,670,741,670,0,600,503,515,516.0,533,680,848.0,753.0,819.0,544.0,579.0,512.0
4114,30788,US,24417423,41.3669444444,-85.0588888889,,Census,US County,IN,"DeKalb County, Indiana",0,0,0,0,0,1968,8251,13880,17167,20225,24307,25711,25054,25600,24911.0,24756,26023,28271.0,30837.0,33606.0,35324.0,40285.0,42223.0
4134,6009,US,15129595,40.6277777778,-85.7455555556,,Census,Census-designated place,IN,"Jalapa, Indiana",0,0,0,0,0,0,0,0,0,0,0,0,0,0,0.0,0,0,0.0,0.0,0.0,0.0,0.0,0.0
4182,5071,US,14174910,40.6691666667,-85.8283333333,,Census,Census-designated place,IN,"Somerset, Indiana",0,0,0,0,0,0,0,0,0,0,0,0,0,0,0.0,0,0,0.0,0.0,0.0,0.0,0.0,0.0
4197,8332,US,112445,40.1252777778,-85.6875,,Census,Town,IN,"Country Club Heights, Indiana",0,0,0,0,0,0,0,0,0,0,0,0,0,0,0.0,0,0,83.0,118.0,97.0,112.0,91.0,79.0
4213,12209,US,112638,39.6358333333,-84.9288888889,,Census,Town,IN,"Liberty, Indiana",0,0,0,0,0,0,420,572,700,1096,1314,1449,1338,1292,1241.0,1496,1730,1745.0,1831.0,1844.0,2051.0,2061.0,2133.0
4260,11192,US,112561,39.7616666667,-86.8111111111,,Census,Town,IN,"Bainbridge, Indiana",0,0,0,0,0,0,0,0,0,420,473,431,449,475,406.0,414,455,603.0,703.0,644.0,682.0,743.0,746.0
4307,10327,US,112308,39.8905555556,-85.5797222222,,Census,Town,IN,"Shirley, Indiana",0,0,0,0,0,0,0,0,0,0,0,381,1519,1079,761.0,952,1087,1038.0,958.0,919.0,817.0,806.0,830.0
4373,16962,US,112321,39.7630555556,-86.3877777778,,Census,Town,IN,"Avon, Indiana",0,0,0,0,0,0,0,0,0,0,0,0,0,0,0.0,0,0,0.0,0.0,0.0,0.0,6248.0,12446.0
4418,11242,US,112397,41.1730555556,-86.0391666667,,Census,Town,IN,"Mentone, Indiana",0,0,0,0,0,0,0,0,0,0,780,757,728,678,704.0,731,798,813.0,830.0,973.0,912.0,898.0,1001.0
4507,11179,US,112183,38.3705555556,-86.3433333333,,Census,Town,IN,"Marengo, Indiana",0,0,0,0,0,0,0,0,0,0,669,700,686,747,806.0,812,801,803.0,767.0,892.0,856.0,829.0,828.0
4546,32747,US,96103,41.6416666667,-85.4166666667,,Census,US County,IN,"LaGrange County, Indiana",0,0,0,0,0,3664,8387,11366,14148,15630,15615,15284,15148,14009,13780.0,14352,15347,17380.0,20890.0,25550.0,29477.0,34909.0,37128.0
4554,10979,US,112387,38.8113888889,-87.2516666667,,Census,Town,IN,"Edwardsport, Indiana",0,0,0,0,0,0,0,0,0,777,670,0,0,0,0.0,0,0,533.0,482.0,459.0,380.0,363.0,303.0
4665,12143,US,112163,38.3869444444,-85.7575,,Census,Town,IN,"Sellersburg, Indiana",0,0,0,0,0,0,0,0,0,169,508,761,676,915,1050.0,1121,1664,2679.0,3177.0,3211.0,5745.0,6071.0,6128.0
4685,17922,US,112665,40.2869444444,-87.2919444444,,Census,Town,IN,"Williamsport, Indiana",0,0,0,0,0,0,279,520,988,913,1027,1245,1243,1088,1053.0,1222,1241,1353.0,1661.0,1747.0,1798.0,1935.0,1898.0
4806,6248,US,7345863,40.4741666667,-87.0294444444,,Census,Census-designated place,IN,"Montmorenci, Indiana",0,0,0,0,0,0,0,0,0,0,0,0,0,0,0.0,0,0,0.0,0.0,0.0,0.0,0.0,0.0
4930,9705,US,112476,41.4577777778,-86.3088888889,,Census,Town,IN,"La Paz, Indiana",0,0,0,0,0,0,0,0,0,84,0,0,263,274,375.0,429,512,545.0,604.0,651.0,562.0,489.0,561.0
4932,17315,US,112325,39.7608333333,-86.5177777778,,Census,Town,IN,"Danville, Indiana",0,0,0,0,0,0,386,895,1040,1598,1569,1802,1640,1729,1930.0,2093,2802,3287.0,3771.0,4220.0,4345.0,6418.0,9001.0
4946,4872,US,13713972,39.1308333333,-87.0797222222,,Census,Township,IN,"Smith Township, Greene County, Indiana",0,0,0,0,0,0,0,0,0,0,0,0,0,0,0.0,0,0,0.0,0.0,0.0,0.0,344.0,383.0
4947,24760,US,34084766,38.69,-85.74,,Census,US County,IN,"Scott County, Indiana",0,0,0,2334,3092,4242,5885,7303,7873,8343,7833,8307,8323,7424,6664.0,8978,11519,14463.0,17144.0,20422.0,20991.0,22960.0,24181.0
4987,35970,US,96068,41.2666666667,-86.65,,Census,County,IN,"Starke County, Indiana",0,0,0,0,0,149,557,2195,3888,5105,7339,10431,10567,10278,10620.0,12258,15282,17911.0,19280.0,21997.0,22747.0,23556.0,23363.0
5051,4917,US,15289677,38.8225,-86.8869444444,,Census,Census-designated place,IN,"Burns City, Indiana",0,0,0,0,0,0,0,0,0,0,0,0,0,0,0.0,0,0,0.0,0.0,0.0,0.0,0.0,0.0
5108,12352,US,112583,39.0675,-85.255,,Census,Town,IN,"Versailles, Indiana",0,0,0,0,0,0,412,0,495,455,421,501,486,413,523.0,582,886,1158.0,1080.0,1560.0,1791.0,1784.0,2113.0
5126,10926,US,112278,40.4880555556,-85.6055555556,,Census,City,IN,"Gas City, Indiana",0,0,0,0,0,0,0,0,0,145,145,3622,3224,2870,3087.0,3488,3787,4469.0,5742.0,6370.0,6296.0,5940.0,5965.0
5186,7020,US,112418,41.3316666667,-87.4038888889,,Census,Cdp,IN,"Lake Dalecarlia, Indiana",0,0,0,0,0,0,0,0,0,0,0,0,0,0,0.0,0,0,0.0,0.0,0.0,1276.0,1285.0,1355.0
5193,11233,US,112538,38.3822222222,-87.2138888889,,Census,Town,IN,"Winslow, Indiana",0,0,0,0,0,0,0,0,0,199,0,536,932,1140,1175.0,1382,1322,1089.0,1030.0,1017.0,875.0,881.0,864.0
5233,43552,US,112487,39.1622222222,-86.5291666667,,Census,City,IN,"Bloomington, Indiana",0,0,0,0,0,0,1305,2419,1032,2756,4018,6460,8838,11595,18227.0,20870,28163,31357.0,43262.0,52044.0,60633.0,69291.0,80405.0
5252,11929,US,112490,39.9836111111,-87.055,,Census,Town,IN,"Alamo, Indiana",0,0,0,0,0,0,0,0,0,220,272,241,209,167,163.0,155,163,144.0,145.0,178.0,112.0,137.0,66.0
5263,11766,US,112498,39.8783333333,-87.0430555556,,Census,Town,IN,"Waveland, Indiana",0,0,0,0,0,0,0,0,0,592,663,648,676,590,542.0,530,553,549.0,557.0,559.0,474.0,416.0,420.0
5331,26612,US,96053,40.73,-85.22,,Census,US County,IN,"Wells County, Indiana",0,0,0,0,0,1822,6152,10844,13585,18442,21514,23449,22418,20509,18411.0,19099,19564,21220.0,23821.0,25401.0,25948.0,27600.0,27636.0
5379,11360,US,112199,39.1125,-85.0886111111,,Census,Town,IN,"Moores Hill, Indiana",0,0,0,0,0,0,206,0,617,333,469,338,424,285,349.0,359,445,476.0,616.0,566.0,649.0,635.0,597.0
5399,13991,US,112230,38.2969444444,-86.9544444444,,Census,City,IN,"Huntingburg, Indiana",0,0,0,0,0,0,0,0,0,781,3167,2527,2464,3261,3440.0,3816,4056,4146.0,4794.0,5376.0,5242.0,5598.0,6057.0
5430,7491,US,112609,41.2308333333,-86.5880555556,,Census,Census-designated place,IN,"Bass Lake, Indiana",0,0,0,0,0,0,0,0,0,0,0,0,0,0,0.0,0,0,0.0,0.0,0.0,0.0,0.0,0.0
5453,15626,US,112192,39.0586111111,-84.9036111111,,Census,City,IN,"Aurora, Indiana",0,0,0,0,0,0,1954,2990,3304,4435,3929,3645,4410,4299,4386.0,4828,4780,4119.0,4293.0,3816.0,3825.0,3965.0,3750.0
5463,32704,US,112444,40.1,-85.6813888889,,Census,City,IN,"Anderson, Indiana",0,0,0,0,0,0,5727,6527,9186,11425,10019,20178,22476,29767,39804.0,41572,46820,49061.0,70787.0,64695.0,59459.0,59734.0,56129.0
5477,33704,US,112491,40.0388888889,-86.8966666667,,Census,City,IN,"Crawfordsville, Indiana",0,0,0,0,0,1327,1513,1922,3701,5251,6089,6649,9371,10139,10355.0,11089,12851,14231.0,13842.0,13325.0,13584.0,15243.0,15915.0
5491,19472,US,112525,39.3497222222,-86.6655555556,,Census,Town,IN,"Gosport, Indiana",0,0,0,0,0,0,548,0,860,740,720,726,776,700,722.0,729,672,646.0,692.0,729.0,764.0,715.0,826.0
5533,35093,US,96127,38.32,-85.9,,Census,US County,IN,"Floyd County, Indiana",0,0,0,2776,6361,9454,14875,20183,23300,24590,29458,30118,30293,30661,34655.0,35061,43955,51397.0,55622.0,61169.0,64404.0,70823.0,74578.0
5548,10409,US,112324,39.6875,-86.6691666667,,Census,Town,IN,"Coatesville, Indiana",0,0,0,0,0,0,0,0,0,499,0,0,472,522,434.0,377,444,497.0,453.0,474.0,469.0,516.0,523.0
5583,47248,US,112631,40.4172222222,-86.8786111111,,Census,City,IN,"Lafayette, Indiana",0,0,0,0,0,0,6129,9387,13506,14860,16243,18116,20081,22486,26240.0,28798,35558,42330.0,44955.0,43011.0,43764.0,56397.0,67140.0
5610,11984,US,112307,39.7225,-85.8897222222,,Census,Town,IN,"New Palestine, Indiana",0,0,0,0,0,0,0,0,0,391,404,444,450,442,450.0,448,504,725.0,863.0,749.0,671.0,1264.0,2055.0
5621,5175,US,14369172,39.5741666667,-85.6194444444,,Census,Census-designated place,IN,"Manilla, Indiana",0,0,0,0,0,0,0,0,0,0,0,0,0,0,0.0,0,0,0.0,0.0,0.0,0.0,0.0,0.0
5677,41506,US,96147,41.09,-85.06,,Census,US County,IN,"Allen County, Indiana",0,0,0,0,996,5942,16919,29328,43494,54763,66689,77270,93386,114303,146743.0,155084,183722,232196.0,280455.0,294335.0,300836.0,331849.0,355329.0
5735,10877,US,112315,38.2386111111,-85.9855555556,,Census,Town,IN,"Lanesville, Indiana",0,0,0,0,0,0,0,0,157,280,277,324,290,269,273.0,267,314,346.0,586.0,570.0,512.0,614.0,564.0
5762,9855,US,112513,40.9525,-87.2983333333,,Census,Town,IN,"Mount Ayr, Indiana",0,0,0,0,0,0,0,0,0,0,0,0,231,199,216.0,207,222,186.0,194.0,207.0,151.0,147.0,122.0
5894,10010,US,112294,39.1186111111,-86.9797222222,,Census,Town,IN,"Worthington, Indiana",0,0,0,0,0,0,0,0,0,1185,1448,1448,1732,1853,1687.0,1729,1627,1635.0,1691.0,1574.0,1473.0,1481.0,1463.0
6006,17241,US,112214,41.3477777778,-85.1336111111,,Census,City,IN,"Garrett, Indiana",0,0,0,0,0,0,0,0,0,1268,2767,3910,4149,4796,4428.0,4285,4291,4364.0,4715.0,4751.0,5349.0,5803.0,6286.0
6009,10109,US,112556,40.9858333333,-86.8838888889,,Census,Town,IN,"Francesville, Indiana",0,0,0,0,0,0,0,189,281,368,403,596,729,648,712.0,804,856,1002.0,1015.0,944.0,969.0,905.0,879.0
6027,48892,US,96129,,,,Census,US County,IN,"Elkhart County, Indiana",0,0,0,0,0,935,12690,20986,26026,33454,39201,45052,49008,56384,68875.0,72634,84512,106790.0,126529.0,137330.0,156198.0,182791.0,197559.0
6050,28713,US,16760255,41.5819444444,-87.1866666667,,Census,City,IN,"Portage, Indiana",0,0,0,0,0,0,0,0,0,0,0,0,0,0,0.0,0,2116,11822.0,19127.0,27409.0,29060.0,33496.0,36828.0
6058,10565,US,112634,40.2875,-86.23,,Census,Town,IN,"Kempton, Indiana",0,0,0,0,0,0,0,0,0,206,0,0,600,498,469.0,403,438,480.0,469.0,410.0,362.0,380.0,335.0
6078,19124,US,112539,41.6841666667,-86.9855555556,,Census,Town,IN,"Beverly Shores, Indiana",0,0,0,0,0,0,0,0,0,0,0,0,0,0,0.0,0,488,773.0,946.0,864.0,622.0,708.0,613.0
6105,27007,US,112273,38.3536111111,-87.5705555556,,Census,City,IN,"Princeton, Indiana",0,0,0,0,0,0,806,1397,1847,2566,3076,6041,6448,7132,7505.0,7786,7673,7906.0,7431.0,8976.0,8127.0,8175.0,8644.0
6178,6000,US,14219301,38.7841666667,-84.9244444444,,Census,Census-designated place,IN,"Florence, Indiana",0,0,0,0,0,0,0,0,0,0,0,0,0,0,0.0,0,0,0.0,0.0,0.0,0.0,0.0,0.0
6241,127988,US,11232,41.0805555556,-85.1391666667,,Census,City,IN,"Fort Wayne, Indiana",0,0,0,0,0,0,4282,10388,17718,26880,35393,45115,63933,86549,114946.0,118410,133607,161776.0,178269.0,172196.0,173072.0,205727.0,253691.0
6251,6688,US,112548,41.5436111111,-87.1366666667,,Census,Census-designated place,IN,"South Haven, Indiana",0,0,0,0,0,0,0,0,0,0,0,0,0,0,0.0,0,0,0.0,4876.0,6679.0,6112.0,5619.0,5282.0
6260,28635,US,96143,40.05,-86.47,,Census,US County,IN,"Boone County, Indiana",0,0,0,0,621,8121,11631,16753,22593,25922,26572,26321,24673,23575,22290.0,22081,23993,27543.0,30870.0,36446.0,38147.0,46107.0,56640.0
6263,9965,US,112185,38.5611111111,-86.9477777778,,Census,Town,IN,"Alfordsville, Indiana",0,0,0,0,0,0,0,0,0,119,0,0,0,0,90.0,106,101,121.0,105.0,132.0,74.0,112.0,101.0
6283,14522,US,112414,41.5308333333,-87.4258333333,,Census,Town,IN,"Griffith, Indiana",0,0,0,0,0,0,0,0,0,0,0,0,523,630,1176.0,2116,4470,9483.0,18168.0,17026.0,17916.0,17334.0,16893.0
6338,4803,US,15269134,41.4119444444,-86.78,,Census,Census-designated place,IN,"Hanna, Indiana",0,0,0,0,0,0,0,0,0,0,0,0,0,0,0.0,0,0,0.0,0.0,0.0,0.0,0.0,0.0
6340,43272,US,57251,40.75,-84.94,,Census,US County,IN,"Adams County, Indiana",0,0,0,0,0,2264,5797,9252,11382,15385,20181,22232,21840,20503,19957.0,21254,22393,24643.0,26871.0,29619.0,31095.0,33625.0,34387.0
6376,12282,US,112244,38.3,-85.9708333333,,Census,Town,IN,"Georgetown, Floyd County, Indiana",0,0,0,0,0,0,0,0,0,218,256,350,331,401,374.0,377,449,643.0,1273.0,1494.0,2092.0,2227.0,2876.0
6385,19564,US,112300,40.05,-86.0213888889,,Census,City,IN,"Noblesville, Indiana",0,0,0,0,0,0,664,1115,1435,2221,3054,4792,5073,4758,4811.0,5575,6567,7664.0,7548.0,12056.0,17655.0,28590.0,51969.0
6427,10200,US,112202,39.2613888889,-84.8208333333,,Census,Town,IN,"West Harrison, Indiana",0,0,0,0,0,0,0,0,0,290,320,304,281,258,279.0,311,308,341.0,395.0,328.0,318.0,284.0,289.0
6473,10312,US,112124,39.0608333333,-85.8897222222,,Census,Town,IN,"Jonesville, Indiana",0,0,0,0,0,0,0,0,206,266,0,268,213,213,162.0,181,225,196.0,202.0,213.0,221.0,220.0,177.0
6482,5196,US,7374681,40.2861111111,-86.7711111111,,Census,Census-designated place,IN,"Stockwell, Indiana",0,0,0,0,0,0,0,0,0,0,0,0,0,0,0.0,0,0,0.0,0.0,0.0,0.0,0.0,0.0
6503,9216,US,112140,40.0641666667,-86.4633333333,,Census,Town,IN,"Ulen, Indiana",0,0,0,0,0,0,0,0,0,0,0,0,0,0,74.0,99,83,130.0,138.0,193.0,50.0,123.0,117.0
6531,13879,US,112304,39.9347222222,-85.8472222222,,Census,Town,IN,"Fortville, Indiana",0,0,0,0,0,0,0,0,387,634,685,1006,1174,1213,1289.0,1463,1786,2209.0,2460.0,2787.0,2690.0,3444.0,3929.0
6588,8557,US,112456,40.1183333333,-85.6955555556,,Census,Town,IN,"Woodlawn Heights, Indiana",0,0,0,0,0,0,0,0,0,0,0,0,0,0,19.0,59,31,29.0,51.0,109.0,109.0,73.0,79.0
6626,12915,US,112611,41.2941666667,-86.6225,,Census,City,IN,"Knox, Indiana",0,0,0,0,0,0,0,124,244,316,790,1466,1644,1577,1815.0,2165,3034,3458.0,3519.0,3674.0,3705.0,3721.0,3704.0
6739,10919,US,112465,39.6613888889,-86.1186111111,,Census,City,IN,"Southport, Indiana",0,0,0,0,0,0,0,0,0,388,324,285,352,458,521.0,549,730,892.0,2342.0,2266.0,1969.0,1852.0,1712.0
6744,10394,US,112680,39.7416666667,-84.8511111111,,Census,Town,IN,"Boston, Indiana",0,0,0,0,0,0,0,0,0,137,146,134,122,190,184.0,182,257,240.0,210.0,189.0,159.0,177.0,138.0
6748,18430,US,112165,39.525,-87.1275,,Census,City,IN,"Brazil, Indiana",0,0,0,0,0,0,84,0,2186,3441,5905,7786,9340,9293,8744.0,8126,8434,8853.0,8163.0,7852.0,7640.0,8188.0,7912.0
6761,10225,US,112222,40.3397222222,-85.3536111111,,Census,Town,IN,"Eaton, Indiana",0,0,0,0,0,0,0,0,0,208,0,1567,1428,1214,1273.0,1453,1598,1529.0,1594.0,1804.0,1614.0,1603.0,1805.0
6796,7332,US,9533580,39.4497222222,-85.1394444444,,Census,Census-designated place,IN,"Metamora, Indiana",0,0,0,0,0,0,0,0,0,0,0,0,0,0,0.0,0,0,0.0,0.0,0.0,0.0,0.0,0.0
6891,10597,US,112306,39.8966666667,-85.9219444444,,Census,Town,IN,"McCordsville, Indiana",0,0,0,0,0,0,0,0,168,180,0,0,0,0,0.0,0,0,0.0,0.0,0.0,684.0,1134.0,4797.0
6903,41562,US,96139,,,,Census,US County,IN,"Clark County, Indiana",0,0,5670,8709,10686,14595,15828,20502,24770,28610,30259,31835,30260,29381,30764.0,31020,48330,62795.0,75876.0,88838.0,87774.0,96472.0,110232.0
6923,9633,US,112408,41.5388888889,-85.54,,Census,Town,IN,"Topeka, Indiana",0,0,0,0,0,0,0,0,0,0,0,0,0,512,489.0,496,557,600.0,677.0,876.0,912.0,1159.0,1153.0
6939,9088,US,152186,39.8327777778,-86.1925,,Census,Town,IN,"Spring Hill, Indiana",0,0,0,0,0,0,0,0,0,0,0,0,0,0,22.0,28,27,25.0,22.0,27.0,112.0,97.0,98.0
6943,12860,US,112543,41.3216666667,-87.2016666667,,Census,Town,IN,"Hebron, Indiana",0,0,0,0,0,0,0,0,0,715,689,794,821,832,693.0,949,1010,1401.0,1624.0,2696.0,3183.0,3596.0,3724.0
7023,18535,US,112116,41.0677777778,-85.0213888889,,Census,City,IN,"New Haven, Indiana",0,0,0,0,0,0,0,0,912,858,1079,950,1038,1237,1702.0,1872,2336,3396.0,5346.0,6714.0,9320.0,12406.0,14794.0
7066,5829,US,14330508,39.5811111111,-87.4622222222,,Census,Census-designated place,IN,"New Goshen, Indiana",0,0,0,0,0,0,0,0,0,0,0,0,0,0,0.0,0,0,0.0,0.0,0.0,0.0,0.0,0.0
7204,53455,US,112311,38.2127777778,-86.1252777778,,Census,Town,IN,"Corydon, Indiana",0,0,0,0,0,0,462,0,747,763,880,1610,1703,1785,2009.0,1865,1944,2701.0,2719.0,2724.0,2661.0,2715.0,3122.0
7360,15158,US,112131,40.5213888889,-87.2497222222,,Census,Town,IN,"Oxford, Indiana",0,0,0,0,0,0,0,318,519,713,808,949,1010,950,853.0,863,888,1108.0,1098.0,1327.0,1273.0,1271.0,1162.0
7362,9981,US,112389,38.8713888889,-87.4402777778,,Census,Town,IN,"Oaktown, Indiana",0,0,0,0,0,0,0,0,0,0,0,0,608,779,771.0,793,763,798.0,726.0,776.0,655.0,633.0,608.0
7429,6478,US,112360,40.9147222222,-87.1580555556,,Census,Cdp,IN,"Collegeville, Indiana",0,0,0,0,0,0,0,0,0,0,0,0,0,0,0.0,0,0,0.0,0.0,0.0,0.0,0.0,0.0
7457,30441,US,112433,41.6091666667,-86.7175,,Census,City,IN,"La Porte, Indiana",0,0,0,0,0,0,1824,5028,6581,6195,7126,7113,10525,15158,15755.0,16180,17882,21157.0,22140.0,21796.0,21507.0,21621.0,22053.0
7517,9621,US,112135,40.4113888889,-85.4269444444,,Census,Town,IN,"Shamrock Lakes, Indiana",0,0,0,0,0,0,0,0,0,0,0,0,0,0,0.0,0,0,0.0,0.0,206.0,207.0,168.0,231.0
7533,9353,US,112343,40.0469444444,-85.3927777778,,Census,Town,IN,"Springport, Indiana",0,0,0,0,0,0,0,0,0,118,0,0,0,139,183.0,189,217,253.0,236.0,221.0,194.0,174.0,149.0
7537,10823,US,112319,38.4075,-86.1105555556,,Census,Town,IN,"Palmyra, Indiana",0,0,0,0,0,0,0,0,0,0,0,0,252,227,288.0,274,327,470.0,483.0,692.0,621.0,633.0,930.0
7619,4326,US,27829563,39.4588888889,-87.4636111111,,Census,Census-designated place,IN,"Toad Hop, Indiana",0,0,0,0,0,0,0,0,0,0,0,0,0,0,0.0,0,0,0.0,0.0,0.0,0.0,0.0,0.0
7647,9769,US,152182,39.8472222222,-86.1730555556,,Census,Town,IN,"Rocky Ripple, Indiana",0,0,0,0,0,0,0,0,0,0,0,0,0,0,133.0,315,528,967.0,1192.0,778.0,751.0,712.0,606.0
7662,9530,US,112573,40.2372222222,-84.9172222222,,Census,Town,IN,"Saratoga, Indiana",0,0,0,0,0,0,0,0,0,136,0,0,410,327,303.0,349,333,363.0,406.0,338.0,266.0,288.0,254.0
7686,4914,US,14289105,37.9025,-87.2241666667,,Census,Census-designated place,IN,"Hatfield, Indiana",0,0,0,0,0,0,0,0,0,0,0,0,0,0,0.0,0,0,0.0,0.0,0.0,0.0,0.0,0.0
7699,5611,US,112596,41.7294444444,-86.2222222222,,Census,Census-designated place,IN,"Georgetown, St. Joseph County, Indiana",0,0,0,0,0,0,0,0,0,0,0,0,0,0,0.0,0,0,0.0,0.0,0.0,3993.0,4497.0,0.0
7744,10200,US,112164,38.3344444444,-85.655,,Census,Town,IN,"Utica, Indiana",0,0,0,0,0,0,0,0,0,525,0,0,0,0,0.0,0,0,0.0,644.0,501.0,411.0,591.0,776.0
7766,4304,US,15269177,41.7138888889,-86.5361111111,,Census,Census-designated place,IN,"Hudson Lake, Indiana",0,0,0,0,0,0,0,0,0,0,0,0,0,0,0.0,0,0,0.0,0.0,0.0,0.0,0.0,0.0
7795,9911,US,152200,39.9013888889,-86.1494444444,,Census,Town,IN,"Williams Creek, Indiana",0,0,0,0,0,0,0,0,0,0,0,0,0,0,0.0,119,288,454.0,485.0,427.0,425.0,413.0,407.0
7802,17519,US,112359,38.9563888889,-85.89,,Census,City,IN,"Seymour, Indiana",0,0,0,0,0,0,0,966,2372,4250,5337,6445,6305,7348,7508.0,8620,9629,11629.0,13352.0,15050.0,15576.0,18101.0,17503.0
7889,9407,US,112257,39.3563888889,-84.9369444444,,Census,Town,IN,"Cedar Grove, Indiana",0,0,0,0,0,0,0,0,0,219,0,0,185,200,221.0,204,193,232.0,248.0,217.0,246.0,185.0,156.0
7922,27304,US,96115,39.77,-86.51,,Census,US County,IN,"Hendricks County, Indiana",0,0,0,0,3975,11264,14083,16953,20277,22981,21498,21292,20840,20291,19725.0,20151,24594,40896.0,53974.0,69804.0,75717.0,104093.0,145448.0
7934,9554,US,112250,39.9672222222,-87.2786111111,,Census,Town,IN,"Kingman, Indiana",0,0,0,0,0,0,0,0,0,0,0,0,535,578,502.0,549,509,461.0,530.0,566.0,561.0,538.0,511.0
7943,11323,US,112293,39.0341666667,-87.0544444444,,Census,Town,IN,"Switz City, Indiana",0,0,0,0,0,0,0,0,0,187,0,0,0,0,450.0,405,328,339.0,301.0,300.0,257.0,311.0,293.0
8007,13894,US,112266,38.3333333333,-87.4472222222,,Census,Town,IN,"Francisco, Indiana",0,0,0,0,0,0,0,0,0,0,0,0,407,614,728.0,611,606,565.0,621.0,612.0,560.0,543.0,469.0
8036,14956,US,112488,39.2297222222,-86.6213888889,,Census,Town,IN,"Ellettsville, Indiana",0,0,0,0,0,0,74,0,0,585,712,708,676,721,767.0,863,855,1222.0,1627.0,3328.0,3275.0,5078.0,6378.0
8042,34618,US,96124,41.04,-86.26,,Census,US County,IN,"Fulton County, Indiana",0,0,0,0,0,1993,5982,9422,12726,14301,16746,17453,16879,16478,15038.0,15577,16565,16957.0,16984.0,19335.0,18840.0,20511.0,20836.0
8063,10339,US,112171,39.5261111111,-87.0908333333,,Census,Town,IN,"Knightsville, Indiana",0,0,0,0,0,0,0,0,1071,958,1148,1171,1081,767,704.0,677,678,722.0,788.0,763.0,740.0,624.0,872.0
8132,38431,US,96142,39.2,-86.23,,Census,US County,IN,"Brown County, Indiana",0,0,0,0,0,2364,4846,6507,8681,10264,10308,9727,7975,7019,5168.0,6189,6209,7024.0,9057.0,12377.0,14080.0,14957.0,15242.0
8145,6756,US,7215630,41.1952777778,-87.3477777778,,Census,Census-designated place,IN,"Shelby, Indiana",0,0,0,0,0,0,0,0,0,0,0,0,0,0,0.0,0,0,0.0,0.0,0.0,0.0,0.0,0.0
8195,9517,US,112110,40.7444444444,-84.9405555556,,Census,Town,IN,"Monroe, Adams County, Indiana",0,0,0,0,0,0,0,0,0,97,0,0,334,384,322.0,405,428,499.0,622.0,739.0,788.0,734.0,842.0
8207,4406,US,8870193,39.665,-87.5205555556,,Census,Census-designated place,IN,"Blanford, Indiana",0,0,0,0,0,0,0,0,0,0,0,0,0,0,0.0,0,0,0.0,0.0,0.0,0.0,0.0,0.0
8232,13620,US,112312,38.2877777778,-86.0658333333,,Census,Town,IN,"Crandall, Indiana",0,0,0,0,0,0,0,0,0,0,0,137,133,133,132.0,146,149,166.0,188.0,176.0,147.0,131.0,152.0
8376,12904,US,112126,40.49,-87.5161111111,,Census,Town,IN,"Ambia, Indiana",0,0,0,0,0,0,0,0,0,253,293,438,359,459,433.0,603,356,351.0,300.0,274.0,249.0,197.0,239.0
8399,19726,US,91017,38.1188888889,-86.9213888889,,Census,Town,IN,"Santa Claus, Indiana",0,0,0,0,0,0,0,0,0,0,0,0,0,0,0.0,0,0,0.0,63.0,514.0,927.0,2041.0,2481.0
8400,26560,US,112203,39.3402777778,-85.4836111111,,Census,City,IN,"Greensburg, Indiana",0,0,0,0,0,0,1202,1283,0,3198,3596,5034,5420,5345,5702.0,6065,6619,7492.0,8620.0,9254.0,9286.0,10260.0,11492.0
8432,5615,US,27835094,39.5630555556,-87.4216666667,,Census,Census-designated place,IN,"Tecumseh, Indiana",0,0,0,0,0,0,0,0,0,0,0,0,0,0,0.0,0,0,0.0,0.0,0.0,0.0,0.0,0.0
8453,10452,US,112687,39.8913888889,-85.0422222222,,Census,Town,IN,"Greens Fork, Indiana",0,0,0,0,0,0,0,0,0,0,0,0,0,380,333.0,413,413,474.0,444.0,426.0,416.0,371.0,423.0
8476,11743,US,112519,41.4908333333,-85.3641666667,,Census,Town,IN,"Rome City, Indiana",0,0,0,0,0,0,0,0,351,440,0,0,0,0,0.0,0,0,0.0,1354.0,1319.0,1138.0,1615.0,1361.0
8501,37255,US,112550,41.4761111111,-87.0569444444,,Census,City,IN,"Valparaiso, Indiana",0,0,0,0,0,0,522,1698,2765,4461,5090,6280,6987,6518,8079.0,8736,12028,15227.0,20020.0,22247.0,24414.0,27428.0,31730.0
8509,10763,US,112649,40.0522222222,-87.4352777778,,Census,Town,IN,"Perrysville, Indiana",0,0,0,0,0,0,742,721,690,645,507,0,0,0,435.0,451,462,497.0,510.0,532.0,443.0,502.0,456.0
8597,10177,US,33878948,38.6611111111,-86.4533333333,,Census,Town,IN,"Orleans, Indiana",0,0,0,0,0,0,0,0,905,812,857,1236,1367,1408,1422.0,1428,1531,1659.0,1834.0,2161.0,2083.0,2273.0,2142.0
8602,10373,US,15200831,38.7941666667,-85.6533333333,,Census,Census-designated place,IN,"Deputy, Indiana",0,0,0,0,0,0,0,0,0,0,0,0,0,0,0.0,0,0,0.0,0.0,0.0,0.0,0.0,0.0
8685,6102,US,13770674,40.4402777778,-85.9130555556,,Census,Township,IN,"Union Township, Howard County, Indiana",0,0,0,0,0,0,0,0,0,0,0,0,0,0,0.0,0,0,0.0,0.0,0.0,0.0,1056.0,1029.0
8724,30283,US,112379,39.6113888889,-86.1180555556,,Census,City,IN,"Greenwood, Indiana",0,0,0,0,0,0,0,0,0,448,862,1503,1608,1907,2377.0,2499,3066,7169.0,11869.0,19327.0,26265.0,36037.0,49791.0
8725,12182,US,112608,41.4638888889,-86.4844444444,,Census,Town,IN,"Walkerton, Indiana",0,0,0,0,0,0,0,0,0,754,885,1037,1003,1031,1137.0,1178,2102,2044.0,2006.0,2051.0,2061.0,2274.0,2144.0
8785,9618,US,112259,39.4075,-84.8755555556,,Census,Town,IN,"Mount Carmel, Indiana",0,0,0,0,0,0,0,0,0,182,142,153,142,127,150.0,120,134,142.0,128.0,151.0,108.0,106.0,86.0
8901,5411,US,15073471,39.4333333333,-85.3477777778,,Census,Census-designated place,IN,"Clarksburg, Indiana",0,0,0,0,0,0,0,0,0,0,0,0,0,0,0.0,0,0,0.0,0.0,0.0,0.0,0.0,0.0
8903,20070,US,112486,40.7577777778,-86.0677777778,,Census,City,IN,"Peru, Indiana",0,0,0,0,0,0,1266,2506,3617,5280,7028,8463,10910,12410,12730.0,12432,13308,14453.0,14139.0,13764.0,12843.0,12994.0,11417.0
8918,13853,US,112708,41.1586111111,-85.4877777778,,Census,City,IN,"Columbia City, Indiana",0,0,0,0,0,0,0,887,1663,2244,3027,2975,3448,3499,3805.0,4219,4745,4803.0,4911.0,5091.0,5706.0,7077.0,8750.0
8949,7525,US,112160,38.4872222222,-85.7641666667,,Census,Cdp,IN,"Memphis, Indiana",0,0,0,0,0,0,0,0,0,0,0,0,0,0,0.0,0,0,0.0,0.0,0.0,0.0,0.0,0.0
8983,5184,US,13713887,39.1227777778,-86.7527777778,,Census,Township,IN,"Beech Creek Township, Greene County, Indiana",0,0,0,0,0,0,0,0,0,0,0,0,0,0,0.0,0,0,0.0,0.0,0.0,0.0,2365.0,2595.0
9005,9879,US,112449,39.9575,-85.8025,,Census,Town,IN,"Ingalls, Indiana",0,0,0,0,0,0,0,0,0,0,0,542,322,399,430.0,442,666,873.0,888.0,909.0,889.0,1168.0,2394.0
9119,10643,US,15868841,41.525,-85.6972222222,,Census,Town,IN,"Millersburg, Indiana",0,0,0,0,0,0,0,0,52,449,394,481,428,385,344.0,384,437,489.0,618.0,809.0,854.0,868.0,903.0
9158,11278,US,112405,41.2208333333,-85.8172222222,,Census,Town,IN,"Winona Lake, Indiana",0,0,0,0,0,0,0,0,0,0,0,0,0,300,454.0,743,1366,1928.0,2811.0,2827.0,4053.0,3987.0,4908.0
9161,10989,US,112327,39.8594444444,-86.6458333333,,Census,Town,IN,"North Salem, Indiana",0,0,0,0,0,0,0,160,261,358,505,599,569,595,466.0,511,544,626.0,601.0,581.0,499.0,591.0,518.0
9183,7204,US,13770643,40.5222222222,-86.3091666667,,Census,Township,IN,"Ervin Township, Howard County, Indiana",0,0,0,0,0,0,0,0,0,0,0,0,0,0,0.0,0,0,0.0,0.0,0.0,0.0,2331.0,2227.0
9207,16101,US,112667,38.0419444444,-87.3688888889,,Census,Town,IN,"Chandler, Indiana",0,0,0,0,0,0,0,0,0,0,0,0,0,0,0.0,0,0,1784.0,2032.0,3043.0,3099.0,3094.0,2887.0
9210,8951,US,112690,39.8127777778,-85.1919444444,,Census,Town,IN,"Mount Auburn, Indiana",0,0,0,0,0,0,0,0,0,171,144,163,167,142,161.0,145,164,144.0,157.0,192.0,138.0,75.0,117.0
9214,28415,US,96122,40.52,-85.65,,Census,US County,IN,"Grant County, Indiana",0,0,0,0,0,4875,11092,15797,18487,23618,31493,54693,51426,51353,51066.0,55813,62156,75741.0,83955.0,80934.0,74169.0,73403.0,70061.0
9222,14057,US,112520,38.95,-84.8566666667,,Census,City,IN,"Rising Sun, Indiana",0,0,0,0,0,0,1674,1733,1760,1806,1689,1548,1513,1411,1379.0,1545,1930,2230.0,2305.0,2478.0,2311.0,2470.0,2304.0
9241,10070,US,112516,41.4047222222,-85.6125,,Census,Town,IN,"Cromwell, Indiana",0,0,0,0,0,0,0,0,0,350,0,0,520,420,371.0,399,449,451.0,475.0,458.0,520.0,452.0,512.0
9272,49509,US,96063,40.31,-86.05,,Census,US County,IN,"Tipton County, Indiana",0,0,0,0,0,0,3532,8170,11953,14407,18157,19116,17459,16152,15208.0,15135,15566,15856.0,16650.0,16819.0,16119.0,16577.0,15936.0
9275,10518,US,112429,41.4127777778,-87.2608333333,,Census,Town,IN,"Winfield, Indiana",0,0,0,0,0,0,0,0,0,0,0,0,0,0,0.0,0,0,0.0,0.0,0.0,637.0,2298.0,4383.0
9365,11145,US,112581,39.1291666667,-85.2919444444,,Census,Town,IN,"Osgood, Indiana",0,0,0,0,0,0,0,0,0,758,841,1035,1169,1093,1173.0,1198,1228,1434.0,1346.0,1554.0,1688.0,1669.0,1624.0
9394,14124,US,112622,39.1855555556,-87.3,,Census,Town,IN,"Hymera, Indiana",0,0,0,0,0,0,0,0,0,0,0,0,1515,1599,1152.0,1298,1069,1015.0,907.0,1054.0,771.0,833.0,801.0
9419,10157,US,112172,39.4872222222,-87.1883333333,,Census,Town,IN,"Staunton, Indiana",0,0,0,0,0,0,0,0,589,581,549,693,746,642,482.0,387,487,490.0,582.0,607.0,592.0,550.0,534.0
9440,10094,US,112695,40.6561111111,-85.2222222222,,Census,Town,IN,"Poneto, Indiana",0,0,0,0,0,0,0,0,0,0,0,332,308,270,237.0,270,244,289.0,286.0,250.0,236.0,240.0,166.0
9472,26350,US,96058,40.85,-85.79,,Census,US County,IN,"Wabash County, Indiana",0,0,0,0,0,2756,12138,17547,21305,25241,27126,28235,26926,27231,25170.0,26601,29047,32605.0,35553.0,36640.0,35069.0,34960.0,32888.0
9525,11914,US,112585,39.6144444444,-85.4486111111,,Census,City,IN,"Rushville, Indiana",0,0,0,0,0,0,742,972,1696,2515,3475,4541,4925,5498,5709.0,5960,6761,7264.0,6686.0,6113.0,5533.0,5995.0,6341.0
9537,11475,US,112496,40.195,-86.9786111111,,Census,Town,IN,"New Richmond, Indiana",0,0,0,0,0,0,0,0,0,72,0,357,464,436,391.0,368,391,394.0,381.0,403.0,312.0,349.0,333.0
9538,4337,US,17726476,38.8727777778,-84.9880555556,,Census,Census-designated place,IN,"East Enterprise, Indiana",0,0,0,0,0,0,0,0,0,0,0,0,0,0,0.0,0,0,0.0,0.0,0.0,0.0,0.0,0.0
9541,28072,US,112246,38.3019444444,-85.8213888889,,Census,City,IN,"New Albany, Indiana",0,0,0,0,2079,4226,8181,12647,15396,16423,21059,20628,20629,22992,25819.0,25414,29346,37812.0,38402.0,37103.0,36322.0,37603.0,36372.0
9558,11105,US,112629,40.2469444444,-86.7238888889,,Census,Town,IN,"Clarks Hill, Indiana",0,0,0,0,0,0,0,0,0,0,0,539,463,435,428.0,381,493,654.0,741.0,653.0,716.0,680.0,611.0
9728,39758,US,96110,41.0166666667,-87.1166666667,,Census,County,IN,"Jasper County, Indiana",0,0,0,0,0,1267,3540,4291,6354,9464,11185,14292,13044,13961,13388.0,14397,17031,18842.0,20429.0,26138.0,24960.0,30043.0,33478.0
9903,10633,US,112482,40.6591666667,-86.1016666667,,Census,Town,IN,"Bunker Hill, Indiana",0,0,0,0,0,0,0,0,0,596,538,568,668,550,528.0,561,659,1049.0,956.0,984.0,1010.0,987.0,888.0
9911,10613,US,112452,40.2716666667,-85.7241666667,,Census,Town,IN,"Orestes, Indiana",0,0,0,0,0,0,0,0,0,0,0,778,420,395,357.0,412,482,507.0,519.0,539.0,458.0,334.0,414.0
9916,10963,US,112654,39.4922222222,-87.2663888889,,Census,Town,IN,"Seelyville, Indiana",0,0,0,0,0,0,0,0,0,0,0,0,1188,915,825.0,807,898,1114.0,1195.0,1374.0,1090.0,1182.0,1029.0
10017,10370,US,112207,39.4283333333,-85.6291666667,,Census,Town,IN,"St. Paul, Indiana",0,0,0,0,0,0,0,0,0,555,0,0,0,0,678.0,695,669,702.0,785.0,976.0,1032.0,1022.0,1031.0
10209,10722,US,112435,41.7563888889,-86.8183333333,,Census,Town,IN,"Michiana Shores, Indiana",0,0,0,0,0,0,0,0,0,0,0,0,0,0,0.0,0,107,229.0,449.0,464.0,378.0,330.0,313.0
10218,9535,US,112610,41.3816666667,-86.5847222222,,Census,Town,IN,"Hamlet, Indiana",0,0,0,0,0,0,0,0,47,0,0,432,579,480,418.0,519,659,688.0,761.0,738.0,789.0,820.0,800.0
10266,9857,US,112675,38.6997222222,-85.9038888889,,Census,Town,IN,"Little York, Indiana",0,0,0,0,0,0,0,0,0,0,0,224,195,180,140.0,132,146,180.0,191.0,150.0,155.0,185.0,192.0
10289,10925,US,112180,38.1227777778,-86.42,,Census,Town,IN,"Alton, Indiana",0,0,0,0,0,0,0,0,137,259,277,238,161,128,109.0,78,71,57.0,56.0,64.0,57.0,53.0,55.0
10334,19658,US,112422,41.4855555556,-87.3352777778,,Census,Town,IN,"Merrillville, Indiana",0,0,0,0,0,0,0,0,0,0,0,0,0,0,0.0,0,0,0.0,15918.0,27677.0,27257.0,30560.0,35246.0
10336,13685,US,112710,41.0858333333,-85.6272222222,,Census,Town,IN,"South Whitley, Indiana",0,0,0,0,0,0,0,0,0,408,720,1113,1176,1074,1102.0,1118,1299,1325.0,1362.0,1575.0,1482.0,1782.0,1751.0
10465,29370,US,96074,39.1,-85.26,,Census,US County,IN,"Ripley County, Indiana",0,0,0,1822,3989,10392,14820,19054,20977,21627,19350,19881,19452,18694,18078.0,18898,18763,20641.0,21138.0,24398.0,24616.0,26523.0,28818.0
10522,4583,US,13713913,38.9275,-87.0102777778,,Census,Township,IN,"Cass Township, Greene County, Indiana",0,0,0,0,0,0,0,0,0,0,0,0,0,0,0.0,0,0,0.0,0.0,0.0,0.0,392.0,358.0
10538,10132,US,112275,38.2780555556,-87.3775,,Census,Town,IN,"Somerville, Indiana",0,0,0,0,0,0,0,0,0,0,0,0,0,0,273.0,373,353,317.0,313.0,340.0,223.0,312.0,293.0
10545,10677,US,4482899,39.005,-85.6277777778,,Census,City,IN,"North Vernon, Indiana",0,0,0,0,0,0,0,778,1758,1842,2012,2823,2915,3084,2989.0,3112,3488,4307.0,4582.0,5768.0,5311.0,6515.0,6728.0
10546,9472,US,112393,41.1544444444,-85.9691666667,,Census,Town,IN,"Burket, Indiana",0,0,0,0,0,0,0,0,0,0,0,0,0,0,0.0,216,217,259.0,210.0,260.0,200.0,195.0,195.0
10553,11306,US,112247,40.2902777778,-87.2469444444,,Census,City,IN,"Attica, Indiana",0,0,0,0,0,0,0,1713,2273,2150,2320,3005,3335,3392,3700.0,3760,3862,4341.0,4262.0,3841.0,3457.0,3491.0,3245.0
10588,14194,US,112349,40.4188888889,-86.2719444444,,Census,Town,IN,"Russiaville, Indiana",0,0,0,0,0,0,0,0,160,419,603,0,0,0,0.0,0,0,0.0,844.0,973.0,1014.0,1092.0,1094.0
10610,17872,US,112245,38.3727777778,-85.9886111111,,Census,Town,IN,"Greenville, Indiana",0,0,0,0,0,0,0,0,0,394,313,309,227,225,257.0,285,298,453.0,611.0,537.0,508.0,591.0,595.0
10630,10974,US,112648,39.885,-87.4063888889,,Census,Town,IN,"Newport, Indiana",0,0,0,0,0,0,328,287,398,591,551,610,732,703,777.0,795,660,627.0,708.0,704.0,627.0,578.0,515.0
10633,18986,US,112707,41.2313888889,-85.3194444444,,Census,Town,IN,"Churubusco, Indiana",0,0,0,0,0,0,0,0,0,720,869,884,870,916,1095.0,1122,1232,1284.0,1528.0,1638.0,1781.0,1666.0,1796.0
10748,14136,US,112628,40.51,-86.8383333333,,Census,Town,IN,"Battle Ground, Indiana",0,0,0,0,0,0,0,0,0,0,456,150,443,444,448.0,506,634,804.0,818.0,812.0,806.0,1323.0,1334.0
10899,9461,US,112251,40.1638888889,-87.1480555556,,Census,Town,IN,"Mellott, Indiana",0,0,0,0,0,0,0,0,0,0,0,0,372,340,312.0,302,266,312.0,325.0,294.0,222.0,207.0,197.0
10906,10737,US,112660,40.9111111111,-85.9236111111,,Census,Town,IN,"Roann, Indiana",0,0,0,0,0,0,0,0,0,350,582,631,447,414,395.0,429,492,478.0,509.0,548.0,447.0,400.0,479.0
10921,20369,US,112329,39.6975,-86.3847222222,,Census,Town,IN,"Plainfield, Indiana",0,0,0,0,0,0,251,0,795,50,909,0,1303,1373,1617.0,1811,2585,5460.0,8211.0,9191.0,10433.0,18396.0,27631.0
10936,21675,US,112142,39.9530555556,-86.2694444444,,Census,Town,IN,"Zionsville, Indiana",0,0,0,0,0,0,0,365,956,855,825,765,840,957,1131.0,1314,1536,1822.0,1857.0,3948.0,5281.0,8775.0,14160.0
10990,10902,US,112509,40.7644444444,-87.295,,Census,Town,IN,"Goodland, Indiana",0,0,0,0,0,0,0,0,0,628,889,1205,1105,1120,978.0,1097,1218,1202.0,1176.0,1200.0,1033.0,1096.0,1043.0
11003,5325,US,15129592,40.5147222222,-85.7872222222,,Census,Census-designated place,IN,"Herbst, Indiana",0,0,0,0,0,0,0,0,0,0,0,0,0,0,0.0,0,0,0.0,0.0,0.0,0.0,0.0,0.0
11025,11303,US,112295,40.1755555556,-86.0197222222,,Census,Town,IN,"Arcadia, Indiana",0,0,0,0,0,0,0,0,0,433,670,1413,990,1060,912.0,968,1073,1271.0,1338.0,1801.0,1468.0,1747.0,1666.0
11034,10859,US,112512,40.9455555556,-87.4541666667,,Census,Town,IN,"Morocco, Indiana",0,0,0,0,0,0,0,0,0,174,397,920,927,1064,1006.0,1151,1141,1341.0,1285.0,1348.0,1044.0,1127.0,1129.0
11110,25712,US,96073,39.62,-85.47,,Census,US County,IN,"Rush County, Indiana",0,0,0,0,9707,16456,16445,16193,17626,19238,19034,20148,19349,19241,19412.0,18927,19799,20393.0,20352.0,19604.0,18129.0,18261.0,17392.0
11154,7673,US,19668887,40.8855555556,-86.7408333333,,Census,Census-designated place,IN,"Buffalo, Indiana",0,0,0,0,0,0,0,0,0,0,0,0,0,0,0.0,0,0,0.0,0.0,0.0,0.0,0.0,0.0
11189,13280,US,3551570,41.1980555556,-87.1991666667,,Census,Town,IN,"DeMotte, Indiana",0,0,0,0,0,0,0,0,0,0,0,0,0,0,0.0,0,0,0.0,1697.0,2559.0,2482.0,3234.0,3814.0
11248,64937,US,96080,41.85,-87.1166666667,,Census,County,IN,"Porter County, Indiana",0,0,0,0,0,2162,5234,10313,13942,17227,18052,19175,20540,20256,22821.0,27836,40076,60279.0,87114.0,119816.0,128932.0,146798.0,164343.0
11251,21553,US,112322,39.8419444444,-86.3955555556,,Census,Town,IN,"Brownsburg, Indiana",0,0,0,0,0,0,132,0,551,667,623,676,876,1063,1042.0,1136,1578,4478.0,5751.0,6242.0,7628.0,14520.0,21285.0
11286,4264,US,49947423,39.7286111111,-86.9283333333,,Census,Census-designated place,IN,"Van Bibber Lake, Indiana",0,0,0,0,0,0,0,0,0,0,0,0,0,0,0.0,0,0,0.0,0.0,0.0,0.0,0.0,0.0
11371,13493,US,112471,41.2377777778,-86.2461111111,,Census,Town,IN,"Argos, Indiana",0,0,0,0,0,0,0,0,0,622,1101,1307,1088,1111,1211.0,1190,1284,1329.0,1393.0,1547.0,1642.0,1613.0,1691.0
11524,29140,US,96054,39.86,-85.01,,Census,US County,IN,"Wayne County, Indiana",0,0,0,12119,18571,23290,25320,29558,34048,38613,37628,38970,43757,48136,54809.0,59229,68566,74039.0,79109.0,76058.0,71951.0,71097.0,68917.0
11599,8559,US,112238,41.5,-85.8333333333,,Census,Census-designated place,IN,"New Paris, Indiana",0,0,0,0,0,0,0,0,0,0,0,0,0,0,0.0,0,0,0.0,0.0,0.0,0.0,0.0,0.0
11604,11350,US,112331,40.0597222222,-85.2388888889,,Census,Town,IN,"Blountsville, Indiana",0,0,0,0,0,0,0,0,178,188,0,0,159,153,151.0,169,229,218.0,220.0,213.0,155.0,166.0,134.0
11638,30723,US,9138832,40.7536111111,-86.3605555556,,Census,City,IN,"Logansport, Indiana",0,0,0,0,0,0,2251,2979,8950,11198,13328,16204,19050,21626,18508.0,20177,21031,21106.0,19255.0,17899.0,16812.0,19684.0,18396.0
11686,11674,US,112686,39.9544444444,-84.92,,Census,Town,IN,"Fountain City, Indiana",0,0,0,0,0,0,0,0,0,471,492,455,448,375,480.0,491,588,833.0,852.0,839.0,766.0,735.0,796.0
11792,11721,US,112355,40.685,-85.4233333333,,Census,Town,IN,"Warren, Indiana",0,0,0,0,0,0,0,0,0,503,1120,1523,1189,1520,1177.0,1388,1247,1241.0,1229.0,1254.0,1185.0,1272.0,1239.0
11817,5049,US,14153692,40.7569444444,-86.6494444444,,Census,Census-designated place,IN,"Idaville, Indiana",0,0,0,0,0,0,0,0,0,0,0,0,0,0,0.0,0,0,0.0,0.0,0.0,0.0,0.0,0.0
11836,16578,US,112595,37.8836111111,-87.0530555556,,Census,City,IN,"Rockport, Indiana",0,0,0,0,0,0,412,834,1720,2382,2314,2882,2736,2581,2396.0,2421,2493,2474.0,2565.0,2590.0,2315.0,2160.0,2270.0
11840,15205,US,112505,39.6080555556,-86.3691666667,,Census,Town,IN,"Mooresville, Indiana",0,0,0,0,0,0,550,780,1229,864,891,974,1608,1781,1910.0,1979,2264,3856.0,5800.0,5349.0,5541.0,9273.0,9326.0
11956,10663,US,112506,39.3736111111,-86.2605555556,,Census,Town,IN,"Morgantown, Indiana",0,0,0,0,0,0,230,0,0,509,0,0,667,831,748.0,724,838,971.0,1134.0,897.0,978.0,964.0,986.0
11980,9105,US,112437,41.7208333333,-86.8672222222,,Census,Town,IN,"Pottawattamie Park, Indiana",0,0,0,0,0,0,0,0,0,0,0,0,0,0,0.0,0,0,292.0,374.0,284.0,281.0,300.0,235.0
11983,13042,US,112618,41.7305555556,-85.1697222222,,Census,Town,IN,"Orland, Indiana",0,0,0,0,0,0,0,0,0,416,0,0,0,322,310.0,307,386,424.0,457.0,424.0,361.0,341.0,434.0
12075,14008,US,112264,41.0619444444,-86.2066666667,,Census,City,IN,"Rochester, Indiana",0,0,0,0,0,0,0,651,1528,1869,2467,3421,3364,3720,3518.0,3835,4673,4883.0,4631.0,5050.0,5969.0,6414.0,6218.0
12096,11025,US,112644,39.9472222222,-87.4647222222,,Census,Town,IN,"Cayuga, Indiana",0,0,0,0,0,0,0,0,0,0,0,832,911,933,968.0,1126,1022,904.0,1090.0,1258.0,1083.0,1109.0,1162.0
12112,9591,US,112252,40.2047222222,-87.1491666667,,Census,Town,IN,"Newtown, Indiana",0,0,0,0,0,0,0,0,0,0,0,0,0,329,264.0,293,287,321.0,286.0,277.0,243.0,162.0,256.0
12140,15242,US,112421,41.3,-87.4166666667,,Census,Town,IN,"Lowell, Indiana",0,0,0,0,0,0,0,0,0,458,761,1275,1235,1197,1274.0,1448,1621,2270.0,3839.0,5827.0,6430.0,7505.0,9276.0
12195,11511,US,112303,39.7836111111,-85.9522222222,,Census,Town,IN,"Cumberland, Indiana",0,0,0,0,0,0,0,0,0,299,0,0,0,0,0.0,0,0,872.0,1478.0,3375.0,4557.0,5500.0,5169.0
12223,13054,US,112659,41.0038888889,-85.7725,,Census,Town,IN,"North Manchester, Indiana",0,0,0,0,0,0,0,0,0,1585,2384,2398,2428,2711,2765.0,3170,3977,4377.0,5791.0,5998.0,6383.0,6260.0,6112.0
12267,26339,US,112670,37.9466666667,-87.4036111111,,Census,Town,IN,"Newburgh, Indiana",0,0,0,0,0,0,526,999,1464,1282,1046,1371,1097,1295,1262.0,1374,1324,1450.0,2302.0,2906.0,2880.0,3088.0,3325.0
12284,9661,US,112576,39.0763888889,-85.3852777778,,Census,Town,IN,"Holton, Indiana",0,0,0,0,0,0,0,0,0,366,0,0,0,0,0.0,0,0,0.0,0.0,487.0,451.0,407.0,480.0
12335,15732,US,112198,39.0961111111,-84.8577777778,,Census,City,IN,"Lawrenceburg, Indiana",0,0,0,0,0,0,2651,0,3159,4668,4284,4326,3930,3466,4072.0,4413,4806,5004.0,4636.0,4403.0,4375.0,4685.0,5042.0
12341,10026,US,112188,38.6633333333,-87.0472222222,,Census,Town,IN,"Montgomery, Indiana",0,0,0,0,0,0,0,0,135,155,415,616,511,576,445.0,510,538,446.0,411.0,390.0,351.0,368.0,343.0
12369,10340,US,112213,41.4366666667,-85.1461111111,,Census,Town,IN,"Corunna, Indiana",0,0,0,0,0,0,0,0,242,276,0,0,318,272,268.0,278,338,361.0,359.0,304.0,241.0,254.0,254.0
12383,28877,US,112436,41.7094444444,-86.8869444444,,Census,City,IN,"Michigan City, Indiana",0,0,0,0,0,0,999,3320,3985,7366,10773,14850,19027,19457,26735.0,26476,28395,36653.0,39369.0,36850.0,33822.0,32900.0,31479.0
12384,8585,US,112364,41.1544444444,-87.2886111111,,Census,Census-designated place,IN,"Roselawn, Indiana",0,0,0,0,0,0,0,0,0,0,0,0,0,0,0.0,0,0,0.0,0.0,0.0,0.0,0.0,0.0
12401,13842,US,112130,40.4888888889,-87.0952777778,,Census,Town,IN,"Otterbein, Indiana",0,0,0,0,0,0,0,0,0,0,0,0,652,702,616.0,570,641,788.0,916.0,1118.0,1291.0,1312.0,1262.0
12498,11674,US,112232,41.7211111111,-85.8183333333,,Census,Town,IN,"Bristol, Indiana",0,0,0,0,0,0,0,0,681,661,535,546,535,568,699.0,694,738,991.0,1100.0,1203.0,1133.0,1382.0,1602.0
12514,10933,US,112136,39.9966666667,-86.6191666667,,Census,Town,IN,"Advance, Indiana",0,0,0,0,0,0,0,0,0,0,0,0,416,417,358.0,365,413,463.0,561.0,559.0,520.0,562.0,477.0
12543,9220,US,112544,41.3155555556,-87.0275,,Census,Town,IN,"Kouts, Indiana",0,0,0,0,0,0,0,0,0,214,0,0,0,0,583.0,732,718,1007.0,1388.0,1619.0,1603.0,1698.0,1879.0
12802,15119,US,112108,40.8294444444,-84.9291666667,,Census,City,IN,"Decatur, Indiana",0,0,0,0,0,0,231,532,858,1905,3142,4148,4471,4762,5156.0,5861,7271,8327.0,8445.0,8649.0,8644.0,9528.0,9405.0
12819,5735,US,15031904,39.1933333333,-87.2311111111,,Census,Census-designated place,IN,"Coalmont, Indiana",0,0,0,0,0,0,0,0,0,0,0,0,0,0,0.0,0,0,0.0,0.0,0.0,0.0,0.0,0.0
12895,5943,US,15129931,38.9230555556,-86.7297222222,,Census,Census-designated place,IN,"Owensburg, Indiana",0,0,0,0,0,0,0,0,0,0,0,0,0,0,0.0,0,0,0.0,0.0,0.0,0.0,0.0,0.0
12920,5662,US,43810953,40.6108333333,-85.5608333333,,Census,Census-designated place,IN,"Landess, Indiana",0,0,0,0,0,0,0,0,0,0,0,0,0,0,0.0,0,0,0.0,0.0,0.0,0.0,0.0,0.0
12947,9830,US,112697,40.7008333333,-85.0788888889,,Census,Town,IN,"Vera Cruz, Indiana",0,0,0,0,0,0,0,0,0,260,233,199,133,113,94.0,142,143,176.0,140.0,117.0,83.0,55.0,80.0
12995,8552,US,13813227,41.2211111111,-85.4841666667,,Census,Township,IN,"Thorncreek Township, Whitley County, Indiana",0,0,0,0,0,0,0,0,0,0,0,0,0,0,0.0,0,0,0.0,0.0,0.0,0.0,0.0,0.0
13038,22124,US,112417,41.5286111111,-87.2675,,Census,City,IN,"Hobart, Indiana",0,0,0,0,0,0,0,0,0,600,1010,1390,1753,3450,5787.0,7166,10244,18680.0,21485.0,22987.0,21822.0,25363.0,29059.0
13084,10524,US,112352,40.8263888889,-85.3380555556,,Census,Village,IN,"Markle, Indiana",0,0,0,0,0,0,0,0,0,220,670,729,820,717,621.0,671,733,789.0,963.0,975.0,1208.0,1102.0,1095.0
13093,9131,US,112430,41.5266666667,-86.7005555556,,Census,Town,IN,"Kingsbury, Indiana",0,0,0,0,0,0,0,0,0,154,0,0,0,0,0.0,0,281,281.0,314.0,329.0,258.0,229.0,242.0
13123,9635,US,112332,39.9511111111,-85.4863888889,,Census,Town,IN,"Cadiz, Indiana",0,0,0,0,0,0,0,0,0,594,307,253,209,148,165.0,182,222,198.0,207.0,180.0,202.0,161.0,150.0
13224,14345,US,112316,38.0236111111,-86.2019444444,,Census,Town,IN,"Mauckport, Indiana",0,0,0,0,0,0,0,0,0,278,272,290,279,239,203.0,154,154,107.0,119.0,109.0,95.0,83.0,81.0
13273,10102,US,112438,41.6972222222,-86.8572222222,,Census,Town,IN,"Trail Creek, Indiana",0,0,0,0,0,0,0,0,0,0,0,0,0,0,295.0,326,817,1552.0,2697.0,2581.0,2463.0,2296.0,2052.0
13360,9833,US,112263,41.0180555556,-86.4127777778,,Census,Town,IN,"Kewanna, Indiana",0,0,0,0,0,0,0,0,0,283,647,646,728,695,682.0,701,680,683.0,614.0,711.0,542.0,614.0,613.0
13469,11385,US,112508,40.8661111111,-87.3658333333,,Census,Town,IN,"Brook, Indiana",0,0,0,0,0,0,0,0,0,0,0,677,1067,975,815.0,888,915,845.0,919.0,926.0,899.0,1062.0,997.0
13596,11481,US,112605,41.6636111111,-86.0752777778,,Census,Town,IN,"Osceola, Indiana",0,0,0,0,0,0,0,0,0,129,0,0,0,0,432.0,498,1091,1350.0,1572.0,1990.0,1999.0,1859.0,2463.0
13597,12614,US,112474,41.2172222222,-86.4216666667,,Census,Town,IN,"Culver, Indiana",0,0,0,0,0,0,0,0,0,0,0,505,810,1080,1502.0,1605,1563,1558.0,1783.0,1601.0,1404.0,1539.0,1353.0
13640,29140,US,96140,40.76,-86.35,,Census,US County,IN,"Cass County, Indiana",0,0,0,0,1162,5480,11021,16843,24193,27611,31152,34545,36368,38333,34518.0,36908,38793,40931.0,40456.0,40936.0,38413.0,40930.0,38966.0
13697,5932,US,15054146,38.8033333333,-86.9613888889,,Census,Census-designated place,IN,"Raglesville, Indiana",0,0,0,0,0,0,0,0,0,0,0,0,0,0,0.0,0,0,0.0,0.0,0.0,0.0,0.0,0.0
13725,9731,US,112624,39.1794444444,-87.3969444444,,Census,Town,IN,"Shelburn, Indiana",0,0,0,0,0,0,0,0,0,387,378,523,2055,1814,1548.0,1606,1412,1299.0,1281.0,1259.0,1147.0,1268.0,1252.0
13732,9701,US,112568,40.0244444444,-85.1830555556,,Census,Town,IN,"Losantville, Indiana",0,0,0,0,0,0,0,0,0,52,0,177,300,321,252.0,253,247,251.0,212.0,306.0,253.0,280.0,237.0
13751,7070,US,112652,39.5316666667,-87.3619444444,,Census,Census-designated place,IN,"North Terre Haute, Indiana",0,0,0,0,0,0,0,0,0,0,0,0,0,0,0.0,0,0,0.0,0.0,0.0,0.0,0.0,0.0
13773,19418,US,112301,40.1338888889,-86.22,,Census,Town,IN,"Sheridan, Indiana",0,0,0,0,0,0,0,0,0,308,1134,1795,1768,1761,1763.0,1720,1965,2165.0,2137.0,2200.0,2046.0,2520.0,2665.0
13793,16858,US,112677,38.5036111111,-86.0147222222,,Census,Town,IN,"New Pekin, Indiana",0,0,0,0,0,0,0,0,0,0,0,0,246,356,383.0,434,543,661.0,912.0,1125.0,1095.0,1334.0,1401.0
13842,10519,US,112260,39.3394444444,-85.2047222222,,Census,Town,IN,"Oldenburg, Indiana",0,0,0,0,0,0,0,300,160,673,690,957,956,628,575.0,533,591,694.0,758.0,770.0,715.0,647.0,674.0
13920,11386,US,112338,40.0572222222,-85.5411111111,,Census,Town,IN,"Middletown, Indiana",0,0,0,0,0,0,188,368,711,606,851,1801,1174,1273,1348.0,1520,1731,2033.0,2046.0,2978.0,2333.0,2488.0,2322.0
13937,11054,US,112122,39.2669444444,-85.6986111111,,Census,Town,IN,"Hartsville, Indiana",0,0,0,0,0,0,0,187,433,486,474,439,358,284,342.0,318,340,399.0,434.0,379.0,391.0,376.0,362.0
13965,21953,US,112645,39.66,-87.4058333333,,Census,City,IN,"Clinton, Indiana",0,0,0,0,0,0,321,307,564,965,1365,2918,6229,10962,7936.0,7092,6462,5843.0,5340.0,5267.0,5040.0,5126.0,4893.0
13983,9583,US,112190,38.8055555556,-87.1519444444,,Census,Town,IN,"Plainville, Indiana",0,0,0,0,0,0,0,0,0,91,0,0,0,0,603.0,619,568,545.0,538.0,556.0,444.0,513.0,476.0
14038,5041,US,13713918,39.0347222222,-86.7538888889,,Census,Township,IN,"Center Township, Greene County, Indiana",0,0,0,0,0,0,0,0,0,0,0,0,0,0,0.0,0,0,0.0,0.0,0.0,0.0,3109.0,3535.0
14063,9986,US,112366,40.5341666667,-84.9641666667,,Census,Town,IN,"Bryant, Indiana",0,0,0,0,0,0,0,0,0,189,0,384,469,428,319.0,332,339,316.0,320.0,277.0,273.0,272.0,252.0
14106,10729,US,112653,39.3897222222,-87.3005555556,,Census,Town,IN,"Riley, Indiana",0,0,0,0,0,0,0,0,0,0,0,0,0,0,260.0,287,251,248.0,257.0,269.0,232.0,160.0,221.0
14132,12461,US,112586,38.7423611111,-85.8045833333,,Census,City,IN,"Austin, Indiana",0,0,0,0,0,0,0,0,321,270,0,0,0,0,0.0,0,2906,3838.0,4902.0,4857.0,4310.0,4724.0,4295.0
14139,27386,US,96061,38.02,-87.58,,Census,US County,IN,"Vanderburgh County, Indiana",0,0,0,1798,2611,6250,11414,20552,33145,42193,59809,71769,77438,92293,113320.0,130783,160422,165794.0,168772.0,167515.0,165058.0,171922.0,179703.0
14144,27465,US,96071,39.52,-85.79,,Census,US County,IN,"Shelby County, Indiana",0,0,0,0,6295,12005,15502,19569,21892,25257,25454,26491,26802,25982,26552.0,25953,28026,34093.0,37797.0,39887.0,40307.0,43445.0,44436.0
14156,9955,US,112385,38.7569444444,-87.415,,Census,Town,IN,"Bruceville, Indiana",0,0,0,0,0,0,0,0,0,258,0,0,0,0,0.0,0,0,623.0,627.0,646.0,471.0,469.0,478.0
14257,91061,US,96057,40.35,-87.36,,Census,US County,IN,"Warren County, Indiana",0,0,0,0,2861,5656,7387,10057,10204,11497,10955,11371,10899,9699,9167.0,9055,8535,8545.0,8705.0,8976.0,8176.0,8419.0,8508.0
14264,10558,US,112216,41.3147222222,-84.9008333333,,Census,"&quot;gr1&quot;&gt;publisher=[[united states census bureau|accessdate=2011-04-23|date=2011-02-12|title=us gazetteer files: 2010, 2000, and 1990}}",IN,"Saint Joe, Indiana",0,0,0,0,0,0,0,0,0,180,0,483,391,386,407.0,437,479,499.0,564.0,546.0,452.0,478.0,460.0
14324,9998,US,112650,39.6216666667,-87.4530555556,,Census,Town,IN,"Universal, Indiana",0,0,0,0,0,0,0,0,0,0,0,0,0,1570,642.0,603,479,424.0,462.0,428.0,392.0,419.0,362.0
14345,9893,US,112209,41.3508333333,-85.1527777778,,Census,Town,IN,"Altona, Indiana",0,0,0,0,0,0,0,0,0,100,0,0,349,382,342.0,340,344,313.0,269.0,263.0,156.0,198.0,197.0
14356,14493,US,112235,41.6738888889,-85.7094444444,,Census,Town,IN,"Middlebury, Indiana",0,0,0,0,0,0,0,0,0,502,542,572,600,599,656.0,722,839,917.0,1055.0,1665.0,2004.0,2956.0,3420.0
14411,9785,US,112333,39.8030555556,-85.4369444444,,Census,Town,IN,"Dunreith, Indiana",0,0,0,0,0,0,0,0,0,149,168,205,181,184,160.0,187,196,236.0,200.0,184.0,205.0,184.0,177.0
14466,10349,US,112147,40.5458333333,-86.5233333333,,Census,Town,IN,"Flora, Indiana",0,0,0,0,0,0,0,0,0,224,639,1209,1386,1441,1449.0,1468,1657,1742.0,1877.0,2303.0,2179.0,2227.0,2036.0
14491,13446,US,112128,40.6844444444,-87.4158333333,,Census,Town,IN,"Earl Park, Indiana",0,0,0,0,0,0,0,0,0,0,0,563,609,542,501.0,507,488,551.0,478.0,469.0,443.0,485.0,348.0
14568,9498,US,112446,40.1022222222,-85.7355555556,,Census,Town,IN,"Edgewood, Indiana",0,0,0,0,0,0,0,0,0,0,0,0,0,0,0.0,229,796,2119.0,2326.0,2215.0,2057.0,1988.0,1913.0
14654,10968,US,112632,40.3733333333,-86.9491666667,,Census,Town,IN,"Shadeland, Indiana",0,0,0,0,0,0,0,0,0,0,0,0,0,0,0.0,0,0,0.0,0.0,0.0,1674.0,1682.0,1610.0
14688,15762,US,112574,40.2011111111,-84.815,,Census,City,IN,"Union City, Indiana",0,0,0,0,0,0,0,0,1439,2478,2681,2716,3209,3406,3084.0,3535,3572,4047.0,3995.0,3908.0,3612.0,3622.0,3584.0
14739,10395,US,112643,38.0252777778,-87.5158333333,,Census,Census-designated place,IN,"Melody Hill, Indiana",0,0,0,0,0,0,0,0,0,0,0,0,0,0,0.0,0,0,0.0,0.0,0.0,0.0,0.0,0.0
14758,11774,US,112384,38.7736111111,-87.3080555556,,Census,City,IN,"Bicknell, Indiana",0,0,0,0,0,0,0,0,0,298,0,0,2794,7635,5212.0,5110,4572,3878.0,3717.0,4713.0,3357.0,3378.0,2915.0
14790,19376,US,112285,40.5697222222,-85.7669444444,,Census,Town,IN,"Sweetser, Indiana",0,0,0,0,0,0,0,0,0,246,0,0,0,0,0.0,0,0,896.0,1076.0,944.0,924.0,906.0,1229.0
14804,4300,US,15269100,41.5666666667,-86.5519444444,,Census,Census-designated place,IN,"Fish Lake, Indiana",0,0,0,0,0,0,0,0,0,0,0,0,0,0,0.0,0,0,0.0,0.0,0.0,0.0,0.0,0.0
14806,31932,US,96120,,,,Census,US County,IN,"Hamilton County, Indiana",0,0,0,0,0,0,0,0,0,0,26123,29914,27026,24222,23444.0,24614,28491,40132.0,54532.0,82027.0,108936.0,182740.0,274569.0
14812,10154,US,112189,38.8413888889,-86.9911111111,,Census,Town,IN,"Odon, Indiana",0,0,0,0,0,0,0,0,0,0,764,923,1064,985,981.0,958,1177,1192.0,1433.0,1463.0,1475.0,1376.0,1354.0
14888,10708,US,112175,40.1938888889,-86.36,,Census,Town,IN,"Kirklin, Indiana",0,0,0,0,0,0,59,0,141,252,550,624,699,695,644.0,712,734,767.0,736.0,662.0,707.0,766.0,788.0
14943,10699,US,112111,41.21,-84.9683333333,,Census,Town,IN,"Grabill, Indiana",0,0,0,0,0,0,0,0,0,0,0,0,0,0,276.0,288,370,495.0,570.0,658.0,751.0,1113.0,1053.0
15059,9265,US,112170,39.5352777778,-87.0738888889,,Census,Town,IN,"Harmony, Indiana",0,0,0,0,0,0,0,0,597,838,1020,0,0,0,0.0,0,0,0.0,0.0,613.0,645.0,589.0,656.0
15086,12822,US,33564332,39.6688888889,-86.13,,Census,Town,IN,"Homecroft, Indiana",0,0,0,0,0,0,0,0,0,0,0,0,0,0,0.0,0,659,959.0,964.0,831.0,758.0,751.0,722.0
15114,9585,US,1006146,41.7002777778,-86.2386111111,,Census,Census-designated place,IN,"Notre Dame, Indiana",0,0,0,0,0,0,0,0,0,0,0,0,0,0,0.0,0,0,0.0,0.0,0.0,0.0,0.0,0.0
15154,30064,US,96097,,,,Census,US County,IN,"Marion County, Indiana",0,0,0,0,7192,16080,24103,39855,71939,102782,141156,197227,263661,348061,422666.0,460926,551777,697567.0,792299.0,765233.0,797159.0,860454.0,903393.0
15245,8879,US,152181,39.8672222222,-86.1638888889,,Census,Town,IN,"North Crows Nest, Indiana",0,0,0,0,0,0,0,0,0,0,0,0,0,0,0.0,0,46,60.0,50.0,82.0,57.0,42.0,45.0
15333,17900,US,112479,38.6763888889,-86.9147222222,,Census,City,IN,"Loogootee, Indiana",0,0,0,0,0,0,0,0,748,885,988,1382,2154,2385,2203.0,2325,2424,2858.0,2953.0,3100.0,2884.0,2741.0,2751.0
15341,10656,US,112268,38.4888888889,-87.5416666667,,Census,Town,IN,"Hazleton, Indiana",0,0,0,0,0,0,0,0,356,618,608,758,648,605,507.0,516,498,507.0,416.0,368.0,357.0,288.0,263.0
15354,11327,US,112461,39.8627777778,-85.9941666667,,Census,City,IN,"Lawrence, Indiana",0,0,0,0,0,0,0,0,0,253,0,0,0,0,840.0,1087,1951,10103.0,16353.0,25591.0,26763.0,38915.0,46001.0
15380,10169,US,112253,40.1138888889,-87.2602777778,,Census,Town,IN,"Veedersburg, Indiana",0,0,0,0,0,0,0,0,0,536,930,1638,1757,1580,1606.0,1781,1719,1762.0,2198.0,2261.0,2192.0,2299.0,2180.0
15381,13215,US,112531,39.7652777778,-87.2288888889,,Census,Town,IN,"Rockville, Indiana",0,0,0,0,0,0,726,728,1187,1684,1689,2045,1943,1908,1832.0,2208,2467,2756.0,2820.0,2785.0,2706.0,2765.0,2607.0
15392,11496,US,112494,40.1886111111,-86.9033333333,,Census,Town,IN,"Linden, Indiana",0,0,0,0,0,0,0,0,0,130,0,572,556,555,541.0,580,590,619.0,713.0,700.0,718.0,700.0,759.0
15415,9035,US,112205,39.2108333333,-85.4336111111,,Census,Town,IN,"Millhousen, Indiana",0,0,0,0,0,0,0,0,0,331,224,265,211,165,162.0,180,184,212.0,252.0,214.0,151.0,136.0,127.0
15425,12497,US,112493,39.9152777778,-86.7991666667,,Census,Town,IN,"Ladoga, Indiana",0,0,0,0,0,0,0,0,878,928,857,1176,1148,1010,829.0,936,912,974.0,1099.0,1151.0,1124.0,1047.0,985.0
15517,30546,US,112636,40.285,-86.0402777778,,Census,City,IN,"Tipton, Indiana",0,0,0,0,0,0,197,513,892,1250,2697,3764,4075,4507,4861.0,5101,5633,5604.0,5313.0,5004.0,4751.0,5251.0,5106.0
15582,12932,US,112399,41.3252777778,-85.6972222222,,Census,Town,IN,"North Webster, Indiana",0,0,0,0,0,0,0,0,0,0,0,0,0,0,0.0,343,487,494.0,456.0,709.0,881.0,1067.0,1146.0
15600,9200,US,112615,41.7375,-84.8333333333,,Census,Town,IN,"Clear Lake, Indiana",0,0,0,0,0,0,0,0,0,0,0,0,0,0,0.0,65,151,147.0,271.0,301.0,272.0,244.0,339.0
15676,21615,US,112503,39.4272222222,-86.4277777778,,Census,City,IN,"Martinsville, Indiana",0,0,0,0,0,0,334,640,1131,1943,2680,4038,4529,4895,4962.0,5009,5991,7525.0,9723.0,11311.0,11677.0,11698.0,11828.0
15692,9928,US,112370,40.3819444444,-84.8661111111,,Census,Town,IN,"Salamonia, Indiana",0,0,0,0,0,0,0,0,0,133,150,168,169,194,180.0,191,181,142.0,162.0,147.0,138.0,158.0,157.0
15705,10580,US,112451,39.9794444444,-85.6172222222,,Census,Town,IN,"Markleville, Indiana",0,0,0,0,0,0,0,0,83,112,0,0,0,0,251.0,266,314,402.0,457.0,427.0,412.0,383.0,528.0
15707,7127,US,13770670,40.4344444444,-86.0519444444,,Census,Township,IN,"Taylor Township, Howard County, Indiana",0,0,0,0,0,0,0,0,0,0,0,0,0,0,0.0,0,0,0.0,0.0,0.0,0.0,9536.0,9294.0
15721,23926,US,112701,40.6625,-86.8675,,Census,Town,IN,"Chalmers, Indiana",0,0,0,0,0,0,0,0,0,0,0,462,513,528,510.0,475,508,548.0,544.0,554.0,525.0,513.0,508.0
15852,10178,US,112594,37.9355555556,-86.9847222222,,Census,Town,IN,"Grandview, Indiana",0,0,0,0,0,0,0,0,0,686,694,822,735,689,588.0,607,664,599.0,696.0,670.0,761.0,696.0,749.0
15898,9345,US,112386,38.5183333333,-87.5238888889,,Census,Town,IN,"Decker, Indiana",0,0,0,0,0,0,0,0,0,0,0,0,0,0,468.0,466,386,317.0,268.0,256.0,281.0,283.0,249.0
15962,24567,US,112231,38.3913888889,-86.9308333333,,Census,City,IN,"Jasper, Indiana",0,0,0,0,0,0,0,0,547,1040,1281,1863,2196,2539,3905.0,5041,5215,6737.0,8641.0,9097.0,10030.0,12100.0,15038.0
15968,9947,US,112310,39.8847222222,-85.6083333333,,Census,Town,IN,"Wilkinson, Indiana",0,0,0,0,0,0,0,0,0,0,0,0,0,324,316.0,336,365,388.0,480.0,493.0,446.0,356.0,449.0
15996,4540,US,14174800,40.9741666667,-85.8358333333,,Census,Census-designated place,IN,"Laketon, Indiana",0,0,0,0,0,0,0,0,0,0,0,0,0,0,0.0,0,0,0.0,0.0,0.0,0.0,0.0,0.0
15997,13682,US,112664,40.2705555556,-87.3858333333,,Census,Town,IN,"West Lebanon, Indiana",0,0,0,0,0,0,0,0,0,665,644,688,642,637,595.0,581,642,720.0,899.0,946.0,760.0,793.0,723.0
16113,13536,US,112363,40.9380555556,-87.1513888889,,Census,City,IN,"Rensselaer, Indiana",0,0,0,0,0,0,241,535,617,968,1455,2255,2393,2912,2798.0,3214,4072,4740.0,4688.0,4944.0,5045.0,5294.0,5859.0
16176,9835,US,112671,38.0816666667,-87.1188888889,,Census,Town,IN,"Tennyson, Indiana",0,0,0,0,0,0,0,0,0,0,0,302,371,386,335.0,293,409,312.0,335.0,331.0,267.0,290.0,279.0
16179,12111,US,3082,40.2630555556,-85.6763888889,,Census,City,IN,"Alexandria, Indiana",0,0,0,0,0,0,0,0,287,488,715,7221,5096,4172,4408.0,4801,5147,5582.0,5600.0,6028.0,5709.0,6260.0,5145.0
16213,11516,US,112621,39.2533333333,-87.3813888889,,Census,Town,IN,"Farmersburg, Indiana",0,0,0,0,0,0,0,0,0,237,301,625,1115,1141,993.0,1005,1024,1027.0,962.0,1240.0,1159.0,1180.0,1118.0
16250,4389,US,8870559,39.7091666667,-87.5213888889,,Census,Census-designated place,IN,"Saint Bernice, Indiana",0,0,0,0,0,0,0,0,0,0,0,0,0,0,0.0,0,0,0.0,0.0,0.0,0.0,0.0,0.0
16290,35670,US,58106,40.04,-86.89,,Census,US County,IN,"Montgomery County, Indiana",0,0,0,0,7317,14438,18084,20888,23765,27316,28025,29388,29296,28490,26980.0,27231,29122,32089.0,33930.0,35501.0,34436.0,37629.0,38124.0
16315,10176,US,112339,39.9972222222,-85.2505555556,,Census,Town,IN,"Mooreland, Indiana",0,0,0,0,0,0,0,0,0,0,0,309,455,404,384.0,496,497,477.0,495.0,479.0,465.0,393.0,375.0
16319,10039,US,112424,41.5577777778,-87.2738888889,,Census,Town,IN,"New Chicago, Indiana",0,0,0,0,0,0,0,0,0,0,0,0,105,300,481.0,466,921,2312.0,2231.0,2581.0,2066.0,2063.0,2035.0
16343,5016,US,27846485,39.4625,-87.4236111111,,Census,Unincorporated community,IN,"Taylorville, Indiana",0,0,0,0,0,0,0,0,0,0,0,0,0,0,0.0,0,0,0.0,0.0,0.0,0.0,0.0,0.0
16381,10519,US,112529,39.7263888889,-87.3313888889,,Census,Town,IN,"Mecca, Indiana",0,0,0,0,0,0,0,0,0,0,0,0,0,0,0.0,0,0,0.0,0.0,482.0,331.0,355.0,335.0
16391,36606,US,6830,39.2138888889,-85.9111111111,,Census,City,IN,"Columbus, Indiana",0,0,0,0,0,0,1008,1840,3359,4813,6719,8130,8813,8990,9935.0,11738,18370,20778.0,26457.0,30614.0,31802.0,39059.0,44061.0
16412,13215,US,112578,39.1227777778,-85.1305555556,,Census,Town,IN,"Milan, Indiana",0,0,0,0,0,0,0,0,0,106,318,422,557,718,877.0,1000,1014,1174.0,1260.0,1566.0,1529.0,1816.0,1899.0
16422,4965,US,7344696,40.5258333333,-86.7580555556,,Census,Census-designated place,IN,"Americus, Indiana",0,0,0,0,0,0,0,0,0,0,0,0,0,0,0.0,0,0,0.0,0.0,0.0,0.0,0.0,0.0
16451,6935,US,2829778,39.5108333333,-87.4672222222,,Census,Unincorporated community,IN,"Saint Mary-of-the-Woods, Indiana",0,0,0,0,0,0,0,0,0,0,0,0,0,0,0.0,0,0,0.0,0.0,0.0,0.0,0.0,0.0
16496,19707,US,112541,41.6041666667,-87.0583333333,,Census,Town,IN,"Chesterton, Indiana",0,0,0,0,0,0,0,0,0,488,931,788,1400,1604,2231.0,2470,3175,4335.0,6177.0,8531.0,9124.0,10488.0,13068.0
16570,6978,US,15088202,38.4452777778,-86.8044444444,,Census,Census-designated place,IN,"Dubois, Indiana",0,0,0,0,0,0,0,0,0,0,0,0,0,0,0.0,0,0,0.0,0.0,0.0,0.0,0.0,0.0
16601,10225,US,112683,39.8119444444,-85.2061111111,,Census,Town,IN,"Dublin, Indiana",0,0,0,0,0,0,713,967,1076,1070,806,698,704,630,727.0,751,993,1021.0,1021.0,979.0,805.0,697.0,790.0
16738,9459,US,112709,41.1788888889,-85.6244444444,,Census,Town,IN,"Larwill, Indiana",0,0,0,0,0,0,0,0,0,506,0,0,0,264,252.0,319,316,994.0,324.0,286.0,219.0,282.0,283.0
16739,9577,US,112392,38.6641666667,-87.3077777778,,Census,Town,IN,"Wheatland, Indiana",0,0,0,0,0,0,0,0,0,220,0,0,0,0,806.0,713,735,614.0,562.0,532.0,439.0,504.0,480.0
16794,17963,US,112534,37.9530555556,-86.7613888889,,Census,City,IN,"Tell City, Indiana",0,0,0,0,0,0,0,1030,1660,2112,2094,2680,3369,4086,4873.0,5395,5735,6609.0,7933.0,8704.0,8088.0,7845.0,7272.0
16825,6510,US,13770663,40.4516666667,-86.3163888889,,Census,Township,IN,"Monroe Township, Howard County, Indiana",0,0,0,0,0,0,0,0,0,0,0,0,0,0,0.0,0,0,0.0,0.0,0.0,0.0,1387.0,1407.0
16896,12749,US,112336,39.7966666667,-85.5283333333,,Census,Town,IN,"Knightstown, Indiana",0,0,0,0,0,0,0,0,1528,1670,1867,1942,2008,1918,2209.0,2323,2486,2496.0,2456.0,2325.0,2048.0,2148.0,2182.0
16965,10701,US,112668,38.16,-87.4475,,Census,Town,IN,"Elberfeld, Indiana",0,0,0,0,0,0,0,0,0,0,0,0,438,473,546.0,520,499,485.0,834.0,640.0,635.0,636.0,625.0
17061,9741,US,112184,38.3425,-86.2736111111,,Census,Town,IN,"Milltown, Indiana",0,0,0,0,0,0,0,0,87,106,0,0,586,615,795.0,760,760,793.0,829.0,1006.0,917.0,932.0,818.0
17068,20247,US,112635,40.3788888889,-86.0866666667,,Census,Town,IN,"Sharpsville, Indiana",0,0,0,0,0,0,0,0,0,280,377,0,0,0,512.0,518,508,663.0,672.0,617.0,769.0,618.0,607.0
17139,13919,US,112141,39.9961111111,-86.3447222222,,Census,Town,IN,"Whitestown, Indiana",0,0,0,0,0,0,0,0,0,0,0,0,0,0,0.0,0,550,613.0,569.0,497.0,476.0,471.0,2867.0
17172,12043,US,112394,41.1288888889,-85.8808333333,,Census,Town,IN,"Claypool, Indiana",0,0,0,0,0,0,0,0,0,0,0,399,408,356,382.0,423,416,452.0,468.0,464.0,411.0,311.0,431.0
17187,22478,US,112373,38.7147222222,-85.4719444444,,Census,Town,IN,"Hanover, Indiana",0,0,0,0,0,0,0,0,564,376,459,377,356,360,390.0,406,1060,1170.0,3018.0,4054.0,3610.0,2834.0,3546.0
17256,16588,US,112661,40.8008333333,-85.8272222222,,Census,City,IN,"Wabash, Indiana",0,0,0,0,0,0,966,1520,2881,3800,5105,8618,8687,9872,8840.0,9653,10621,12621.0,13379.0,12985.0,12127.0,11743.0,10666.0
17264,14190,US,112637,40.3622222222,-85.9569444444,,Census,Town,IN,"Windfall, Indiana",0,0,0,0,0,0,0,0,0,570,561,957,899,801,734.0,835,963,1135.0,946.0,911.0,779.0,712.0,708.0
17386,11809,US,112443,38.8955555556,-86.5247222222,,Census,Town,IN,"Oolitic, Indiana",0,0,0,0,0,0,0,0,0,0,0,0,1079,883,1210.0,1186,1125,1140.0,1155.0,1495.0,1424.0,1152.0,1184.0
17458,10137,US,112337,39.8072222222,-85.3516666667,,Census,Town,IN,"Lewisville, Indiana",0,0,0,0,0,0,193,0,416,446,420,404,446,460,442.0,531,591,592.0,530.0,577.0,437.0,395.0,366.0
17537,4786,US,17726418,39.6008333333,-87.4175,,Census,Census-designated place,IN,"Shepardsville, Indiana",0,0,0,0,0,0,0,0,0,0,0,0,0,0,0.0,0,0,0.0,0.0,0.0,0.0,0.0,0.0
17539,5618,US,15129789,40.4997222222,-85.8552777778,,Census,Census-designated place,IN,"Sims, Indiana",0,0,0,0,0,0,0,0,0,0,0,0,0,0,0.0,0,0,0.0,0.0,0.0,0.0,0.0,0.0
17547,11734,US,112403,41.4233333333,-85.75,,Census,Town,IN,"Syracuse, Indiana",0,0,0,0,0,0,0,182,227,491,518,928,1379,1171,1190.0,1346,1453,1595.0,1546.0,2579.0,2729.0,3038.0,2810.0
17633,11302,US,112398,41.4091666667,-85.8469444444,,Census,Town,IN,"Milford, Kosciusko County, Indiana",0,0,0,0,0,0,0,209,432,492,677,905,814,811,869.0,901,952,1167.0,1264.0,1153.0,1388.0,1550.0,1562.0
17645,10034,US,112566,39.8572222222,-86.9833333333,,Census,Town,IN,"Russellville, Indiana",0,0,0,0,0,0,0,0,0,157,327,298,443,463,411.0,380,361,372.0,390.0,376.0,336.0,340.0,358.0
17677,7577,US,112420,41.4077777778,-87.2180555556,,Census,Census-designated place,IN,"Lakes of the Four Seasons, Indiana",0,0,0,0,0,0,0,0,0,0,0,0,0,0,0.0,0,0,0.0,0.0,0.0,6556.0,7291.0,7033.0
17751,12875,US,112526,39.2869444444,-86.7641666667,,Census,Town,IN,"Spencer, Indiana",0,0,0,0,0,0,335,0,971,1655,1868,2026,2150,2066,2179.0,2375,2394,2557.0,2553.0,2732.0,2609.0,2508.0,2217.0
17908,13388,US,112376,38.985,-85.61,,Census,Town,IN,"Vernon, Indiana",0,0,0,0,0,0,690,630,673,616,613,557,453,423,410.0,413,480,461.0,440.0,329.0,370.0,330.0,318.0
17914,9579,US,112388,38.6158333333,-87.3552777778,,Census,Town,IN,"Monroe City, Indiana",0,0,0,0,0,0,0,0,0,401,589,688,630,530,544.0,518,453,505.0,603.0,569.0,538.0,548.0,545.0
17929,9424,US,112692,39.9436111111,-84.8302777778,,Census,Town,IN,"Whitewater, Indiana",0,0,0,0,0,0,0,0,0,181,123,155,112,96,121.0,114,104,102.0,111.0,107.0,111.0,78.0,83.0
17947,13745,US,112410,41.3672222222,-87.4383333333,,Census,Town,IN,"Cedar Lake, Indiana",0,0,0,0,0,0,0,0,0,0,0,0,0,0,0.0,0,3907,5766.0,7589.0,8754.0,8885.0,9279.0,11560.0
18031,26170,US,96065,38.82,-85.03,,Census,US County,IN,"Switzerland County, Indiana",0,0,0,3934,7028,9920,12932,12698,12134,13336,12514,11840,9914,9311,8432.0,8167,7599,7092.0,6306.0,7153.0,7738.0,9065.0,10613.0
18044,6198,US,13770651,40.5288888889,-86.0586111111,,Census,Township,IN,"Howard Township, Howard County, Indiana",0,0,0,0,0,0,0,0,0,0,0,0,0,0,0.0,0,0,0.0,0.0,0.0,0.0,2866.0,2579.0
18171,16077,US,112191,38.6583333333,-87.175,,Census,City,IN,"Washington, Indiana",0,0,0,0,0,0,0,0,2901,4323,6064,8551,7854,8743,9070.0,9312,10987,10846.0,11358.0,11325.0,10838.0,11380.0,11509.0
18206,28177,US,96111,38.91,-86.04,,Census,US County,IN,"Jackson County, Indiana",0,0,0,4010,4870,8961,11047,16286,18974,23050,24139,26633,24727,24228,23731.0,26612,28237,30556.0,33187.0,36523.0,37730.0,41335.0,42376.0
18218,4896,US,15173419,38.9730555556,-86.1294444444,,Census,Census-designated place,IN,"Freetown, Indiana",0,0,0,0,0,0,0,0,0,0,0,0,0,0,0.0,0,0,0.0,0.0,0.0,0.0,0.0,0.0
18239,10021,US,112619,38.9622222222,-87.4005555556,,Census,Town,IN,"Carlisle, Indiana",0,0,0,0,0,0,0,459,499,489,503,699,850,973,852.0,874,767,755.0,714.0,717.0,613.0,2660.0,692.0
18282,10461,US,112483,40.8652777778,-86.0777777778,,Census,Town,IN,"Denver, Indiana",0,0,0,0,0,0,0,0,0,273,0,0,0,522,472.0,483,528,565.0,566.0,589.0,504.0,541.0,482.0
18285,36878,US,96128,39.64,-85.18,,Census,US County,IN,"Fayette County, Indiana",0,0,0,5950,9112,9837,10217,10225,10476,11394,12630,13495,14415,17142,19243.0,19411,23391,24454.0,26216.0,28272.0,26015.0,25588.0,24277.0
18414,9895,US,112478,38.8927777778,-86.9013888889,,Census,Town,IN,"Crane, Indiana",0,0,0,0,0,0,0,0,0,0,0,0,0,0,0.0,0,0,0.0,339.0,297.0,216.0,203.0,184.0
18447,28653,US,96094,40.77,-86.05,,Census,US County,IN,"Miami County, Indiana",0,0,0,0,0,3048,11304,16851,21052,24083,25823,28344,29350,28668,29032.0,27926,28201,38000.0,39246.0,39820.0,36897.0,36082.0,36903.0
18494,43786,US,112234,41.6830555556,-85.9688888889,,Census,City,IN,"Elkhart, Indiana",0,0,0,0,0,0,0,1439,3265,6953,11360,15184,19282,24277,32949.0,33434,35646,40274.0,43152.0,41305.0,43627.0,51874.0,50949.0
18578,65756,US,96117,38.2,-86.12,,Census,US County,IN,"Harrison County, Indiana",0,0,3595,7875,10273,12459,15286,18521,19913,21326,20786,21702,20232,18656,17254.0,17106,17858,19207.0,20423.0,27276.0,29890.0,34325.0,39364.0
18600,12291,US,112705,40.75,-86.8736111111,,Census,Town,IN,"Reynolds, Indiana",0,0,0,0,0,0,0,15,306,370,348,398,377,379,362.0,408,499,547.0,641.0,632.0,528.0,547.0,533.0
18633,11378,US,112221,40.1208333333,-85.5588888889,,Census,Town,IN,"Daleville, Indiana",0,0,0,0,0,0,0,0,0,297,0,0,0,0,0.0,0,0,0.0,0.0,0.0,1681.0,1658.0,1647.0
18677,12676,US,112267,38.2044444444,-87.5758333333,,Census,Town,IN,"Haubstadt, Indiana",0,0,0,0,0,0,0,0,0,278,0,0,0,0,674.0,762,894,1029.0,1171.0,1389.0,1455.0,1529.0,1577.0
18710,10037,US,112187,38.8766666667,-87.085,,Census,Town,IN,"Elnora, Indiana",0,0,0,0,0,0,0,0,0,0,0,908,961,865,856.0,799,849,824.0,873.0,756.0,679.0,721.0,640.0
18720,11100,US,112121,39.1347222222,-85.8125,,Census,Town,IN,"Elizabethtown, Indiana",0,0,0,0,0,0,0,200,204,391,430,407,350,313,294.0,319,323,417.0,519.0,603.0,495.0,391.0,504.0
18756,4819,US,13713942,39.1213888889,-86.8869444444,,Census,Township,IN,"Highland Township, Greene County, Indiana",0,0,0,0,0,0,0,0,0,0,0,0,0,0,0.0,0,0,0.0,0.0,0.0,0.0,655.0,718.0
18798,6993,US,112511,41.1361111111,-87.4494444444,,Census,Census-designated place,IN,"Lake Village, Indiana",0,0,0,0,0,0,0,0,0,0,0,0,0,0,0.0,0,0,0.0,0.0,0.0,0.0,0.0,0.0
18810,11413,US,112396,41.3305555556,-85.8502777778,,Census,Town,IN,"Leesburg, Indiana",0,0,0,0,0,0,217,289,326,354,345,390,401,369,371.0,389,428,427.0,561.0,629.0,584.0,625.0,555.0
18875,3927,US,15201706,38.7458333333,-87.325,,Census,Census-designated place,IN,"Ragsdale, Indiana",0,0,0,0,0,0,0,0,0,0,0,0,0,0,0.0,0,0,0.0,0.0,0.0,0.0,0.0,0.0
18903,31488,US,96078,41.0333333333,-86.6833333333,,Census,County,IN,"Pulaski County, Indiana",0,0,0,0,0,561,2595,5711,7801,9851,11233,14033,13312,12385,11195.0,12056,12493,12837.0,12534.0,13258.0,12643.0,13755.0,13402.0
18905,12034,US,112592,38.1686111111,-86.9880555556,,Census,Town,IN,"Dale, Indiana",0,0,0,0,0,0,0,0,0,318,659,624,583,688,770.0,763,850,900.0,1113.0,1693.0,1553.0,1568.0,1593.0
18967,14339,US,112540,41.6147222222,-87.1244444444,,Census,Town,IN,"Burns Harbor, Indiana",0,0,0,0,0,0,0,0,0,0,0,0,0,0,0.0,0,0,0.0,1284.0,920.0,786.0,766.0,1156.0
18990,48009,US,96084,,,,Census,US County,IN,"Parke County, Indiana",0,0,0,0,7535,13499,14968,15538,18166,19460,20296,23000,22214,18875,16561.0,17358,15674,14804.0,14600.0,16372.0,15410.0,17241.0,17339.0
19014,10596,US,112137,39.9261111111,-86.6275,,Census,Town,IN,"Jamestown, Indiana",0,0,0,0,0,0,0,0,603,696,616,640,690,628,552.0,583,718,827.0,938.0,924.0,764.0,886.0,958.0
19020,15397,US,112290,39.0363888889,-87.1655555556,,Census,City,IN,"Linton, Indiana",0,0,0,0,0,0,0,0,0,0,958,3071,5906,5856,5085.0,6263,5973,5736.0,5450.0,6315.0,5814.0,5774.0,5413.0
19022,7089,US,21495738,39.9669444444,-86.9669444444,,Census,Census-designated place,IN,"Lake Holiday, Indiana",0,0,0,0,0,0,0,0,0,0,0,0,0,0,0.0,0,0,0.0,0.0,0.0,0.0,0.0,0.0
19074,8975,US,112152,40.6944444444,-86.1941666667,,Census,Town,IN,"Onward, Indiana",0,0,0,0,0,0,0,0,0,0,0,0,0,0,135.0,127,140,153.0,111.0,121.0,63.0,81.0,100.0
19117,22995,US,112477,41.3438888889,-86.3125,,Census,City,IN,"Plymouth, Indiana",0,0,0,0,0,0,0,1277,2482,2570,2728,3656,3838,4338,5290.0,5713,6704,7558.0,7661.0,7693.0,8303.0,9840.0,10033.0
19131,26966,US,96095,38.71,-86.8,,Census,US County,IN,"Martin County, Indiana",0,0,0,1032,2010,3875,5941,8975,11103,13475,13973,14711,12950,11865,10103.0,10300,10678,10608.0,10969.0,11001.0,10369.0,10369.0,10334.0
19180,12815,US,112662,40.45,-87.2538888889,,Census,Town,IN,"Pine Village, Indiana",0,0,0,0,0,0,0,0,0,0,0,279,352,301,323.0,303,311,309.0,291.0,257.0,134.0,255.0,217.0
19222,25314,US,112601,41.6675,-86.1713888889,,Census,City,IN,"Mishawaka, Indiana",0,0,0,0,0,0,1412,1488,2617,2640,3371,5560,11886,15195,28630.0,28298,32918,33361.0,36060.0,40201.0,42608.0,46557.0,48252.0
19227,12563,US,341429,39.3094444444,-85.3294444444,,Census,Town,IN,"New Point, Indiana",0,0,0,0,0,0,0,0,0,174,0,451,341,317,342.0,328,322,319.0,381.0,296.0,296.0,290.0,331.0
19262,10344,US,112440,41.5458333333,-86.9041666667,,Census,Town,IN,"Westville, Indiana",0,0,0,0,0,0,0,0,640,627,522,468,503,408,496.0,523,624,789.0,2614.0,2887.0,2255.0,2116.0,5853.0
19303,18697,US,112346,40.4786111111,-85.9647222222,,Census,Town,IN,"Greentown, Indiana",0,0,0,0,0,0,0,0,0,236,731,1287,1156,1163,1081.0,1080,1180,1266.0,1870.0,2265.0,2172.0,2546.0,2415.0
19333,11635,US,112606,41.7186111111,-86.2516666667,,Census,Town,IN,"Roseland, Indiana",0,0,0,0,0,0,0,0,0,0,0,0,0,0,777.0,782,984,971.0,895.0,832.0,706.0,1809.0,630.0
19339,28090,US,112159,38.2955555556,-85.7313888889,,Census,City,IN,"Jeffersonville, Indiana",0,0,0,0,0,0,2122,4020,7254,9357,10666,10774,10412,10098,11946.0,11493,14685,19522.0,20008.0,21220.0,21841.0,27362.0,44953.0
19362,26340,US,112211,41.3655555556,-85.0563888889,,Census,City,IN,"Auburn, Indiana",0,0,0,0,0,0,260,639,677,1542,2415,3396,3919,4650,5088.0,5415,5879,6350.0,7388.0,8122.0,9379.0,12074.0,13086.0
19387,60716,US,96101,41.6,-86.7166666667,,Census,County,IN,"LaPorte County, Indiana",0,0,0,0,0,8184,12145,22919,27062,30985,34445,38386,45797,50443,60490.0,63660,76808,95111.0,105342.0,108632.0,107066.0,110106.0,111467.0
19401,10231,US,112330,39.6394444444,-86.6327777778,,Census,Town,IN,"Stilesville, Indiana",0,0,0,0,0,0,0,0,205,295,0,0,0,0,318.0,273,330,361.0,352.0,350.0,298.0,261.0,316.0
19411,6677,US,15129947,38.9127777778,-86.9038888889,,Census,Census-designated place,IN,"Scotland, Indiana",0,0,0,0,0,0,0,0,0,0,0,0,0,0,0.0,0,0,0.0,0.0,0.0,0.0,0.0,0.0
19428,39985,US,112241,39.6538888889,-85.1377777778,,Census,City,IN,"Connersville, Indiana",0,0,0,0,0,596,1396,2119,2496,3228,4548,6836,7738,9901,12795.0,12898,15550,17698.0,17604.0,17023.0,15550.0,15411.0,13481.0
19440,7940,US,10583696,38.8666666667,-85.2958333333,,Census,Census-designated place,IN,"Canaan, Indiana",0,0,0,0,0,0,0,0,0,0,0,0,0,0,0.0,0,0,0.0,0.0,0.0,0.0,0.0,0.0
19496,4851,US,12980023,41.1961111111,-84.9197222222,,Census,Census-designated place,IN,"Harlan, Indiana",0,0,0,0,0,0,0,0,0,0,0,0,0,0,0.0,0,0,0.0,0.0,0.0,0.0,0.0,0.0
19506,10974,US,112499,40.0875,-87.0655555556,,Census,Town,IN,"Waynetown, Indiana",0,0,0,0,0,0,0,0,0,569,576,757,734,691,664.0,644,658,933.0,993.0,915.0,911.0,909.0,958.0
19510,14801,US,112693,40.7380555556,-85.1722222222,,Census,City,IN,"Bluffton, Indiana",0,0,0,0,0,0,477,760,1131,2354,3589,4479,4987,5391,5074.0,5417,6076,6238.0,8297.0,8705.0,9020.0,9536.0,9897.0
19519,28922,US,96114,39.93,-85.4,,Census,US County,IN,"Henry County, Indiana",0,0,0,0,6497,15128,17605,20119,22986,24016,23879,25088,29758,34682,35238.0,40208,45505,48899.0,52603.0,53336.0,48139.0,48508.0,49462.0
19521,27735,US,96136,38.29,-86.46,,Census,US County,IN,"Crawford County, Indiana",0,0,0,2583,3238,5282,6524,8226,9851,12356,13941,13476,12057,11201,10160.0,10171,9289,8379.0,8033.0,9820.0,9914.0,10743.0,10713.0
19549,10415,US,112195,39.1213888889,-84.8538888889,,Census,City,IN,"Greendale, Indiana",0,0,0,0,0,0,0,0,0,286,435,473,697,763,1050.0,1548,2018,2861.0,3783.0,3795.0,3881.0,4296.0,4520.0
19576,4617,US,13713936,39.0355555556,-87.0858333333,,Census,Township,IN,"Grant Township, Greene County, Indiana",0,0,0,0,0,0,0,0,0,0,0,0,0,0,0.0,0,0,0.0,0.0,0.0,0.0,690.0,739.0
19597,10461,US,112369,40.3494444444,-85.1511111111,,Census,Town,IN,"Redkey, Indiana",0,0,0,0,0,0,0,0,0,386,922,2206,1714,1386,1370.0,1538,1639,1746.0,1667.0,1537.0,1383.0,1427.0,1353.0
19654,13183,US,112500,40.1727777778,-87.0736111111,,Census,Town,IN,"Wingate, Indiana",0,0,0,0,0,0,0,0,0,0,0,457,446,464,408.0,380,400,431.0,437.0,373.0,275.0,299.0,263.0
19750,7616,US,112239,41.7458333333,-85.9713888889,,Census,Census-designated place,IN,"Simonton Lake, Indiana",0,0,0,0,0,0,0,0,0,0,0,0,0,0,0.0,0,0,0.0,0.0,0.0,0.0,0.0,0.0
19751,11015,US,112673,38.4325,-86.19,,Census,Census-designated place,IN,"Fredericksburg, Indiana",0,0,0,0,0,0,0,0,0,0,0,0,0,0,0.0,0,0,0.0,0.0,0.0,0.0,0.0,0.0
19786,28139,US,96079,38.02,-87.86,,Census,US County,IN,"Posey County, Indiana",0,0,0,4061,6549,9683,12549,16167,19185,20857,21529,22333,21670,19334,17853.0,19183,19818,19214.0,21740.0,26414.0,25968.0,27061.0,25910.0
19831,6012,US,13770648,40.4138888889,-86.2702777778,,Census,Township,IN,"Honey Creek Township, Howard County, Indiana",0,0,0,0,0,0,0,0,0,0,0,0,0,0,0.0,0,0,0.0,0.0,0.0,0.0,1966.0,2109.0
19858,27040,US,96118,39.82,-85.77,,Census,US County,IN,"Hancock County, Indiana",0,0,0,0,1436,7535,9698,12802,15123,17123,17829,19189,19030,17210,16605.0,17302,20332,26665.0,35096.0,43939.0,45527.0,55391.0,70002.0
19861,28189,US,57222,40.3,-86.48,,Census,US County,IN,"Clinton County, Indiana",0,0,0,0,1423,7508,11869,14505,17330,23472,27370,28202,26674,27737,27329.0,28411,29734,30765.0,30547.0,31545.0,30974.0,33866.0,33224.0
19870,3907,US,17726454,38.9830555556,-85.7405555556,,Census,Census-designated place,IN,"Hayden, Indiana",0,0,0,0,0,0,0,0,0,0,0,0,0,0,0.0,0,0,0.0,0.0,0.0,0.0,0.0,0.0
19904,19276,US,112428,41.6761111111,-87.4905555556,,Census,City,IN,"Whiting, Indiana",0,0,0,0,0,0,0,0,0,115,200,3983,6587,10145,10880.0,10307,9669,8137.0,7054.0,5630.0,5155.0,5137.0,4997.0
19905,10846,US,112604,41.5330555556,-86.4302777778,,Census,Town,IN,"North Liberty, Indiana",0,0,0,0,0,0,0,0,223,346,0,504,681,684,823.0,978,1165,1241.0,1259.0,1211.0,1366.0,1402.0,1896.0
19913,25877,US,96062,39.62,-84.92,,Census,US County,IN,"Union County, Indiana",0,0,0,0,7944,8017,6944,7109,6341,7673,7006,6748,6260,6021,5880.0,6017,6412,6457.0,6582.0,6860.0,6976.0,7349.0,7516.0
19966,24435,US,112441,38.8627777778,-86.4922222222,,Census,City,IN,"Bedford, Indiana",0,0,0,0,0,0,962,0,0,2198,3351,6115,8716,9076,13208.0,12514,12562,13024.0,13087.0,14410.0,13817.0,13768.0,13413.0
20118,11303,US,112448,40.2222222222,-85.7719444444,,Census,Town,IN,"Frankton, Indiana",0,0,0,0,0,0,0,0,270,391,520,1464,936,739,829.0,824,1047,1445.0,1796.0,2080.0,1736.0,1905.0,1862.0
20159,10282,US,112395,41.2775,-86.0475,,Census,Town,IN,"Etna Green, Indiana",0,0,0,0,0,0,0,0,397,388,411,420,431,357,371.0,423,444,483.0,516.0,522.0,578.0,663.0,586.0
20367,20838,US,112553,37.9366666667,-87.8988888889,,Census,City,IN,"Mount Vernon, Indiana",0,0,0,0,0,0,1120,1994,2880,3730,4705,5132,5563,5284,5035.0,5638,6150,5970.0,6770.0,7656.0,7217.0,7478.0,6687.0
20451,5609,US,43810998,40.5752777778,-85.8233333333,,Census,Census-designated place,IN,"Mier, Indiana",0,0,0,0,0,0,0,0,0,0,0,0,0,0,0.0,0,0,0.0,0.0,0.0,0.0,0.0,0.0
20498,10886,US,112153,40.8638888889,-86.4997222222,,Census,Town,IN,"Royal Center, Indiana",0,0,0,0,0,0,0,0,306,399,527,657,909,900,777.0,865,876,966.0,987.0,908.0,859.0,832.0,861.0
20591,4965,US,4316635,41.7213888889,-85.4205555556,,Census,Census-designated place,IN,"Howe, Indiana",0,0,0,0,0,0,0,0,0,0,0,0,0,0,0.0,0,0,0.0,0.0,0.0,0.0,0.0,0.0
20639,11762,US,112181,38.3355555556,-86.4605555556,,Census,Town,IN,"English, Indiana",0,0,0,0,0,0,0,0,0,0,423,649,583,576,704.0,757,839,698.0,664.0,633.0,614.0,673.0,645.0
20676,197598,US,57707,39.7666666667,-86.15,,Census,Consolidated city-county,IN,Indianapolis,0,0,0,0,0,2695,8091,18611,48244,75056,105436,169164,233650,314194,364161.0,386972,427173,476258.0,744624.0,700807.0,731327.0,781926.0,820445.0
20705,10899,US,112656,40.6730555556,-85.7216666667,,Census,Town,IN,"La Fontaine, Indiana",0,0,0,0,0,0,0,0,0,295,0,0,683,601,604.0,554,627,779.0,793.0,946.0,909.0,900.0,875.0
20708,4233,US,49947378,39.7277777778,-86.7102777778,,Census,Census-designated place,IN,"Heritage Lake, Indiana",0,0,0,0,0,0,0,0,0,0,0,0,0,0,0.0,0,0,0.0,0.0,0.0,0.0,0.0,0.0
20717,11915,US,112555,38.1691666667,-87.7836111111,,Census,Town,IN,"Poseyville, Indiana",0,0,0,0,0,0,0,0,213,0,571,628,780,881,810.0,948,1005,997.0,1035.0,1247.0,1089.0,1187.0,1045.0
20735,13710,US,112663,40.1966666667,-87.5272222222,,Census,Town,IN,"State Line City, Indiana",0,0,0,0,0,0,0,0,0,268,201,174,194,178,165.0,157,152,171.0,176.0,233.0,182.0,141.0,143.0
20754,23878,US,6071690,,,,Census,Region,IN,Northern Indiana,0,0,0,0,0,0,0,0,0,0,524581,597433,687867,809770,1015942.0,1085251,1297939,1621357.0,1802562.0,1891741.0,1901209.0,2062933.0,2147765.0
20803,28897,US,96125,39.42,-85.06,,Census,US County,IN,"Franklin County, Indiana",0,0,0,10763,10190,13349,17968,19549,20223,20092,18366,16388,15335,14806,14498.0,14412,16034,17015.0,16943.0,19612.0,19580.0,22151.0,23087.0
20811,7993,US,112161,38.5625,-85.5413888889,,Census,Cdp,IN,"New Washington, Indiana",0,0,0,0,0,0,0,0,0,0,0,0,0,0,0.0,0,0,0.0,0.0,0.0,0.0,0.0,0.0
20828,11562,US,112276,40.5797222222,-85.8688888889,,Census,Town,IN,"Converse, Indiana",0,0,0,0,0,0,0,0,0,732,921,1415,1164,1049,931.0,943,979,1044.0,1163.0,1279.0,1144.0,1137.0,1265.0
20847,10870,US,112261,41.0388888889,-86.0247222222,,Census,Town,IN,"Akron, Indiana",0,0,0,0,0,0,0,0,0,193,0,0,768,930,932.0,990,946,958.0,1019.0,1045.0,1001.0,1076.0,1167.0
20865,10431,US,112277,40.4097222222,-85.5730555556,,Census,Town,IN,"Fowlerton, Indiana",0,0,0,0,0,0,0,0,0,0,0,0,293,225,204.0,255,292,297.0,337.0,300.0,306.0,298.0,261.0
20910,10682,US,112472,41.2977777778,-86.1169444444,,Census,Town,IN,"Bourbon, Indiana",0,0,0,0,0,0,0,0,874,1056,1064,1187,1163,1259,1193.0,1145,1404,1522.0,1606.0,1522.0,1672.0,1691.0,1810.0
20924,7185,US,15303604,39.0133333333,-86.545,,Census,Census-designated place,IN,"Harrodsburg, Indiana",0,0,0,0,0,0,0,0,0,0,0,0,0,0,0.0,0,0,0.0,0.0,0.0,0.0,0.0,0.0
20925,10832,US,112676,38.5563888889,-86.2780555556,,Census,Town,IN,"Livonia, Indiana",0,0,0,0,0,0,0,0,0,211,194,200,197,176,168.0,192,185,150.0,120.0,120.0,136.0,112.0,128.0
20956,11117,US,112114,41.215,-85.0155555556,,Census,Town,IN,"Leo-Cedarville, Indiana",0,0,0,0,0,0,0,0,0,0,0,0,0,0,0.0,0,0,0.0,0.0,0.0,0.0,2782.0,3603.0
21067,27120,US,96106,39.49,-86.1,,Census,US County,IN,"Johnson County, Indiana",0,0,0,0,4019,9352,12101,14854,18366,19537,19561,20223,20394,20739,21706.0,22493,26183,43704.0,61138.0,77240.0,88109.0,115209.0,139654.0
21097,12211,US,112612,41.2169444444,-86.7758333333,,Census,Town,IN,"North Judson, Indiana",0,0,0,0,0,0,0,0,115,165,572,868,1122,1189,1348.0,1408,1705,1942.0,1738.0,1653.0,1582.0,1675.0,1772.0
21122,10978,US,112314,38.0322222222,-86.0852777778,,Census,Town,IN,"Laconia, Indiana",0,0,0,0,0,0,0,0,0,112,133,135,82,83,103.0,83,82,75.0,64.0,58.0,75.0,29.0,50.0
21178,40761,US,96069,41.62,-86.29,,Census,US County,IN,"St. Joseph County, Indiana",0,0,0,0,287,6425,10954,18455,25322,33178,42457,58881,84312,103304,160033.0,161823,205058,238614.0,245045.0,241617.0,247052.0,265559.0,266931.0
21217,12573,US,112603,41.7041666667,-86.5047222222,,Census,Town,IN,"New Carlisle, Indiana",0,0,0,0,0,0,0,0,0,530,607,597,612,609,718.0,747,983,1376.0,1434.0,1439.0,1446.0,1505.0,1861.0
21295,6184,US,15124134,39.3094444444,-84.9005555556,,Census,Census-designated place,IN,"New Trenton, Indiana",0,0,0,0,0,0,0,0,0,0,0,0,0,0,0.0,0,0,0.0,0.0,0.0,0.0,0.0,0.0
21303,5712,US,2278349,38.1711111111,-86.8091666667,,Census,Census-designated place,IN,"Saint Meinrad, Indiana",0,0,0,0,0,0,0,0,0,0,0,0,0,0,0.0,0,0,0.0,0.0,0.0,0.0,0.0,0.0
21356,15448,US,112442,38.7338888889,-86.4744444444,,Census,City,IN,"Mitchell, Indiana",0,0,0,0,0,0,0,0,1087,1439,1583,1772,3438,3025,3226.0,3393,3245,3552.0,4092.0,4641.0,4669.0,4567.0,4350.0
21371,9114,US,112318,38.1636111111,-86.0505555556,,Census,Town,IN,"New Middletown, Indiana",0,0,0,0,0,0,0,0,0,171,212,167,145,119,118.0,115,153,132.0,133.0,115.0,82.0,77.0,93.0
21377,28444,US,96135,,,,Census,US County,IN,"Daviess County, Indiana",0,0,0,3432,4543,6720,10352,13323,16747,21552,26227,29914,27747,26856,25832.0,26163,26762,26636.0,26602.0,27836.0,27533.0,29820.0,31648.0
21485,10767,US,112326,39.8852777778,-86.5441666667,,Census,Town,IN,"Lizton, Indiana",0,0,0,0,0,0,0,0,0,0,0,0,224,182,217.0,200,276,366.0,397.0,456.0,410.0,372.0,488.0
21558,7256,US,112475,41.4138888889,-86.4825,,Census,Census-designated place,IN,"Koontz Lake, Indiana",0,0,0,0,0,0,0,0,0,0,0,0,0,0,0.0,0,0,0.0,0.0,0.0,0.0,0.0,0.0
21598,54872,US,112299,39.9561111111,-86.0127777778,,Census,City,IN,"Fishers, Indiana",0,0,0,0,0,0,0,0,0,138,0,0,188,142,138.0,164,219,344.0,628.0,2008.0,7508.0,37835.0,76794.0
21829,9723,US,112569,40.0475,-84.9422222222,,Census,Town,IN,"Lynn, Indiana",0,0,0,0,0,0,0,0,0,239,518,705,917,808,936.0,1014,1149,1260.0,1360.0,1250.0,1183.0,1143.0,1097.0
21838,10147,US,112669,38.1997222222,-87.3113888889,,Census,Town,IN,"Lynnville, Indiana",0,0,0,0,0,0,0,0,0,304,0,0,297,412,264.0,371,404,409.0,556.0,566.0,640.0,781.0,888.0
21850,19519,US,112453,40.0027777778,-85.7466666667,,Census,Town,IN,"Pendleton, Indiana",0,0,0,0,0,0,389,0,675,614,996,1512,1293,1244,1538.0,1681,2082,2472.0,2243.0,2130.0,2309.0,3873.0,4253.0
21873,30375,US,112633,40.4419444444,-86.9125,,Census,City,IN,"West Lafayette, Indiana",0,0,0,0,0,0,0,0,0,717,1242,2302,3867,3830,5095.0,6270,11873,12680.0,19157.0,21247.0,25907.0,28778.0,29596.0
21917,39965,US,112133,40.4525,-85.3694444444,,Census,City,IN,"Hartford City, Indiana",0,0,0,0,0,0,250,618,878,1470,2287,5912,6187,6183,6613.0,6946,7253,8053.0,8207.0,7622.0,6960.0,6928.0,6220.0
21930,11700,US,112495,39.9519444444,-86.9208333333,,Census,Town,IN,"New Market, Indiana",0,0,0,0,0,0,0,0,0,119,0,0,334,403,330.0,323,370,578.0,640.0,608.0,614.0,659.0,636.0
21948,11107,US,112623,39.0569444444,-87.5666666667,,Census,Town,IN,"Merom, Indiana",0,0,0,0,0,0,0,234,426,407,412,478,521,503,397.0,499,374,352.0,305.0,360.0,257.0,294.0,228.0
21960,5015,US,13713929,39.0419444444,-87.0041666667,,Census,Township,IN,"Fairplay Township, Greene County, Indiana",0,0,0,0,0,0,0,0,0,0,0,0,0,0,0.0,0,0,0.0,0.0,0.0,0.0,666.0,575.0
22015,62909,US,100584,39.4697222222,-87.3897222222,,Census,City,IN,"Terre Haute, Indiana",0,0,0,0,0,0,4051,8594,16103,26042,30217,36673,58157,66083,62810.0,62693,64214,71786.0,70335.0,61125.0,57483.0,59614.0,60785.0
22028,5672,US,17723378,41.5116666667,-87.1791666667,,Census,Census-designated place,IN,"Wheeler, Indiana",0,0,0,0,0,0,0,0,0,0,0,0,0,0,0.0,0,0,0.0,0.0,0.0,0.0,0.0,0.0
22042,10578,US,112149,40.5775,-86.1913888889,,Census,Town,IN,"Galveston, Indiana",0,0,0,0,0,0,0,0,390,415,0,0,658,691,606.0,735,905,1111.0,1284.0,1822.0,1609.0,1532.0,1311.0
22069,9295,US,112335,39.9038888889,-85.5188888889,,Census,Town,IN,"Kennard, Indiana",0,0,0,0,0,0,0,0,0,0,0,417,449,541,440.0,522,485,466.0,518.0,441.0,382.0,455.0,471.0
22135,8929,US,112186,38.6691666667,-86.9991666667,,Census,Town,IN,"Cannelburg, Indiana",0,0,0,0,0,0,0,0,0,159,276,280,300,224,132.0,145,128,124.0,149.0,152.0,97.0,140.0,135.0
22144,11735,US,112243,38.3505555556,-85.9405555556,,Census,Census-designated place,IN,"Galena, Indiana",0,0,0,0,0,0,0,0,0,0,0,0,0,0,0.0,0,0,0.0,0.0,0.0,0.0,0.0,0.0
22151,10989,US,112210,41.5261111111,-85.0647222222,,Census,Town,IN,"Ashley, Indiana",0,0,0,0,0,0,0,0,0,0,0,1040,639,618,623.0,675,680,721.0,721.0,841.0,767.0,1010.0,983.0
22215,4468,US,17726491,39.0344444444,-85.5127777778,,Census,Census-designated place,IN,"Butlerville, Indiana",0,0,0,0,0,0,0,0,0,0,0,0,0,0,0.0,0,0,0.0,0.0,0.0,0.0,0.0,0.0
