,article_length,country,id,lat,lon,other_years,poptype,settlement_type,state,title,y1790,y1800,y1810,y1820,y1830,y1840,y1850,y1860,y1870,y1880,y1890,y1900,y1910,y1920,y1930,y1940,y1950,y1960,y1970,y1980,y1990,y2000,y2010
53,7098,US,122394,31.2041666667,-89.0319444444,,Census,Town,MS,"New Augusta, Mississippi",0,0,0,0,0,0,0,0,80,0,0,0,0,0,0.0,0,0,275.0,511.0,589.0,668.0,715.0,644.0
242,8842,US,124697,34.0686111111,-88.3955555556,,Census,Town,MS,"Smithville, Mississippi",0,0,0,0,0,0,0,0,0,0,0,150,179,138,401.0,402,419,489.0,552.0,866.0,871.0,882.0,942.0
355,8451,US,122440,33.9469444444,-90.3452777778,,Census,Town,MS,"Webb, Mississippi",0,0,0,0,0,0,0,0,0,0,0,128,292,553,531.0,606,680,686.0,751.0,782.0,605.0,587.0,565.0
372,14337,US,122212,31.1608333333,-90.8038888889,,Census,Town,MS,"Liberty, Mississippi",0,0,0,0,0,0,0,0,0,0,0,392,556,515,551.0,665,683,642.0,612.0,669.0,624.0,633.0,728.0
401,6486,US,122398,31.0072222222,-90.4711111111,,Census,Town,MS,"Osyka, Mississippi",0,0,0,0,0,0,0,0,0,542,742,784,824,704,750.0,769,724,712.0,628.0,581.0,483.0,481.0,440.0
521,8242,US,124689,31.6047222222,-90.0016666667,,Census,Town,MS,"Silver Creek, Mississippi",0,0,0,0,0,0,0,0,0,0,0,0,544,252,341.0,278,275,229.0,257.0,272.0,190.0,209.0,210.0
594,12956,US,122295,32.1013888889,-90.2944444444,,Census,Town,MS,"Terry, Mississippi",0,0,0,0,0,0,0,0,0,198,0,481,473,392,412.0,401,497,585.0,546.0,655.0,613.0,664.0,1063.0
689,8466,US,124676,34.3308333333,-88.4933333333,,Census,Town,MS,"Mantachie, Mississippi",0,0,0,0,0,0,0,0,0,0,0,0,161,195,188.0,238,178,246.0,534.0,732.0,651.0,1107.0,1144.0
791,8221,US,150684,31.2788888889,-91.0613888889,,Census,Town,MS,"Crosby, Mississippi",0,0,0,0,0,0,0,0,0,0,0,0,0,0,0.0,1489,1152,705.0,491.0,349.0,465.0,360.0,318.0
800,36995,US,122205,31.5544444444,-91.3875,,Census,Sole incorporated city,MS,"Natchez, Mississippi",0,0,1511,2184,2789,3612,4434,6612,9057,7058,10101,12210,11791,12608,13422.0,15296,22740,23791.0,19704.0,22015.0,19535.0,18464.0,15792.0
872,9303,US,124716,31.1161111111,-90.1427777778,,Census,Town,MS,"Tylertown, Mississippi",0,0,0,0,0,0,0,0,0,0,0,0,795,1116,1102.0,1376,1331,1532.0,1736.0,1976.0,1938.0,1910.0,1609.0
934,32862,US,94814,,,,Census,US County,MS,"Jones County, Mississippi",0,0,0,0,1471,1258,2164,3323,3313,3828,8333,17846,29885,32919,41492.0,49227,57235,59542.0,56357.0,61912.0,62031.0,64958.0,67761.0
1085,6292,US,122338,34.2691666667,-89.5838888889,,Census,Town,MS,"Taylor, Mississippi",0,0,0,0,0,0,0,0,0,85,0,101,147,209,169.0,164,125,122.0,92.0,301.0,288.0,500.0,322.0
1132,7435,US,122460,33.27,-90.8802777778,,Census,Town,MS,"Arcola, Mississippi",0,0,0,0,0,0,0,0,0,0,0,0,512,453,343.0,444,413,366.0,517.0,588.0,564.0,563.0,361.0
1134,22200,US,122260,31.6422222222,-89.5594444444,,Census,City,MS,"Collins, Mississippi",0,0,0,0,0,0,0,0,0,0,0,0,2581,1389,935.0,1100,1293,1537.0,1934.0,2131.0,2541.0,2683.0,2586.0
1165,14975,US,122308,32.9011111111,-91.0505555556,,Census,Town,MS,"Mayersville, Mississippi",0,0,0,0,0,0,0,0,0,355,0,250,185,0,0.0,0,0,0.0,0.0,378.0,329.0,795.0,547.0
1212,22564,US,94732,33.29,-90.95,,Census,US County,MS,"Washington County, Mississippi",0,0,0,0,1976,7287,8389,15679,14569,25367,40414,49216,48933,51092,54310.0,67576,70504,78638.0,70581.0,72344.0,67935.0,62977.0,51137.0
1330,8387,US,150692,34.0883333333,-88.6227777778,,Census,Town,MS,"Nettleton, Mississippi",0,0,0,0,0,0,0,0,0,0,0,570,733,653,834.0,861,1204,1389.0,1591.0,1911.0,2462.0,1932.0,1992.0
1333,21066,US,94772,32.75,-89.12,,Census,US County,MS,"Neshoba County, Mississippi",0,0,0,0,0,2437,4728,8343,7439,8741,11146,12726,17980,19303,26691.0,27882,25730,20927.0,20802.0,23789.0,24800.0,28684.0,29676.0
1350,13689,US,122365,32.4569444444,-90.1086111111,,Census,City,MS,"Madison, Mississippi",0,0,0,0,0,0,0,0,0,0,0,0,0,0,0.0,0,540,703.0,853.0,2241.0,7471.0,14692.0,24149.0
1539,7286,US,122215,33.0205555556,-89.7644444444,,Census,Town,MS,"Sallis, Mississippi",0,0,0,0,0,0,0,0,0,132,156,195,247,273,364.0,287,228,223.0,213.0,211.0,139.0,114.0,134.0
1595,27952,US,122461,33.3986111111,-91.0483333333,,Census,City,MS,"Greenville, Mississippi",0,0,0,0,0,0,0,760,890,2191,6658,7642,9610,11560,14807.0,20892,29936,41502.0,39648.0,40613.0,45226.0,41633.0,34400.0
1663,12493,US,122302,33.1808333333,-90.2225,,Census,Town,MS,"Tchula, Mississippi",0,0,0,0,0,0,0,0,0,90,0,398,478,550,907.0,861,927,882.0,1729.0,1931.0,2186.0,2332.0,2096.0
1761,15272,US,21566705,32.2802777778,-89.9983333333,,Census,City,MS,"Brandon, Mississippi",0,0,0,0,0,0,0,867,756,864,835,775,720,691,692.0,1184,1827,2139.0,2685.0,9626.0,11077.0,16436.0,21705.0
1764,12704,US,122404,34.6611111111,-88.5613888889,,Census,City,MS,"Booneville, Mississippi",0,0,0,0,0,0,0,0,458,603,748,1050,1337,1495,1703.0,1893,3295,3480.0,5895.0,6199.0,7955.0,8625.0,8743.0
1814,11127,US,122445,34.7325,-88.9469444444,,Census,City,MS,"Ripley, Mississippi",0,0,0,0,0,0,0,683,422,637,574,653,767,856,1468.0,2011,2383,2668.0,3482.0,4271.0,5371.0,5478.0,5395.0
1856,10206,US,122269,31.4633333333,-90.8466666667,,Census,Town,MS,"Bude, Mississippi",0,0,0,0,0,0,0,0,0,0,0,0,0,1121,1378.0,1207,1195,1185.0,1146.0,1092.0,969.0,1037.0,1063.0
2411,9084,US,122429,32.0330555556,-89.5227777778,,Census,Town,MS,"Raleigh, Mississippi",0,0,0,0,0,0,0,0,0,0,0,0,0,0,0.0,644,580,614.0,1018.0,998.0,1291.0,1255.0,1462.0
2484,7756,US,122222,34.0422222222,-90.7466666667,,Census,Town,MS,"Duncan, Mississippi",0,0,0,0,0,0,0,0,0,0,0,172,284,322,337.0,419,436,465.0,599.0,501.0,416.0,578.0,423.0
2491,12323,US,122284,30.3525,-89.1597222222,,Census,City,MS,"Long Beach, Mississippi",0,0,0,0,0,0,0,0,0,0,0,0,1026,980,1346.0,1495,2703,4770.0,6170.0,14199.0,15804.0,17320.0,14792.0
2524,21719,US,94826,30.42,-89.09,,Census,US County,MS,"Harrison County, Mississippi",0,0,0,0,0,0,4875,4819,5795,7895,12481,21002,34658,32855,44143.0,50799,84073,119489.0,134582.0,157665.0,165365.0,189601.0,187105.0
2617,13059,US,122433,33.3527777778,-90.5919444444,,Census,Town,MS,"Inverness, Mississippi",0,0,0,0,0,0,0,0,0,0,0,0,221,561,683.0,677,1010,1039.0,1119.0,1034.0,1174.0,1153.0,1019.0
2641,14049,US,122462,33.1733333333,-90.8552777778,,Census,City,MS,"Hollandale, Mississippi",0,0,0,0,0,0,0,0,0,0,0,325,481,799,1211.0,1606,2346,2646.0,3260.0,4336.0,3576.0,3437.0,2702.0
2682,9338,US,122336,32.8280555556,-88.4763888889,,Census,Town,MS,"Scooba, Mississippi",0,0,0,0,0,0,0,0,0,0,0,286,322,700,933.0,606,734,513.0,626.0,511.0,541.0,632.0,732.0
2745,7571,US,122242,33.7791666667,-89.0511111111,,Census,Village,MS,"Woodland, Mississippi",0,0,0,0,0,0,0,0,0,0,0,0,156,0,0.0,0,0,0.0,130.0,135.0,182.0,159.0,125.0
2750,7050,US,150697,32.3433333333,-89.3280555556,,Census,Town,MS,"Lake, Mississippi",0,0,0,0,0,0,0,0,0,190,0,0,429,455,375.0,437,345,297.0,441.0,524.0,369.0,408.0,324.0
2832,24926,US,94850,,,,Census,US County,MS,"Bolivar County, Mississippi",0,0,0,0,0,1356,2577,10471,9732,18652,29980,35427,48905,57669,71051.0,67564,63004,54464.0,49409.0,45965.0,41875.0,40633.0,34145.0
2995,13759,US,122354,33.4958333333,-90.3222222222,,Census,City,MS,"Itta Bena, Mississippi",0,0,0,0,0,0,0,0,0,0,0,416,1427,1620,1370.0,1795,1725,1914.0,2489.0,2904.0,2377.0,2208.0,2049.0
3067,6925,US,122356,33.6402777778,-90.3472222222,,Census,Town,MS,"Schlater, Mississippi",0,0,0,0,0,0,0,0,0,0,0,0,0,0,0.0,0,0,0.0,398.0,429.0,404.0,388.0,310.0
3085,20319,US,94816,31.56,-89.82,,Census,US County,MS,"Jefferson Davis County, Mississippi",0,0,0,0,0,0,0,0,0,0,0,0,12860,12755,14281.0,15869,15500,13540.0,12936.0,13846.0,14051.0,13962.0,12487.0
3111,23088,US,94825,32.26,-90.44,,Census,US County,MS,"Hinds County, Mississippi",0,0,0,0,8645,19098,25340,31339,30488,43958,39279,52577,63726,57110,85118.0,107273,142164,187045.0,214973.0,250998.0,254441.0,250800.0,245285.0
3147,13061,US,122228,33.8536111111,-91.0269444444,,Census,City,MS,"Rosedale, Mississippi",0,0,0,0,0,0,0,0,0,0,376,622,1103,1696,2117.0,2063,2197,2339.0,2599.0,2793.0,2595.0,2414.0,1873.0
3162,34019,US,94843,31.97,-90.91,,Census,US County,MS,"Claiborne County, Mississippi",0,0,3102,5963,9787,13078,14941,15679,13386,16768,14516,20787,17403,13019,12152.0,12810,11944,10845.0,10086.0,12279.0,11370.0,11831.0,9604.0
3177,17997,US,122397,31.2444722222,-90.4715916667,,Census,City,MS,"McComb, Mississippi",0,0,0,0,0,0,0,0,0,1982,2383,4477,6237,7775,10057.0,9898,10401,12020.0,11969.0,12331.0,11591.0,13337.0,12790.0
3206,12663,US,122331,31.6011111111,-89.2022222222,,Census,City,MS,"Ellisville, Mississippi",0,0,0,0,0,0,0,0,0,37,967,1899,2446,1681,2127.0,2607,3579,4592.0,4643.0,4652.0,3634.0,3465.0,4448.0
3233,13867,US,122220,33.7905555556,-90.9805555556,,Census,Town,MS,"Beulah, Mississippi",0,0,0,0,0,0,0,0,0,0,0,0,0,0,506.0,347,342,421.0,443.0,431.0,460.0,473.0,348.0
3270,26973,US,94839,34.23,-90.6,,Census,US County,MS,"Coahoma County, Mississippi",0,0,0,0,0,1290,2780,6606,7144,13568,18342,26293,34217,41511,46327.0,48333,49361,46212.0,40447.0,36918.0,31665.0,30622.0,26151.0
3330,8108,US,122217,34.6180555556,-89.1888888889,,Census,Town,MS,"Hickory Flat, Mississippi",0,0,0,0,0,0,0,0,0,0,293,204,261,269,337.0,352,345,344.0,354.0,458.0,535.0,565.0,601.0
3393,7354,US,122255,31.7216666667,-90.3880555556,,Census,Village,MS,"Beauregard, Mississippi",0,0,0,0,0,0,0,0,315,517,0,338,240,173,203.0,223,231,193.0,199.0,185.0,206.0,265.0,326.0
3413,6755,US,122349,34.2116666667,-88.6636111111,,Census,Town,MS,"Plantersville, Mississippi",0,0,0,0,0,0,0,0,0,0,0,187,165,275,346.0,495,479,572.0,910.0,920.0,1046.0,1144.0,1155.0
3701,10812,US,122391,30.5280555556,-89.6802777778,,Census,City,MS,"Picayune, Mississippi",0,0,0,0,0,0,0,0,0,0,0,0,846,2479,4698.0,5129,6707,7834.0,10467.0,10361.0,10633.0,10535.0,10878.0
3768,26259,US,94753,32.4,-89.55,,Census,US County,MS,"Scott County, Mississippi",0,0,0,0,0,1653,3961,8139,7847,10845,11740,14316,16723,16420,20914.0,23144,21681,21187.0,21369.0,24556.0,24137.0,28423.0,28264.0
3832,31380,US,94834,34.88,-89.99,,Census,US County,MS,"DeSoto County, Mississippi",0,0,0,0,0,7002,19042,23336,32021,22924,24183,24751,23130,24359,25438.0,26663,24599,23891.0,35885.0,53930.0,67910.0,107199.0,161252.0
3841,7710,US,122208,34.86,-88.4186111111,,Census,Town,MS,"Glen, Mississippi",0,0,0,0,0,0,0,0,0,0,0,0,0,0,0.0,0,0,0.0,0.0,0.0,0.0,286.0,412.0
3967,6483,US,122382,32.325,-89.1594444444,,Census,City,MS,"Newton, Mississippi",0,0,0,0,0,0,0,0,154,0,0,537,1878,1604,2011.0,1800,2912,3178.0,3556.0,3708.0,3701.0,3699.0,3373.0
3976,18142,US,94751,31.92,-89.92,,Census,US County,MS,"Simpson County, Mississippi",0,0,0,0,2680,3380,4734,6080,5718,8008,10138,12800,17201,18109,20897.0,22024,21819,20454.0,19947.0,23441.0,23953.0,27639.0,27503.0
3996,5909,US,122407,34.3933333333,-90.2558333333,,Census,Town,MS,"Falcon, Mississippi",0,0,0,0,0,0,0,0,0,0,0,0,0,0,0.0,0,0,0.0,0.0,260.0,167.0,317.0,167.0
4054,7316,US,122416,32.0830555556,-89.7777777778,,Census,Town,MS,"Puckett, Mississippi",0,0,0,0,0,0,0,0,0,0,0,0,0,0,0.0,0,0,302.0,333.0,279.0,294.0,354.0,316.0
4324,10348,US,122458,34.4922222222,-89.0094444444,,Census,City,MS,"New Albany, Mississippi",0,0,0,0,0,0,0,0,0,250,548,1033,2032,2531,3187.0,3602,3680,5151.0,6426.0,7072.0,6775.0,7607.0,8034.0
4353,11625,US,122450,34.8105555556,-88.1958333333,,Census,City,MS,"Iuka, Mississippi",0,0,0,0,0,0,0,0,0,845,1019,882,1221,1306,1441.0,1664,1527,2010.0,2389.0,2846.0,3122.0,3059.0,3028.0
4376,10003,US,122408,34.2019444444,-90.2830555556,,Census,Town,MS,"Lambert, Mississippi",0,0,0,0,0,0,0,0,0,0,0,0,573,957,800.0,1016,1023,1181.0,1511.0,1624.0,1131.0,1967.0,1638.0
4380,6851,US,122227,33.7802777778,-90.7227777778,,Census,Town,MS,"Renova, Mississippi",0,0,0,0,0,0,0,0,0,0,0,0,0,0,0.0,0,0,0.0,0.0,659.0,636.0,623.0,668.0
4467,39659,US,94746,,,,Census,US County,MS,"Sunflower County, Mississippi",0,0,0,0,0,0,1102,5019,5015,4661,9384,16084,28787,46374,66364.0,61007,56031,45750.0,37047.0,34844.0,32867.0,34369.0,29450.0
4719,8335,US,122245,33.2633333333,-89.2894444444,,Census,Town,MS,"Weir, Mississippi",0,0,0,0,0,0,0,0,0,0,0,91,220,377,570.0,552,570,522.0,573.0,553.0,525.0,553.0,459.0
4725,10557,US,122239,33.8980555556,-89.0016666667,,Census,City,MS,"Houston, Mississippi",0,0,0,0,0,0,0,0,400,480,893,677,1400,1408,1477.0,1729,1664,2577.0,2720.0,3745.0,3903.0,4079.0,3623.0
4875,23306,US,122369,34.7733333333,-89.4463888889,,Census,City,MS,"Holly Springs, Mississippi",0,0,0,0,0,0,0,2987,2406,2370,2246,2815,2192,2113,2271.0,2750,3276,5621.0,5728.0,7285.0,7261.0,7957.0,7699.0
4909,8328,US,122210,34.7647222222,-88.5291666667,,Census,Town,MS,"Rienzi, Mississippi",0,0,0,0,0,0,0,0,0,0,0,230,434,493,500.0,458,468,375.0,363.0,423.0,339.0,330.0,317.0
4948,31041,US,94822,32.74,-90.99,,Census,US County,MS,"Issaquena County, Mississippi",0,0,0,0,0,0,4478,7831,6887,10004,12318,10400,10560,7618,5734.0,6433,4966,3576.0,2737.0,2513.0,1909.0,2274.0,1406.0
4976,8027,US,122303,33.1969444444,-89.7772222222,,Census,Town,MS,"West, Mississippi",0,0,0,0,0,0,0,0,0,200,0,196,276,236,370.0,402,354,282.0,305.0,253.0,184.0,220.0,185.0
5029,19274,US,94856,34.88,-88.58,,Census,US County,MS,"Alcorn County, Mississippi",0,0,0,0,0,0,0,0,10431,14272,13115,14987,18159,21369,23653.0,26969,27158,25282.0,27179.0,33036.0,31722.0,34558.0,37057.0
5079,23910,US,94819,32.02,-89.12,,Census,US County,MS,"Jasper County, Mississippi",0,0,0,0,0,3958,6184,11007,10884,12126,14785,15394,18498,18508,18634.0,19484,18912,16909.0,15994.0,17265.0,17114.0,18149.0,17062.0
5146,7975,US,122350,34.3730555556,-88.6894444444,,Census,City,MS,"Saltillo, Mississippi",0,0,0,0,0,0,0,0,148,262,0,209,306,440,432.0,468,501,536.0,836.0,1271.0,1782.0,3393.0,4752.0
5254,22548,US,94846,33.92,-88.95,,Census,US County,MS,"Chickasaw County, Mississippi",0,0,0,0,0,2955,16369,16426,19899,17905,19891,19892,22846,22212,20835.0,21427,18951,16891.0,16805.0,17853.0,18085.0,19440.0,17392.0
5265,9935,US,122298,33.0763888889,-89.8563888889,,Census,City,MS,"Durant, Mississippi",0,0,0,0,0,0,0,0,375,724,1259,1766,1881,1870,2480.0,2510,2311,2617.0,2752.0,2889.0,2838.0,2932.0,2673.0
5324,7720,US,122355,33.3797222222,-90.3497222222,,Census,Town,MS,"Morgan City, Mississippi",0,0,0,0,0,0,0,0,0,0,0,0,0,0,0.0,0,0,0.0,207.0,319.0,139.0,305.0,255.0
5482,34577,US,122252,34.2,-90.5666666667,,Census,City,MS,"Clarksdale, Mississippi",0,0,0,0,0,0,0,0,0,0,781,1773,4079,7552,10043.0,12168,16539,21105.0,21673.0,21137.0,19717.0,20645.0,17962.0
5493,22859,US,124678,30.3636111111,-88.5419444444,,Census,City,MS,"Pascagoula, Mississippi",0,0,0,0,0,0,0,0,480,418,0,708,3379,6082,4339.0,5900,10805,17155.0,27264.0,29318.0,25899.0,26200.0,22392.0
5571,17911,US,94742,,,,Census,US County,MS,"Tippah County, Mississippi",0,0,0,0,0,9444,20741,22550,20727,12867,12951,12983,14631,15419,18658.0,19680,17522,15093.0,15852.0,18739.0,19523.0,20826.0,22232.0
5594,6335,US,122424,32.0238888889,-89.9705555556,,Census,Village,MS,"Braxton, Mississippi",0,0,0,0,0,0,0,0,0,0,0,0,286,237,222.0,220,206,191.0,180.0,172.0,141.0,181.0,183.0
5645,49752,US,122459,32.3361111111,-90.8752777778,,Census,City,MS,"Vicksburg, Mississippi",0,0,0,0,0,0,3678,4591,12443,11814,13373,14834,20814,18072,22943.0,24460,27948,29143.0,25478.0,25434.0,20908.0,26407.0,23856.0
5802,13875,US,122366,32.4188888889,-90.125,,Census,City,MS,"Ridgeland, Mississippi",0,0,0,0,0,0,0,0,0,0,0,0,158,164,217.0,233,526,875.0,1650.0,5461.0,11714.0,20173.0,24047.0
5816,6238,US,122325,32.0722222222,-89.2577777778,,Census,Town,MS,"Louin, Mississippi",0,0,0,0,0,0,0,0,0,0,0,0,523,475,583.0,485,478,389.0,382.0,338.0,289.0,339.0,277.0
5858,7019,US,122373,33.9797222222,-88.4261111111,,Census,Town,MS,"Hatley, Mississippi",0,0,0,0,0,0,0,0,0,0,0,0,0,0,0.0,0,0,0.0,385.0,497.0,529.0,476.0,482.0
5881,7109,US,122401,34.3555555556,-89.0275,,Census,Town,MS,"Ecru, Mississippi",0,0,0,0,0,0,0,0,0,0,0,0,475,642,560.0,601,494,442.0,417.0,687.0,696.0,947.0,895.0
6290,8925,US,122341,32.4222222222,-88.6472222222,,Census,Town,MS,"Marion, Mississippi",0,0,0,0,0,0,0,0,0,347,0,0,0,0,0.0,0,0,0.0,0.0,771.0,1359.0,1305.0,1479.0
6402,8520,US,122221,33.7047222222,-90.7258333333,,Census,Town,MS,"Boyle, Mississippi",0,0,0,0,0,0,0,0,0,0,0,538,444,702,678.0,742,799,848.0,861.0,888.0,651.0,720.0,650.0
6437,21720,US,94847,33.45,-89.92,,Census,US County,MS,"Carroll County, Mississippi",0,0,0,0,0,10481,18491,22035,21047,17795,18773,22116,23139,20324,19765.0,20651,15499,11177.0,9397.0,9776.0,9237.0,10769.0,10597.0
6520,13821,US,122249,32.0430555556,-88.7208333333,,Census,City,MS,"Quitman, Mississippi",0,0,0,0,0,0,0,0,0,410,395,498,950,1375,1872.0,1471,1817,2030.0,2702.0,2632.0,2736.0,2463.0,2323.0
6559,19895,US,94773,33.89,-88.49,,Census,US County,MS,"Monroe County, Mississippi",0,0,0,2721,3861,9250,21172,21283,22631,28553,30730,31216,35178,32613,36141.0,37648,36543,33953.0,34043.0,36404.0,36582.0,38014.0,36989.0
6659,54557,US,129294,31.3158333333,-89.3086111111,,Census,City,MS,"Hattiesburg, Mississippi",0,0,0,0,0,0,0,0,0,0,1172,4175,11733,13270,18601.0,21026,29474,34989.0,39648.0,40829.0,41882.0,44779.0,45989.0
6672,19527,US,94774,34.77,-89.51,,Census,US County,MS,"Marshall County, Mississippi",0,0,0,0,0,17526,29689,28823,29416,29330,26043,27674,26796,26105,24869.0,25522,25106,24503.0,24027.0,29296.0,30361.0,34993.0,37144.0
6674,17541,US,122267,34.9602777778,-89.8416666667,,Census,City,MS,"Olive Branch, Mississippi",0,0,0,0,0,0,0,0,0,73,199,198,221,197,336.0,441,534,642.0,1513.0,2067.0,3567.0,21054.0,33484.0
6728,8685,US,122423,32.9063888889,-90.8780555556,,Census,City,MS,"Rolling Fork, Mississippi",0,0,0,0,0,0,0,0,0,91,0,0,0,703,902.0,1320,1229,1619.0,2034.0,2590.0,2444.0,2486.0,2143.0
6750,7462,US,124659,34.0886111111,-90.7205555556,,Census,Town,MS,"Alligator, Mississippi",0,0,0,0,0,0,0,0,0,0,0,0,0,263,278.0,206,214,227.0,280.0,256.0,187.0,220.0,208.0
6790,18183,US,122439,34.0147222222,-90.4316666667,,Census,Town,MS,"Tutwiler, Mississippi",0,0,0,0,0,0,0,0,0,0,0,142,410,1010,873.0,665,939,912.0,1103.0,1174.0,1391.0,1364.0,3550.0
6959,11366,US,122427,31.9611111111,-89.8675,,Census,City,MS,"Mendenhall, Mississippi",0,0,0,0,0,0,0,0,0,0,0,0,606,637,919.0,1282,1539,1946.0,2402.0,2533.0,2463.0,2555.0,2504.0
7006,8964,US,122409,34.255,-90.2727777778,,Census,City,MS,"Marks, Mississippi",0,0,0,0,0,0,0,0,0,0,0,0,670,1020,1258.0,1818,2209,2572.0,2609.0,2260.0,1758.0,1551.0,1735.0
7038,9105,US,150689,31.0038888889,-89.4536111111,,Census,City,MS,"Lumberton, Mississippi",0,0,0,0,0,0,0,0,0,0,0,1509,2122,2192,2374.0,1485,1803,2108.0,2084.0,2217.0,2121.0,2228.0,2086.0
7076,10231,US,122273,31.105,-88.8238888889,,Census,Town,MS,"McLain, Mississippi",0,0,0,0,0,0,0,0,0,0,0,0,0,0,0.0,0,0,0.0,632.0,688.0,536.0,603.0,441.0
7284,6902,US,122223,33.9425,-90.9461111111,,Census,Town,MS,"Gunnison, Mississippi",0,0,0,0,0,0,0,0,0,0,0,477,515,485,484.0,396,453,448.0,545.0,708.0,611.0,633.0,452.0
7285,9057,US,122306,32.9816666667,-90.5916666667,,Census,Town,MS,"Louise, Mississippi",0,0,0,0,0,0,0,0,0,0,0,0,69,537,514.0,456,479,481.0,444.0,400.0,343.0,315.0,199.0
7627,11469,US,122438,33.97,-90.3697222222,,Census,Town,MS,"Sumner, Mississippi",0,0,0,0,0,0,0,0,0,0,0,0,364,613,618.0,662,550,551.0,533.0,452.0,368.0,407.0,316.0
7691,22168,US,57241,31.48,-91.35,,Census,US County,MS,"Adams County, Mississippi",0,4660,10002,12076,14937,19434,18601,20165,19084,22649,26031,30111,25265,22183,23564.0,27238,32256,37730.0,37293.0,38035.0,35356.0,34340.0,32297.0
7749,6685,US,122326,32.1241666667,-89.2355555556,,Census,Town,MS,"Montrose, Mississippi",0,0,0,0,0,0,0,0,0,0,0,0,427,398,312.0,278,222,169.0,160.0,120.0,106.0,127.0,140.0
7867,19432,US,94823,33.13,-90.52,,Census,US County,MS,"Humphreys County, Mississippi",0,0,0,0,0,0,0,0,0,0,0,0,0,19192,24729.0,26257,23115,19093.0,14601.0,13931.0,12134.0,11206.0,9375.0
8009,9010,US,122375,33.4422222222,-89.5697222222,,Census,Town,MS,"Kilmichael, Mississippi",0,0,0,0,0,0,0,0,0,0,0,227,380,395,577.0,556,511,532.0,543.0,906.0,826.0,830.0,699.0
8061,18537,US,94760,34.23,-89.04,,Census,US County,MS,"Pontotoc County, Mississippi",0,0,0,0,0,4491,17112,22113,12525,13858,14940,18274,19688,19962,22034.0,22904,19994,17232.0,17363.0,20918.0,22237.0,26726.0,29957.0
8201,19577,US,122430,30.8586111111,-89.1377777778,,Census,City,MS,"Wiggins, Mississippi",0,0,0,0,0,0,0,0,0,0,0,0,980,1037,1074.0,1141,1436,1591.0,2995.0,3205.0,3185.0,3849.0,4390.0
8211,21482,US,94728,31.16,-91.32,,Census,US County,MS,"Wilkinson County, Mississippi",0,0,5068,9718,11686,14193,16914,15933,12705,17815,17592,21453,18075,15319,13957.0,15955,14116,13235.0,11099.0,10021.0,9678.0,10312.0,9878.0
8290,6624,US,124704,34.2558333333,-89.2344444444,,Census,Town,MS,"Toccopola, Mississippi",0,0,0,0,0,0,0,0,0,0,190,249,233,325,288.0,332,262,198.0,175.0,184.0,154.0,189.0,246.0
8568,18828,US,122254,34.3661111111,-90.6369444444,,Census,Town,MS,"Friars Point, Mississippi",0,0,0,0,0,0,0,0,0,676,674,750,876,954,988.0,940,916,1029.0,1177.0,1400.0,1334.0,1480.0,1200.0
8661,28679,US,94755,34.25,-90.29,,Census,US County,MS,"Quitman County, Mississippi",0,0,0,0,0,0,0,0,0,1407,3286,5435,11593,19861,25304.0,27191,25885,21019.0,15888.0,12636.0,10490.0,10117.0,8223.0
8715,18548,US,94748,30.79,-89.12,,Census,US County,MS,"Stone County, Mississippi",0,0,0,0,0,0,0,0,0,0,0,0,0,6528,5704.0,6155,6264,7013.0,8101.0,9716.0,10750.0,13622.0,17786.0
8849,11062,US,122463,33.405,-90.8972222222,,Census,City,MS,"Leland, Mississippi",0,0,0,0,0,0,0,0,0,0,485,762,1547,2003,2426.0,3700,4736,6295.0,6000.0,6667.0,6366.0,5502.0,4481.0
8965,10522,US,124670,34.9586111111,-90.0430555556,,Census,City,MS,"Horn Lake, Mississippi",0,0,0,0,0,0,0,0,0,0,0,0,0,0,0.0,0,0,0.0,2170.0,4326.0,9069.0,14099.0,26066.0
9049,7095,US,124683,34.5044444444,-89.5008333333,,Census,Town,MS,"Abbeville, Mississippi",0,0,0,0,0,0,0,0,0,223,0,255,243,235,243.0,0,0,0.0,0.0,448.0,399.0,423.0,419.0
9052,6562,US,124702,34.215,-89.9441666667,,Census,Village,MS,"Pope, Mississippi",0,0,0,0,0,0,0,0,0,181,0,172,163,278,190.0,248,246,246.0,210.0,208.0,171.0,241.0,215.0
9250,29287,US,94779,33.55,-90.3,,Census,US County,MS,"Leflore County, Mississippi",0,0,0,0,0,0,0,0,0,10246,16869,23834,36290,37256,53506.0,53406,51813,47142.0,42111.0,41525.0,37341.0,37947.0,32317.0
9468,23308,US,94809,32.4,-88.66,,Census,US County,MS,"Lauderdale County, Mississippi",0,0,0,0,0,5358,8717,13313,13462,21501,29661,38150,46919,45897,52748.0,58247,64171,67119.0,67087.0,77285.0,75555.0,78161.0,80261.0
9634,12943,US,122388,34.3177777778,-89.9425,,Census,City,MS,"Batesville, Mississippi",0,0,0,0,0,0,0,0,227,442,705,556,774,1050,1062.0,1815,2463,3284.0,3796.0,5162.0,6403.0,7113.0,7463.0
9650,19924,US,94810,31.21,-89.51,,Census,US County,MS,"Lamar County, Mississippi",0,0,0,0,0,0,0,0,0,0,0,0,11741,12869,12848.0,12096,13225,13675.0,15209.0,23821.0,30424.0,39070.0,55658.0
9780,25483,US,122277,30.4127777778,-89.4355555556,,Census,Census-designated place,MS,"Kiln, Mississippi",0,0,0,0,0,0,0,0,0,0,0,0,0,0,0.0,0,0,0.0,0.0,0.0,1262.0,2040.0,2238.0
9815,7239,US,124721,34.1536111111,-89.6311111111,,Census,City,MS,"Water Valley, Mississippi",0,0,0,0,0,0,0,0,0,2220,2832,3813,4275,4315,3738.0,3340,3213,3206.0,3285.0,4146.0,3610.0,3677.0,3392.0
10075,14510,US,122258,31.865,-90.3913888889,,Census,City,MS,"Hazlehurst, Mississippi",0,0,0,0,0,0,0,0,662,463,0,1579,2056,1762,2447.0,3124,3397,3400.0,4577.0,4437.0,4221.0,4400.0,4009.0
10233,9432,US,150693,34.3605555556,-88.8386111111,,Census,Town,MS,"Sherman, Mississippi",0,0,0,0,0,0,0,0,0,0,79,300,353,421,464.0,449,386,403.0,468.0,499.0,528.0,548.0,650.0
10261,7551,US,122288,32.3516666667,-90.46,,Census,Town,MS,"Bolton, Mississippi",0,0,0,0,0,0,0,0,0,440,0,600,632,494,441.0,627,741,797.0,787.0,664.0,637.0,629.0,567.0
10333,26309,US,94838,31.86,-90.44,,Census,US County,MS,"Copiah County, Mississippi",0,0,0,0,7001,8954,11794,15398,20608,27552,30233,34395,35914,28672,31614.0,33974,30493,27051.0,24749.0,26503.0,27592.0,28757.0,29449.0
10367,9297,US,122299,32.9680555556,-89.9125,,Census,Town,MS,"Goodman, Mississippi",0,0,0,0,0,0,0,0,0,378,354,442,603,589,608.0,609,878,932.0,1194.0,1285.0,1256.0,1252.0,1386.0
10401,24120,US,122414,32.2719444444,-90.1052777778,,Census,City,MS,"Pearl, Mississippi",0,0,0,0,0,0,0,0,0,0,0,0,0,0,0.0,0,0,0.0,0.0,18602.0,19588.0,21961.0,25092.0
10436,7805,US,122207,34.9247222222,-88.4358333333,,Census,Town,MS,"Farmington, Mississippi",0,0,0,0,0,0,0,0,0,0,0,0,0,0,0.0,0,0,0.0,0.0,0.0,0.0,1810.0,2186.0
10448,10758,US,122321,30.411744,-88.534355,,Census,City,MS,"Moss Point, Mississippi",0,0,0,0,0,0,0,0,440,1333,0,0,3054,3340,2453.0,3042,3782,6631.0,19321.0,18998.0,17837.0,17653.0,13704.0
10488,6473,US,124688,31.7330555556,-89.9819444444,,Census,Town,MS,"New Hebron, Mississippi",0,0,0,0,0,0,0,0,0,0,0,0,191,237,306.0,298,303,271.0,456.0,470.0,373.0,447.0,447.0
10558,12599,US,122263,34.8308333333,-89.9936111111,,Census,City,MS,"Hernando, Mississippi",0,0,0,0,0,0,0,0,730,583,602,563,600,796,938.0,1072,1206,1898.0,2499.0,2969.0,3125.0,6812.0,14090.0
11134,21928,US,94844,33.35,-89.25,,Census,US County,MS,"Choctaw County, Mississippi",0,0,0,0,0,6010,11402,15722,16988,9036,10847,13036,14357,12491,12339.0,13548,11009,8423.0,8440.0,8996.0,9071.0,9758.0,8543.0
11240,23932,US,122377,32.7741666667,-89.1127777778,,Census,City,MS,"Philadelphia, Mississippi",0,0,0,0,0,0,0,0,0,101,0,0,1209,1669,2560.0,3711,4472,5017.0,6274.0,6434.0,6758.0,7303.0,7477.0
11301,7452,US,122381,32.3169444444,-89.0233333333,,Census,Town,MS,"Hickory, Mississippi",0,0,0,0,0,0,0,0,155,0,0,626,600,618,736.0,724,614,539.0,570.0,670.0,493.0,499.0,530.0
11320,7227,US,122393,31.1680555556,-88.9225,,Census,Town,MS,"Beaumont, Mississippi",0,0,0,0,0,0,0,0,0,0,0,0,0,0,0.0,0,0,926.0,1061.0,1112.0,1054.0,977.0,951.0
11386,19581,US,94830,30.87,-88.64,,Census,US County,MS,"George County, Mississippi",0,0,0,0,0,0,0,0,0,0,0,0,6599,5564,7523.0,8704,10012,11098.0,12459.0,15927.0,16673.0,19144.0,22578.0
11403,9850,US,150699,33.5566666667,-89.0836111111,,Census,Town,MS,"Maben, Mississippi",0,0,0,0,0,0,0,0,0,0,0,282,539,499,508.0,675,616,696.0,862.0,855.0,752.0,803.0,871.0
11579,20739,US,94820,30.46,-88.62,,Census,US County,MS,"Jackson County, Mississippi",0,0,0,1682,1792,1965,3196,4122,4362,7607,11251,16513,15451,19208,15973.0,20601,31401,55522.0,87975.0,118015.0,115243.0,131420.0,139668.0
11580,7543,US,122405,34.71,-88.6572222222,,Census,Town,MS,"Jumpertown, Mississippi",0,0,0,0,0,0,0,0,0,0,0,0,0,0,0.0,0,0,0.0,0.0,472.0,438.0,404.0,480.0
11727,8605,US,122417,32.2297222222,-90.1597222222,,Census,City,MS,"Richland, Mississippi",0,0,0,0,0,0,0,0,0,0,0,0,0,0,0.0,0,0,0.0,0.0,3955.0,4014.0,6027.0,6912.0
11833,7427,US,122234,33.7422222222,-89.3727777778,,Census,Village,MS,"Slate Springs, Mississippi",0,0,0,0,0,0,0,0,0,0,0,189,175,155,190.0,182,134,123.0,105.0,102.0,118.0,121.0,110.0
11916,10075,US,124713,34.6897222222,-89.9738888889,,Census,Town,MS,"Coldwater, Mississippi",0,0,0,0,0,0,0,0,0,397,518,557,774,856,664.0,690,949,1264.0,1450.0,1505.0,1502.0,1674.0,1677.0
12172,5909,US,122443,34.6344444444,-88.8477777778,,Census,Town,MS,"Dumas, Mississippi",0,0,0,0,0,0,0,0,0,0,0,0,0,0,0.0,0,0,0.0,0.0,312.0,407.0,452.0,470.0
12312,8143,US,122232,33.8569444444,-89.3133333333,,Census,Town,MS,"Calhoun City, Mississippi",0,0,0,0,0,0,0,0,0,0,0,0,477,502,1012.0,1171,1319,1714.0,1847.0,2033.0,1838.0,1872.0,1774.0
12339,7453,US,122470,33.9777777778,-89.6772222222,,Census,Town,MS,"Coffeeville, Mississippi",0,0,0,0,0,0,0,0,0,749,465,467,421,411,456.0,481,739,813.0,1024.0,1129.0,825.0,930.0,905.0
12405,9670,US,122272,31.1538888889,-88.5558333333,,Census,Town,MS,"Leakesville, Mississippi",0,0,0,0,0,0,0,0,0,0,0,0,466,555,562.0,834,893,1014.0,1090.0,1120.0,1129.0,1026.0,898.0
12439,8661,US,122309,34.2661111111,-88.4013888889,,Census,City,MS,"Fulton, Mississippi",0,0,0,0,0,0,275,0,132,249,172,171,194,227,927.0,1154,1343,1706.0,2899.0,3238.0,3387.0,3882.0,3961.0
12503,10063,US,122209,34.8744444444,-88.6441666667,,Census,Village,MS,"Kossuth, Mississippi",0,0,0,0,0,0,0,0,0,0,165,162,193,247,224.0,238,242,178.0,227.0,190.0,245.0,170.0,209.0
12573,21893,US,94827,30.39,-89.47,,Census,US County,MS,"Hancock County, Mississippi",0,0,0,1594,1962,3367,3672,3139,4239,6439,8318,11886,11207,10380,11415.0,11328,11891,14039.0,17387.0,24537.0,31760.0,42967.0,43929.0
12773,10095,US,122211,31.1969444444,-91.0191666667,,Census,Town,MS,"Gloster, Mississippi",0,0,0,0,0,0,0,0,0,0,1142,1661,1486,1079,1139.0,1232,1467,1369.0,1401.0,1726.0,1323.0,1073.0,960.0
12789,19412,US,94771,32.41,-89.12,,Census,US County,MS,"Newton County, Mississippi",0,0,0,0,0,2527,4465,9661,10067,13436,16625,19708,23085,20727,22910.0,24249,22681,19517.0,18983.0,19944.0,20291.0,21838.0,21720.0
12881,33752,US,122283,30.4016666667,-89.0761111111,,Census,City,MS,"Gulfport, Mississippi",0,0,0,0,0,0,0,0,0,0,0,1060,6386,8157,12547.0,15105,22659,30204.0,40791.0,39676.0,40775.0,71127.0,67793.0
13134,135380,US,106031,32.3747222222,-88.7041666667,,Census,City,MS,"Meridian, Mississippi",0,0,0,0,0,0,0,0,2709,4008,10624,14050,23285,23339,31954.0,35481,41893,49374.0,45083.0,46577.0,41036.0,39968.0,41148.0
13157,7751,US,122233,33.8566666667,-89.2863888889,,Census,Town,MS,"Derma, Mississippi",0,0,0,0,0,0,0,0,0,0,0,0,383,317,456.0,477,494,578.0,660.0,793.0,959.0,1023.0,1025.0
13181,7069,US,122237,33.5180555556,-89.92,,Census,Town,MS,"North Carrollton, Mississippi",0,0,0,0,0,0,0,0,0,0,0,189,302,363,394.0,469,506,521.0,611.0,859.0,578.0,499.0,473.0
13203,11980,US,122289,32.1941666667,-90.27,,Census,City,MS,"Byram, Mississippi",0,0,0,0,0,0,0,0,0,0,0,0,0,0,0.0,0,0,0.0,0.0,0.0,0.0,0.0,11489.0
13219,11758,US,122262,31.5622222222,-89.4969444444,,Census,Town,MS,"Seminary, Mississippi",0,0,0,0,0,0,0,0,0,0,0,0,526,360,325.0,291,345,288.0,269.0,327.0,231.0,335.0,314.0
13225,10742,US,122392,30.8405555556,-89.5338888889,,Census,City,MS,"Poplarville, Mississippi",0,0,0,0,0,0,0,0,0,0,232,990,1272,1290,1498.0,1664,1852,2136.0,2312.0,2562.0,2561.0,2601.0,2894.0
13348,42428,US,122286,30.3244444444,-89.2472222222,,Census,City,MS,"Pass Christian, Mississippi",0,0,0,0,0,0,790,0,1951,1410,1705,2028,2458,2357,3004.0,3338,3383,3881.0,2979.0,5014.0,5557.0,6579.0,4613.0
13451,38014,US,122352,34.2597222222,-88.7258333333,,Census,City,MS,"Tupelo, Mississippi",0,0,0,0,0,0,0,0,618,1008,1477,2118,3881,5055,6361.0,8212,11527,17221.0,20471.0,23905.0,30685.0,34211.0,34546.0
13507,7285,US,122419,32.3491666667,-89.6544444444,,Census,City,MS,"Morton, Mississippi",0,0,0,0,0,0,0,0,0,0,0,200,374,437,955.0,934,1664,2260.0,2672.0,3303.0,3212.0,3482.0,3462.0
13551,24291,US,122290,32.3416666667,-90.3216666667,,Census,City,MS,"Clinton, Mississippi",0,0,0,0,0,0,0,0,0,569,0,354,767,669,912.0,916,2255,3438.0,7289.0,14660.0,21847.0,23347.0,25216.0
13589,6430,US,124696,34.6480555556,-89.3047222222,,Census,Town,MS,"Potts Camp, Mississippi",0,0,0,0,0,0,0,0,0,0,0,306,312,319,326.0,394,432,429.0,459.0,525.0,483.0,494.0,523.0
13722,49598,US,94824,33.12,-90.09,,Census,US County,MS,"Holmes County, Mississippi",0,0,0,0,0,9452,13928,17791,19370,27164,30970,36828,39088,34513,38534.0,39710,33301,27096.0,23120.0,22970.0,21604.0,21609.0,19198.0
13832,13905,US,122368,34.8694444444,-89.6880555556,,Census,Town,MS,"Byhalia, Mississippi",0,0,0,0,0,0,0,0,0,346,474,760,511,514,565.0,543,581,674.0,702.0,757.0,955.0,706.0,1302.0
13839,7710,US,122307,33.0952777778,-90.4958333333,,Census,Town,MS,"Silver City, Mississippi",0,0,0,0,0,0,0,0,0,45,0,0,341,322,361.0,390,381,431.0,370.0,378.0,348.0,337.0,337.0
13995,7152,US,122328,31.4972222222,-89.7461111111,,Census,Town,MS,"Bassfield, Mississippi",0,0,0,0,0,0,0,0,0,0,0,0,344,265,334.0,277,320,295.0,354.0,325.0,249.0,315.0,254.0
14108,7987,US,124663,33.9386111111,-89.3386111111,,Census,Village,MS,"Pittsboro, Mississippi",0,0,0,0,0,0,0,0,186,206,0,254,249,252,249.0,276,246,205.0,188.0,269.0,277.0,212.0,202.0
14302,8658,US,122231,33.9919444444,-89.3422222222,,Census,Town,MS,"Bruce, Mississippi",0,0,0,0,0,0,0,0,0,0,0,0,0,0,946.0,1385,1719,1698.0,2033.0,2208.0,2127.0,2097.0,1939.0
14472,37609,US,124692,33.5186111111,-90.1838888889,,Census,City,MS,"Greenwood, Mississippi",0,0,0,0,0,0,0,0,0,308,1055,3026,5836,7793,11123.0,14767,18061,20436.0,22400.0,20115.0,18906.0,18425.0,15205.0
14487,24921,US,94836,31.63,-89.55,,Census,US County,MS,"Covington County, Mississippi",0,0,0,2230,2551,2717,3338,4408,4753,5993,8299,13076,16909,14869,15028.0,17030,16036,13637.0,14002.0,15927.0,16527.0,19407.0,19568.0
14541,9813,US,122229,33.9491666667,-90.7652777778,,Census,City,MS,"Shelby, Mississippi",0,0,0,0,0,0,0,0,0,0,0,0,645,1300,1811.0,1956,2148,2384.0,2645.0,2540.0,2806.0,2926.0,2229.0
14634,24237,US,94705,,,,Census,US County,MS,"Yazoo County, Mississippi",0,0,0,0,6550,10480,14418,22373,17279,33845,36394,43948,46672,37149,37262.0,40091,35712,31653.0,27304.0,27349.0,25506.0,28149.0,28065.0
14958,9212,US,150683,31.0858333333,-91.065,,Census,Town,MS,"Centreville, Mississippi",0,0,0,0,0,0,0,0,0,0,0,590,865,161,134.0,1163,2025,1229.0,1819.0,1844.0,1771.0,1680.0,1684.0
15028,7828,US,122361,33.3061111111,-88.6219444444,,Census,Town,MS,"Crawford, Mississippi",0,0,0,0,0,0,0,0,0,304,225,389,396,323,349.0,380,374,317.0,391.0,495.0,668.0,655.0,641.0
15066,22210,US,94777,33.47,-88.44,,Census,US County,MS,"Lowndes County, Mississippi",0,0,0,0,3173,14513,19544,23625,30502,28244,27047,29095,30703,27632,29987.0,35245,37852,46639.0,49700.0,57304.0,59308.0,61586.0,59779.0
15100,10185,US,122389,34.5133333333,-89.9413888889,,Census,Town,MS,"Como, Mississippi",0,0,0,0,0,0,0,0,0,149,178,475,905,818,851.0,819,703,789.0,1003.0,1378.0,1387.0,1310.0,1279.0
15161,9776,US,150700,34.5027777778,-90.1958333333,,Census,Town,MS,"Crenshaw, Mississippi",0,0,0,0,0,0,0,0,0,0,0,0,358,512,575.0,623,740,1382.0,1271.0,1019.0,978.0,916.0,885.0
15171,17701,US,122300,33.1144444444,-90.0511111111,,Census,City,MS,"Lexington, Mississippi",0,0,0,0,0,0,656,887,744,798,1075,1516,2428,1792,2590.0,2930,3198,2839.0,2756.0,2628.0,2227.0,2025.0,1731.0
15300,14715,US,122367,31.2566666667,-89.8288888889,,Census,City,MS,"Columbia, Mississippi",0,0,0,0,0,0,0,0,66,0,0,507,2029,2826,4833.0,6064,6124,7117.0,7587.0,7733.0,6815.0,6603.0,6582.0
15378,9126,US,122474,32.6702777778,-90.5461111111,,Census,Village,MS,"Satartia, Mississippi",0,0,0,0,0,0,0,0,0,0,0,146,187,135,139.0,152,105,126.0,95.0,73.0,59.0,68.0,55.0
15446,12201,US,122282,30.4369444444,-88.8975,,Census,City,MS,"D'Iberville, Mississippi",0,0,0,0,0,0,0,0,0,0,0,0,0,0,0.0,0,0,0.0,0.0,0.0,6566.0,7608.0,9486.0
15458,15114,US,124671,34.9666666667,-89.9872222222,,Census,City,MS,"Southaven, Mississippi",0,0,0,0,0,0,0,0,0,0,0,0,0,0,0.0,0,0,0.0,8931.0,16071.0,18705.0,28977.0,48982.0
15476,8608,US,122449,34.4872222222,-88.1875,,Census,Village,MS,"Golden, Mississippi",0,0,0,0,0,0,0,0,0,0,0,0,209,194,569.0,340,206,121.0,339.0,292.0,202.0,201.0,191.0
15644,12346,US,122371,33.9872222222,-88.4838888889,,Census,City,MS,"Amory, Mississippi",0,0,0,0,0,0,0,0,0,0,739,1211,2122,2861,3214.0,3727,4990,6474.0,7236.0,7307.0,7093.0,6956.0,7316.0
15733,14106,US,122251,33.6061111111,-88.6525,,Census,City,MS,"West Point, Mississippi",0,0,0,0,0,0,0,0,1392,1786,2762,3193,4864,4400,4677.0,5627,6432,8550.0,8714.0,8811.0,8489.0,12145.0,11307.0
15893,18705,US,122332,31.6975,-89.1394444444,,Census,City,MS,"Laurel, Mississippi",0,0,0,0,0,0,0,0,0,0,0,3193,8465,13037,18017.0,20598,25038,27889.0,24145.0,21897.0,18827.0,18393.0,18540.0
16323,9863,US,8259466,33.5416666667,-89.2722222222,,Census,City,MS,"Eupora, Mississippi",0,0,0,0,0,0,0,0,0,0,432,724,896,948,1092.0,1377,1338,1468.0,1792.0,2048.0,2145.0,2326.0,2197.0
16507,18120,US,122344,32.7413888889,-89.535,,Census,City,MS,"Carthage, Mississippi",0,0,0,0,0,0,0,0,0,285,322,416,315,635,998.0,1766,1925,2442.0,3031.0,3453.0,3819.0,4637.0,5075.0
16519,19497,US,94743,34.65,-89.94,,Census,US County,MS,"Tate County, Mississippi",0,0,0,0,0,0,0,0,0,18721,19253,20618,19714,19636,17671.0,19309,18011,18138.0,18544.0,20119.0,21432.0,25370.0,28886.0
16623,13241,US,122454,34.6888888889,-90.3805555556,,Census,Town,MS,"Tunica, Mississippi",0,0,0,0,0,0,0,0,0,0,198,485,555,955,1043.0,1322,1354,1445.0,1685.0,1361.0,1175.0,1132.0,1030.0
16666,7448,US,122390,34.4355555556,-89.9166666667,,Census,Town,MS,"Sardis, Mississippi",0,0,0,0,0,0,0,0,0,986,1044,1002,1406,1352,1298.0,2022,1913,2098.0,2391.0,2278.0,2128.0,2038.0,1703.0
16845,6926,US,122395,31.3494444444,-88.9386111111,,Census,Town,MS,"Richton, Mississippi",0,0,0,0,0,0,0,0,0,0,0,0,1250,1363,950.0,936,1158,1089.0,1110.0,1205.0,1034.0,1038.0,1068.0
17217,9050,US,122447,34.5077777778,-88.2083333333,,Census,Town,MS,"Belmont, Mississippi",0,0,0,0,0,0,0,0,0,0,0,0,367,459,703.0,594,814,901.0,1237.0,1420.0,1554.0,1961.0,2021.0
17286,8822,US,122224,33.8380555556,-90.7269444444,,Census,Town,MS,"Merigold, Mississippi",0,0,0,0,0,0,0,0,0,0,0,0,241,606,804.0,704,682,602.0,772.0,574.0,572.0,664.0,439.0
17347,12196,US,150685,33.6016666667,-90.7708333333,,Census,City,MS,"Shaw, Mississippi",0,0,0,0,0,0,0,0,0,0,201,422,871,1375,1612.0,1669,1892,2062.0,2513.0,2461.0,2349.0,2312.0,1952.0
17454,8027,US,122437,33.8294444444,-90.2933333333,,Census,Village,MS,"Glendora, Mississippi",0,0,0,0,0,0,0,0,0,0,0,0,207,0,0.0,247,178,147.0,201.0,220.0,165.0,285.0,151.0
17461,7292,US,150701,34.1730555556,-90.1363888889,,Census,Town,MS,"Crowder, Mississippi",0,0,0,0,0,0,0,0,0,0,0,0,0,388,377.0,454,476,528.0,815.0,789.0,758.0,766.0,712.0
17509,14343,US,122431,33.6575,-90.5241666667,,Census,Town,MS,"Doddsville, Mississippi",0,0,0,0,0,0,0,0,0,0,0,0,0,0,317.0,262,201,190.0,276.0,232.0,149.0,108.0,98.0
17714,9759,US,122236,33.505,-89.9227777778,,Census,Town,MS,"Carrollton, Mississippi",0,0,0,0,0,0,0,718,377,394,488,540,608,510,523.0,575,475,343.0,295.0,338.0,221.0,408.0,190.0
17786,19166,US,94832,31.19,-89.26,,Census,US County,MS,"Forrest County, Mississippi",0,0,0,0,0,0,0,0,0,0,0,0,20722,21238,30115.0,34901,45055,52722.0,57849.0,66018.0,68314.0,72604.0,74934.0
17787,18255,US,94842,32.04,-88.69,,Census,US County,MS,"Clarke County, Mississippi",0,0,0,0,0,2986,5477,10771,7505,15021,15826,17741,21630,17927,19679.0,20596,19362,16493.0,15049.0,16945.0,17313.0,17955.0,16732.0
17797,17206,US,94735,31.14,-90.1,,Census,US County,MS,"Walthall County, Mississippi",0,0,0,0,0,0,0,0,0,0,0,0,0,13455,13871.0,17534,15563,13512.0,12500.0,13761.0,14352.0,15156.0,15443.0
17811,17686,US,94758,34.61,-88.52,,Census,US County,MS,"Prentiss County, Mississippi",0,0,0,0,0,0,0,0,9348,12158,13679,15788,16931,17606,19265.0,20921,19810,17949.0,20133.0,24025.0,23278.0,25556.0,25276.0
17843,11262,US,122351,34.1169444444,-88.7013888889,,Census,Town,MS,"Shannon, Mississippi",0,0,0,0,0,0,0,0,0,232,329,434,564,498,524.0,615,520,554.0,575.0,680.0,1419.0,1657.0,1753.0
17896,7737,US,122214,33.1983333333,-89.3430555556,,Census,Town,MS,"McCool, Mississippi",0,0,0,0,0,0,0,0,0,0,246,317,422,517,562.0,373,305,211.0,225.0,203.0,169.0,182.0,135.0
17976,8261,US,122334,31.7544444444,-89.2741666667,,Census,Town,MS,"Soso, Mississippi",0,0,0,0,0,0,0,0,0,0,0,0,162,142,214.0,0,0,0.0,0.0,434.0,366.0,379.0,408.0
18055,7564,US,122380,32.4394444444,-89.1119444444,,Census,Town,MS,"Decatur, Mississippi",0,0,0,0,0,0,0,0,0,47,0,0,283,319,654.0,773,1225,1340.0,1311.0,1148.0,1248.0,1426.0,1841.0
18056,6698,US,122464,33.4538888889,-91.0072222222,,Census,Town,MS,"Metcalfe, Mississippi",0,0,0,0,0,0,0,0,0,0,0,0,0,0,0.0,0,0,0.0,0.0,952.0,1092.0,1109.0,1067.0
18076,20179,US,94829,31.22,-88.64,,Census,US County,MS,"Greene County, Mississippi",0,0,0,1445,1854,1636,2018,2232,2038,3194,3906,6795,6050,10430,10644.0,9512,8215,8366.0,8545.0,9827.0,10220.0,13299.0,14400.0
18280,19805,US,94852,34.82,-89.19,,Census,US County,MS,"Benton County, Mississippi",0,0,0,0,0,0,0,0,0,11023,10585,10510,10245,9851,9813.0,10429,8793,7723.0,7505.0,8153.0,8046.0,8026.0,8729.0
18450,10482,US,122469,33.1230555556,-89.0561111111,,Census,City,MS,"Louisville, Mississippi",0,0,0,0,0,0,0,0,385,418,484,505,1181,1777,3013.0,3451,5282,5066.0,6626.0,7323.0,7169.0,7006.0,6631.0
18500,10103,US,122434,33.4491666667,-90.5047222222,,Census,City,MS,"Moorhead, Mississippi",0,0,0,0,0,0,0,0,0,0,0,437,506,1600,1553.0,1504,1749,1754.0,2284.0,2358.0,2417.0,2573.0,2405.0
18502,8822,US,122455,34.4030555556,-88.8727777778,,Census,Village,MS,"Blue Springs, Mississippi",0,0,0,0,0,0,0,0,0,0,0,198,167,167,171.0,183,125,99.0,125.0,131.0,140.0,144.0,228.0
18573,9851,US,122244,33.2938888889,-89.4002777778,,Census,Town,MS,"French Camp, Mississippi",0,0,0,0,0,0,0,0,0,420,267,259,220,123,181.0,172,162,123.0,174.0,306.0,320.0,393.0,174.0
18624,20453,US,94849,33.94,-89.34,,Census,US County,MS,"Calhoun County, Mississippi",0,0,0,0,0,0,0,9518,10561,13492,0,16512,17726,16823,18080.0,20893,18369,15941.0,14623.0,15664.0,14908.0,15069.0,14962.0
18658,7156,US,122248,32.0411111111,-88.8836111111,,Census,Town,MS,"Pachuta, Mississippi",0,0,0,0,0,0,0,0,0,0,0,131,187,332,338.0,313,273,271.0,271.0,256.0,268.0,245.0,261.0
18671,20424,US,94821,34.28,-88.36,,Census,US County,MS,"Itawamba County, Mississippi",0,0,0,0,0,5375,13528,17695,7812,10663,11708,13544,14526,15647,18225.0,19922,17216,15080.0,16847.0,20518.0,20017.0,22770.0,23401.0
18791,21078,US,94781,32.75,-89.52,,Census,US County,MS,"Leake County, Mississippi",0,0,0,0,0,2162,5533,9324,8496,13146,14803,17360,18298,16973,21803.0,24570,21610,18660.0,17085.0,18790.0,18436.0,20940.0,23805.0
18986,19182,US,94762,31.18,-90.4,,Census,US County,MS,"Pike County, Mississippi",0,0,0,4438,5402,6151,7360,11135,11303,16688,21203,27545,37272,28725,32201.0,35002,35137,35063.0,31756.0,36173.0,36882.0,38940.0,40404.0
19006,18775,US,94763,31.17,-88.99,,Census,US County,MS,"Perry County, Mississippi",0,0,0,2037,2300,1889,2438,2606,2694,3427,6494,14682,7685,8987,8197.0,9292,9108,8745.0,9065.0,9864.0,10865.0,12138.0,12250.0
19065,8473,US,122301,32.8866666667,-89.97,,Census,Town,MS,"Pickens, Mississippi",0,0,0,0,0,0,0,0,0,122,0,504,619,457,635.0,688,638,727.0,1012.0,1386.0,1285.0,1325.0,1157.0
19151,19378,US,94828,33.77,-89.8,,Census,US County,MS,"Grenada County, Mississippi",0,0,0,0,0,0,0,0,10751,12071,14974,14112,15727,13607,16802.0,19052,18830,18409.0,19854.0,21043.0,21555.0,23263.0,21906.0
19161,21467,US,94778,31.54,-90.45,,Census,US County,MS,"Lincoln County, Mississippi",0,0,0,0,0,0,0,0,10184,13547,17912,21552,28597,24652,26357.0,27506,27899,26759.0,26198.0,30174.0,30278.0,33166.0,34869.0
19171,6423,US,124701,34.2391666667,-89.9427777778,,Census,Town,MS,"Courtland, Mississippi",0,0,0,0,0,0,0,0,0,221,0,282,304,265,230.0,237,275,242.0,316.0,381.0,329.0,460.0,511.0
19336,18183,US,94752,32.88,-90.81,,Census,US County,MS,"Sharkey County, Mississippi",0,0,0,0,0,0,0,0,0,6306,8382,12178,15694,14190,13877.0,15433,12903,10738.0,8937.0,7964.0,7066.0,6580.0,4916.0
19345,9418,US,122383,33.2327777778,-88.5816666667,,Census,Town,MS,"Brooksville, Mississippi",0,0,0,0,0,0,0,0,0,284,424,612,850,854,875.0,764,819,857.0,978.0,1038.0,1098.0,1182.0,1223.0
19445,21579,US,94780,34.29,-88.68,,Census,US County,MS,"Lee County, Mississippi",0,0,0,0,0,0,0,0,15955,20470,20040,21956,28894,29618,35313.0,38838,38237,40589.0,46148.0,57061.0,65581.0,75755.0,82910.0
19583,7317,US,122435,33.5452777778,-90.5375,,Census,Town,MS,"Sunflower, Mississippi",0,0,0,0,0,0,0,0,0,0,0,0,0,517,530.0,630,639,662.0,983.0,1027.0,729.0,696.0,1159.0
19598,12355,US,124709,31.83,-89.4302777778,,Census,Town,MS,"Taylorsville, Mississippi",0,0,0,0,0,0,0,0,0,0,0,0,623,601,805.0,955,1116,1132.0,1299.0,1387.0,1412.0,1341.0,1353.0
19821,10132,US,122268,31.3466666667,-89.2555555556,,Census,City,MS,"Petal, Mississippi",0,0,0,0,0,0,0,0,0,0,0,0,0,0,0.0,0,0,0.0,0.0,8476.0,7883.0,7579.0,10454.0
19845,12000,US,122296,32.1033333333,-90.6222222222,,Census,Town,MS,"Utica, Mississippi",0,0,0,0,0,0,0,0,0,230,370,540,572,445,652.0,818,824,764.0,1019.0,1064.0,1033.0,966.0,820.0
19959,18855,US,94807,31.55,-90.11,,Census,US County,MS,"Lawrence County, Mississippi",0,0,0,4916,5293,5920,6478,9213,6720,9420,12318,15103,13080,12663,12471.0,13983,12639,10215.0,11137.0,12518.0,12458.0,13258.0,12929.0
19963,9301,US,122413,32.3166666667,-90.1147222222,,Census,City,MS,"Flowood, Mississippi",0,0,0,0,0,0,0,0,0,0,0,0,0,0,0.0,0,0,486.0,352.0,943.0,2860.0,4750.0,7823.0
19987,6635,US,122444,34.8436111111,-88.9333333333,,Census,Town,MS,"Falkner, Mississippi",0,0,0,0,0,0,0,0,0,0,0,0,148,0,0.0,0,0,0.0,159.0,251.0,232.0,212.0,514.0
20073,6092,US,122422,32.8072222222,-90.9255555556,,Census,Town,MS,"Cary, Mississippi",0,0,0,0,0,0,0,0,0,0,0,0,0,0,419.0,491,390,428.0,517.0,470.0,392.0,427.0,313.0
20081,11357,US,122241,34.0058333333,-88.7505555556,,Census,City,MS,"Okolona, Mississippi",0,0,0,0,0,0,0,0,1410,1858,2099,2177,2584,3852,2235.0,2117,2167,2622.0,3002.0,3409.0,3267.0,3056.0,2692.0
20117,8634,US,122358,33.4161111111,-88.6452777778,,Census,Town,MS,"Artesia, Mississippi",0,0,0,0,0,0,0,0,0,150,313,343,535,583,612.0,521,594,469.0,444.0,526.0,484.0,498.0,440.0
20350,18059,US,94731,31.64,-88.7,,Census,US County,MS,"Wayne County, Mississippi",0,0,1253,3323,2781,2120,2892,3691,4206,8741,9817,12539,14709,15467,15295.0,16928,17010,16258.0,16650.0,19135.0,19517.0,21216.0,20747.0
20390,21354,US,94729,33.61,-89.28,,Census,US County,MS,"Webster County, Mississippi",0,0,0,0,0,0,0,0,0,9534,12060,13619,14853,12644,12128.0,14160,11607,10580.0,10047.0,10300.0,10222.0,10294.0,10253.0
20405,7572,US,122297,33.3208333333,-90.235,,Census,Town,MS,"Cruger, Mississippi",0,0,0,0,0,0,0,0,0,0,0,0,231,488,409.0,450,494,362.0,415.0,540.0,548.0,449.0,386.0
20423,30252,US,94813,32.76,-88.65,,Census,US County,MS,"Kemper County, Mississippi",0,0,0,0,0,7663,12517,11682,12920,15719,17961,20492,20348,19619,21881.0,21867,15893,12277.0,10233.0,10148.0,10356.0,10453.0,10456.0
20424,22477,US,94741,34.74,-88.24,,Census,US County,MS,"Tishomingo County, Mississippi",0,0,0,0,0,6681,15490,24149,7350,8774,9302,10124,13067,15091,16411.0,16974,15544,13889.0,14940.0,18434.0,17683.0,19163.0,19593.0
20425,11792,US,94734,32.36,-90.85,,Census,US County,MS,"Warren County, Mississippi",0,0,1114,2693,7861,15820,18120,20696,26769,31238,33164,40912,37488,33362,35785.0,39595,39616,42206.0,44981.0,51627.0,47880.0,49644.0,48773.0
20533,7553,US,122348,34.445,-88.6630555556,,Census,Town,MS,"Guntown, Mississippi",0,0,0,0,0,0,0,0,0,0,0,325,330,365,369.0,349,299,269.0,304.0,359.0,692.0,1183.0,2083.0
20719,6204,US,124707,32.1963888889,-89.695,,Census,Town,MS,"Polkville, Mississippi",0,0,0,0,0,0,0,0,0,0,0,0,0,0,0.0,0,0,0.0,166.0,129.0,129.0,132.0,833.0
20740,9825,US,122418,32.3636111111,-89.4752777778,,Census,City,MS,"Forest, Mississippi",0,0,0,0,0,0,0,0,0,0,547,761,1136,1188,2176.0,2735,2874,3917.0,4085.0,5229.0,5060.0,5987.0,5684.0
20755,6921,US,122353,34.1883333333,-88.7180555556,,Census,City,MS,"Verona, Mississippi",0,0,0,0,0,0,0,0,0,596,465,456,558,500,554.0,526,589,824.0,1877.0,2497.0,2893.0,3334.0,3006.0
21054,10010,US,122327,31.7111111111,-91.0622222222,,Census,City,MS,"Fayette, Mississippi",0,0,0,0,0,0,210,339,120,369,0,604,775,840,848.0,907,1498,1626.0,1725.0,2033.0,1853.0,2242.0,1614.0
21056,9295,US,122291,32.3308333333,-90.6041666667,,Census,Town,MS,"Edwards, Mississippi",0,0,0,0,0,0,0,0,0,0,0,586,589,727,456.0,1110,1002,1206.0,1236.0,1515.0,1279.0,1347.0,1034.0
21083,7119,US,124662,33.8469444444,-89.4125,,Census,Village,MS,"Big Creek, Mississippi",0,0,0,0,0,0,0,0,0,0,0,0,0,107,140.0,147,147,100.0,148.0,146.0,123.0,127.0,154.0
21232,22891,US,122432,33.81,-90.5305555556,,Census,City,MS,"Drew, Mississippi",0,0,0,0,0,0,0,0,0,0,0,195,278,721,1373.0,1579,1681,2143.0,2574.0,2528.0,2349.0,2434.0,1927.0
21340,21348,US,94817,,,,Census,US County,MS,"Jefferson County, Mississippi",0,2940,4001,6822,9755,11650,13193,15349,13848,17314,18947,21292,18221,15946,14291.0,13969,11306,10142.0,9295.0,9181.0,8653.0,9740.0,7726.0
21471,15730,US,34077,33.4888888889,-89.7313888889,,Census,City,MS,"Winona, Mississippi",0,0,0,0,0,0,0,0,0,1204,1648,2455,2512,2572,2607.0,2532,3441,4282.0,5521.0,6177.0,5705.0,5482.0,5043.0
21554,9879,US,122441,34.6163888889,-89.9694444444,,Census,City,MS,"Senatobia, Mississippi",0,0,0,0,0,0,0,0,0,935,1077,1156,1275,1126,1264.0,1757,2108,3259.0,4247.0,5013.0,4772.0,6682.0,8165.0
21619,11054,US,122293,32.2583333333,-90.4155555556,,Census,City,MS,"Raymond, Mississippi",0,0,0,0,0,0,0,0,0,488,0,483,579,500,547.0,641,1259,1381.0,1620.0,1967.0,2275.0,1664.0,1933.0
21690,36721,US,122386,33.4625,-88.82,,Census,City,MS,"Starkville, Mississippi",0,0,0,0,0,0,0,0,475,1500,1725,1986,2698,2596,3612.0,4900,7107,9041.0,11369.0,16139.0,18458.0,21869.0,23888.0
21695,9444,US,122270,31.5052777778,-91.0672222222,,Census,Town,MS,"Roxie, Mississippi",0,0,0,0,0,0,0,0,0,0,0,214,294,207,355.0,385,521,585.0,662.0,591.0,568.0,569.0,497.0
21812,8055,US,124700,32.9802777778,-88.5688888889,,Census,Town,MS,"Shuqualak, Mississippi",0,0,0,0,0,0,0,0,0,352,601,600,636,764,810.0,743,714,550.0,591.0,554.0,570.0,562.0,501.0
21924,15333,US,124717,31.1027777778,-91.2997222222,,Census,Town,MS,"Woodville, Mississippi",0,0,0,0,0,0,0,0,0,965,950,1043,1233,1012,1113.0,1433,1609,1856.0,1734.0,1512.0,1393.0,1192.0,1096.0
21953,14840,US,124666,34.3219444444,-90.4558333333,,Census,Town,MS,"Jonestown, Coahoma County, Mississippi",0,0,0,0,0,0,0,0,0,147,286,317,367,469,506.0,706,741,889.0,1110.0,1231.0,1467.0,1701.0,1298.0
22008,7869,US,122412,32.1538888889,-90.1219444444,,Census,Town,MS,"Florence, Mississippi",0,0,0,0,0,0,0,0,0,0,0,0,260,207,272.0,368,313,360.0,404.0,1111.0,1831.0,2396.0,4141.0
22059,10093,US,122452,34.6347222222,-88.23,,Census,Town,MS,"Tishomingo, Mississippi",0,0,0,0,0,0,0,0,0,0,0,0,212,273,402.0,423,335,415.0,410.0,387.0,332.0,316.0,339.0
22096,32978,US,122337,34.3597222222,-89.5261111111,,Census,City,MS,"Oxford, Mississippi",0,0,0,0,0,0,492,0,1422,1534,1546,1825,2014,2150,2890.0,3433,3956,5283.0,8519.0,9882.0,9984.0,11756.0,18916.0
22152,13059,US,122271,30.9247222222,-88.5905555556,,Census,City,MS,"Lucedale, Mississippi",0,0,0,0,0,0,0,0,0,0,0,0,797,629,834.0,1204,1631,1977.0,2083.0,2429.0,2592.0,2458.0,2923.0
22159,9514,US,122387,33.3438888889,-89.0466666667,,Census,Town,MS,"Sturgis, Mississippi",0,0,0,0,0,0,0,0,0,0,0,0,321,354,477.0,485,402,358.0,321.0,269.0,198.0,206.0,254.0
22261,153642,US,16949861,,,,Census,US State,MS,Mississippi,0,7600,31306,75448,136621,375651,606526,791305,827922,1131597,1289600,1551270,1797114,1790618,2009821.0,2183796,2178914,2178141.0,2216912.0,2520638.0,2573216.0,2844658.0,2967297.0
22295,16224,US,122425,31.9866666667,-89.9011111111,,Census,Town,MS,"D'Lo, Mississippi",0,0,0,0,0,0,0,0,0,0,0,0,284,646,514.0,400,516,428.0,485.0,463.0,421.0,394.0,452.0
22411,15852,US,122274,33.775,-89.8088888889,,Census,City,MS,"Grenada, Mississippi",0,0,0,0,0,0,0,0,1887,1914,2416,2568,2814,3402,4349.0,5831,7388,7914.0,9944.0,11508.0,10864.0,14879.0,13092.0
22418,27479,US,94855,31.17,-90.8,,Census,US County,MS,"Amite County, Mississippi",0,0,4750,6853,7934,9511,9694,12336,10973,14004,18198,20708,22954,18960,19712.0,21892,19261,15573.0,13763.0,13369.0,13328.0,13599.0,13131.0
22448,22737,US,94831,31.48,-90.9,,Census,US County,MS,"Franklin County, Mississippi",0,0,2016,3821,4622,4775,5904,8265,7498,9729,10424,13678,15193,14156,12268.0,12504,10929,9286.0,8011.0,8208.0,8377.0,8448.0,8118.0
22544,7851,US,124669,34.2172222222,-90.5411111111,,Census,Town,MS,"Lyon, Mississippi",0,0,0,0,0,0,0,0,0,0,0,166,223,277,295.0,339,386,393.0,383.0,428.0,446.0,418.0,350.0
22671,6946,US,122357,33.4080555556,-90.2088888889,,Census,Town,MS,"Sidon, Mississippi",0,0,0,0,0,0,0,0,0,0,119,148,391,370,320.0,418,361,410.0,348.0,450.0,596.0,672.0,509.0
22697,8695,US,122428,31.8672222222,-89.5544444444,,Census,Town,MS,"Mize, Mississippi",0,0,0,0,0,0,0,0,0,0,0,0,321,332,429.0,561,430,371.0,372.0,363.0,312.0,285.0,340.0
22818,20627,US,122304,33.1816666667,-90.485,,Census,City,MS,"Belzoni, Mississippi",0,0,0,0,0,0,0,0,0,0,0,263,1059,2277,2735.0,3789,4071,4142.0,3394.0,2982.0,2536.0,2663.0,2235.0
22893,20169,US,122374,33.6319444444,-89.7147222222,,Census,Town,MS,"Duck Hill, Mississippi",0,0,0,0,0,0,0,0,0,151,332,242,499,528,553.0,537,537,674.0,809.0,706.0,586.0,746.0,732.0
22941,9570,US,122436,34.0075,-90.0538888889,,Census,City,MS,"Charleston, Mississippi",0,0,0,0,0,0,0,0,0,368,412,480,1834,3007,2014.0,2100,2629,2528.0,2821.0,2878.0,2328.0,2198.0,2193.0
22945,8209,US,122465,31.6738888889,-88.6436111111,,Census,City,MS,"Waynesboro, Mississippi",0,0,0,0,0,0,0,0,0,156,458,436,652,689,1120.0,1445,3442,3892.0,4368.0,5349.0,5143.0,5197.0,5043.0
22970,46660,US,122281,30.4119444444,-88.9277777778,,Census,City,MS,"Biloxi, Mississippi",0,0,0,0,0,0,0,0,954,1540,3234,5457,8049,10937,14850.0,17475,37425,44035.0,48486.0,49311.0,46319.0,50644.0,44054.0
23048,19433,US,94853,33.09,-89.58,,Census,US County,MS,"Attala County, Mississippi",0,0,0,0,0,4303,10991,14169,14776,19988,22213,26248,28851,24831,26035.0,30227,26652,21335.0,19570.0,19865.0,18481.0,19661.0,19564.0
23049,10432,US,122359,33.6827777778,-88.3244444444,,Census,Town,MS,"Caledonia, Mississippi",0,0,0,0,0,0,0,0,0,145,0,0,137,139,169.0,240,252,289.0,245.0,497.0,821.0,1015.0,1041.0
23085,7846,US,122261,31.7566666667,-89.6536111111,,Census,Town,MS,"Mount Olive, Mississippi",0,0,0,0,0,0,0,0,0,0,0,0,1077,778,812.0,775,827,841.0,923.0,993.0,914.0,893.0,982.0
23308,11418,US,122259,31.6991666667,-90.3969444444,,Census,Town,MS,"Wesson, Mississippi",0,0,0,0,0,0,0,0,464,1707,3168,3279,2024,885,799.0,837,1235,1157.0,1253.0,1313.0,1510.0,1693.0,1925.0
23316,16734,US,122385,33.1125,-88.5611111111,,Census,City,MS,"Macon, Mississippi",0,0,0,0,0,0,0,989,975,2074,1565,2067,2024,2051,2198.0,2261,2241,2432.0,2612.0,2396.0,2256.0,2461.0,2768.0
23336,11311,US,122340,31.4186111111,-89.5463888889,,Census,Town,MS,"Sumrall, Mississippi",0,0,0,0,0,0,0,0,0,0,0,0,2046,1444,1364.0,819,853,797.0,955.0,1197.0,903.0,1005.0,1421.0
23370,16240,US,124660,33.7419444444,-90.7266666667,,Census,City,MS,"Cleveland, Mississippi",0,0,0,0,0,0,0,0,0,0,0,479,1001,1674,3240.0,4189,6747,10172.0,13327.0,14524.0,15384.0,13841.0,12334.0
23379,6289,US,122457,34.5580555556,-89.1175,,Census,Town,MS,"Myrtle, Mississippi",0,0,0,0,0,0,0,0,0,0,0,165,255,325,313.0,349,331,313.0,308.0,402.0,358.0,407.0,490.0
23397,18051,US,122322,30.41,-88.7975,,Census,City,MS,"Ocean Springs, Mississippi",0,0,0,0,0,0,0,0,560,849,1148,1255,1478,1732,1663.0,1881,3058,5025.0,9580.0,14504.0,13327.0,17225.0,17442.0
23508,7992,US,122305,33.2625,-90.5936111111,,Census,Town,MS,"Isola, Mississippi",0,0,0,0,0,0,0,0,0,0,0,0,478,616,519.0,449,450,532.0,458.0,834.0,732.0,768.0,713.0
23685,16397,US,122347,32.5958333333,-89.4588888889,,Census,Town,MS,"Walnut Grove, Mississippi",0,0,0,0,0,0,0,0,0,0,166,207,199,0,753.0,653,517,433.0,398.0,439.0,389.0,488.0,1911.0
23769,7658,US,122451,34.6597222222,-88.2644444444,,Census,Village,MS,"Paden, Mississippi",0,0,0,0,0,0,0,0,0,0,0,0,186,250,167.0,194,158,134.0,97.0,119.0,123.0,106.0,116.0
23781,6783,US,122399,31.2838888889,-90.4683333333,,Census,Town,MS,"Summit, Mississippi",0,0,0,0,0,0,0,0,0,1604,1587,1499,1471,1187,1157.0,1254,1558,1663.0,1640.0,1753.0,1566.0,1428.0,1705.0
23800,20305,US,122475,32.8563888889,-90.4075,,Census,City,MS,"Yazoo City, Mississippi",0,0,0,0,0,0,0,0,0,2542,3286,4944,6796,5244,5579.0,7258,9746,11236.0,11688.0,12426.0,12427.0,14550.0,11403.0
23809,23885,US,94754,32.26,-89.95,,Census,US County,MS,"Rankin County, Mississippi",0,0,0,0,2083,4361,7227,13635,12977,16752,17922,20955,23944,20272,20353.0,27934,28881,34322.0,43933.0,69427.0,87161.0,115327.0,141617.0
23861,7321,US,122213,33.1236111111,-89.4652777778,,Census,Town,MS,"Ethel, Mississippi",0,0,0,0,0,0,0,0,0,0,0,0,0,466,571.0,828,723,566.0,560.0,486.0,454.0,452.0,418.0
23926,10906,US,122218,34.8238888889,-89.2416666667,,Census,Town,MS,"Snow Lake Shores, Mississippi",0,0,0,0,0,0,0,0,0,0,0,0,0,0,0.0,0,0,0.0,0.0,0.0,0.0,300.0,319.0
23933,18075,US,122225,33.8805555556,-90.7280555556,,Census,City,MS,"Mound Bayou, Mississippi",0,0,0,0,0,0,0,0,0,0,0,287,537,803,834.0,806,1328,1354.0,2134.0,2917.0,2222.0,2102.0,1533.0
23981,30778,US,94768,33.43,-88.88,,Census,US County,MS,"Oktibbeha County, Mississippi",0,0,0,0,0,4276,9171,12977,14891,15978,17694,20183,19676,16872,19119.0,22151,24569,26175.0,28752.0,36018.0,38375.0,42902.0,47671.0
24214,7390,US,122226,33.7916666667,-90.8583333333,,Census,Town,MS,"Pace, Mississippi",0,0,0,0,0,0,0,0,0,0,0,0,0,0,349.0,426,422,420.0,629.0,519.0,354.0,364.0,274.0
24361,13116,US,94769,33.11,-88.57,,Census,US County,MS,"Noxubee County, Mississippi",0,0,0,0,0,9975,16299,20667,20905,29874,27338,30846,28503,23710,25560.0,25669,20022,16826.0,14288.0,13212.0,12604.0,12548.0,11545.0
24516,22224,US,94776,32.63,-90.03,,Census,US County,MS,"Madison County, Mississippi",0,0,0,0,4973,15530,18173,23382,20948,25866,27321,32493,33505,29292,35796.0,37504,33860,32904.0,29737.0,41613.0,53794.0,74674.0,95203.0
24935,11393,US,122472,32.6438888889,-90.3680555556,,Census,Town,MS,"Bentonia, Mississippi",0,0,0,0,0,0,0,0,0,180,0,0,0,0,0.0,440,496,511.0,544.0,518.0,390.0,500.0,440.0
25015,26441,US,94725,34.03,-89.72,,Census,US County,MS,"Yalobusha County, Mississippi",0,0,0,0,0,12248,17258,16952,13254,15649,16629,19742,21519,18738,17750.0,18387,15191,12502.0,11915.0,13139.0,12033.0,13051.0,12678.0
25062,6451,US,122310,34.2313888889,-88.2472222222,,Census,Town,MS,"Tremont, Mississippi",0,0,0,0,0,0,0,0,0,0,0,0,0,0,0.0,0,0,0.0,0.0,379.0,342.0,390.0,465.0
25152,12726,US,122402,34.2486111111,-89.0066666667,,Census,City,MS,"Pontotoc, Mississippi",0,0,0,0,0,0,0,0,384,447,535,1010,1277,1274,2018.0,1832,1596,2108.0,3453.0,4723.0,4570.0,5253.0,5625.0
25241,8619,US,122219,33.6505555556,-91.0086111111,,Census,Town,MS,"Benoit, Mississippi",0,0,0,0,0,0,0,0,0,0,0,0,412,443,438.0,406,444,453.0,473.0,499.0,641.0,611.0,477.0
25267,6917,US,122372,33.885,-88.2336111111,,Census,Village,MS,"Gattman, Mississippi",0,0,0,0,0,0,0,0,0,0,0,111,155,151,158.0,186,150,145.0,175.0,151.0,120.0,114.0,90.0
25350,17998,US,94749,32.02,-89.5,,Census,US County,MS,"Smith County, Mississippi",0,0,0,0,0,1961,4071,7638,7126,8088,10635,13055,16603,16178,18405.0,19403,16740,14303.0,13561.0,15077.0,14798.0,16182.0,16491.0
25510,11514,US,122235,33.8797222222,-89.1769444444,,Census,Town,MS,"Vardaman, Mississippi",0,0,0,0,0,0,0,0,0,0,0,0,430,599,627.0,626,686,637.0,777.0,1009.0,920.0,1065.0,1316.0
25582,16198,US,124693,31.5819444444,-90.4430555556,,Census,City,MS,"Brookhaven, Mississippi",0,0,0,0,0,0,0,996,1614,1615,2142,2678,5293,4706,5288.0,6232,7801,9885.0,10700.0,10800.0,10243.0,9861.0,12513.0
25613,14131,US,122364,32.5430555556,-90.3119444444,,Census,Town,MS,"Flora, Mississippi",0,0,0,0,0,0,0,0,0,0,228,304,747,698,513.0,509,655,743.0,987.0,1507.0,1482.0,1546.0,1886.0
25645,19938,US,57775,33.65,-88.77,,Census,US County,MS,"Clay County, Mississippi",0,0,0,0,0,0,0,0,0,17367,18607,19563,20203,17490,17931.0,19030,17757,18933.0,18840.0,21082.0,21120.0,21979.0,20634.0
25678,15475,US,122426,31.8727777778,-89.7336111111,,Census,City,MS,"Magee, Mississippi",0,0,0,0,0,0,0,0,0,0,0,0,685,730,964.0,1221,1738,2039.0,2973.0,3497.0,3607.0,4200.0,4408.0
25733,11351,US,122256,31.9880555556,-90.3566666667,,Census,City,MS,"Crystal Springs, Mississippi",0,0,0,0,0,0,0,0,864,915,997,1093,1343,1395,2257.0,2855,3676,4496.0,4195.0,4902.0,5643.0,5873.0,5044.0
25792,41199,US,122360,33.5016666667,-88.415,,Census,City,MS,"Columbus, Mississippi",0,0,0,0,0,0,2611,3308,4812,3955,4559,6484,8988,10501,10743.0,13645,17172,24771.0,25795.0,27503.0,23799.0,25944.0,23640.0
25867,7446,US,150696,32.5713888889,-89.1180555556,,Census,Town,MS,"Union, Mississippi",0,0,0,0,0,0,0,0,0,0,0,0,693,1012,1705.0,1543,1559,1726.0,1856.0,1931.0,1875.0,2021.0,1988.0
25986,25893,US,94745,33.95,-90.17,,Census,US County,MS,"Tallahatchie County, Mississippi",0,0,0,0,0,2985,4643,7890,7852,10926,14361,19600,29078,35953,35568.0,34166,30486,24081.0,19338.0,17157.0,15210.0,14903.0,15378.0
26006,8577,US,122238,33.3316666667,-89.7469444444,,Census,Town,MS,"Vaiden, Mississippi",0,0,0,0,0,0,0,0,0,526,533,474,713,579,648.0,601,583,475.0,716.0,924.0,789.0,840.0,734.0
26037,6505,US,122406,34.5011111111,-88.4711111111,,Census,Town,MS,"Marietta, Mississippi",0,0,0,0,0,0,0,0,0,63,0,0,146,0,0.0,0,0,0.0,204.0,298.0,287.0,248.0,256.0
26307,11187,US,124673,31.4730555556,-90.8908333333,,Census,Town,MS,"Meadville, Mississippi",0,0,0,0,0,0,0,0,0,0,0,0,260,304,341.0,510,524,611.0,594.0,575.0,453.0,519.0,449.0
26357,7621,US,122292,32.1977777778,-90.5472222222,,Census,Town,MS,"Learned, Mississippi",0,0,0,0,0,0,0,0,0,0,119,138,134,136,134.0,130,126,96.0,116.0,113.0,111.0,50.0,94.0
26363,8457,US,6560488,34.96,-90.15,,Census,Town located,MS,"Walls, Mississippi",0,0,0,0,0,0,0,0,0,0,0,0,0,0,0.0,0,0,0.0,0.0,0.0,0.0,0.0,1162.0
26427,7176,US,122468,33.6066666667,-89.2788888889,,Census,Village,MS,"Walthall, Mississippi",0,0,0,0,0,0,0,0,0,101,122,170,171,114,124.0,142,149,153.0,161.0,206.0,167.0,170.0,144.0
26492,9079,US,122257,31.8711111111,-90.1641666667,,Census,Town,MS,"Georgetown, Mississippi",0,0,0,0,0,0,0,0,0,0,0,0,0,317,303.0,415,327,285.0,339.0,343.0,332.0,344.0,286.0
26509,19952,US,94740,34.66,-90.38,,Census,US County,MS,"Tunica County, Mississippi",0,0,0,0,0,821,1314,4366,5358,8461,12158,16479,18646,20386,21233.0,22610,21664,16826.0,11854.0,9652.0,8164.0,9227.0,10778.0
26554,10186,US,122243,33.3113888889,-89.1747222222,,Census,Town,MS,"Ackerman, Mississippi",0,0,0,0,0,0,0,0,0,0,0,706,1398,1264,1169.0,1528,1463,1382.0,1502.0,1567.0,1573.0,1696.0,1510.0
26587,12328,US,150690,34.5088888889,-88.6394444444,,Census,City,MS,"Baldwyn, Mississippi",0,0,0,0,0,0,0,0,133,477,0,560,787,922,1106.0,1279,1567,2023.0,2366.0,3427.0,3204.0,3321.0,3297.0
26620,7194,US,122471,34.0558333333,-89.9144444444,,Census,Town,MS,"Oakland, Mississippi",0,0,0,0,0,0,0,0,0,288,327,209,351,429,428.0,516,551,488.0,493.0,540.0,553.0,586.0,527.0
26799,110324,US,16167,32.2988888889,-90.1847222222,,Census,City,MS,"Jackson, Mississippi",0,0,0,0,0,0,1881,3191,4234,5204,5920,7816,21262,22817,48282.0,62107,98271,144422.0,153968.0,202895.0,196637.0,184286.0,173514.0
26877,14499,US,122240,34.0363888889,-89.02,,Census,Town,MS,"New Houlka, Mississippi",0,0,0,0,0,0,0,0,0,0,0,0,0,0,0.0,0,0,0.0,646.0,710.0,558.0,710.0,626.0
26921,20140,US,94775,31.23,-89.82,,Census,US County,MS,"Marion County, Mississippi",0,0,0,3116,3691,3830,4410,4686,4211,6901,9532,13501,15599,17144,19923.0,24085,23967,23293.0,22871.0,25708.0,25544.0,25595.0,27088.0
27016,8767,US,124667,34.4536111111,-90.4780555556,,Census,Town,MS,"Lula, Mississippi",0,0,0,0,0,0,0,0,0,0,0,174,160,344,448.0,503,488,484.0,445.0,394.0,224.0,370.0,298.0
27174,26405,US,94766,34.36,-89.95,,Census,US County,MS,"Panola County, Mississippi",0,0,0,0,0,4657,11444,13794,20754,28352,26977,29027,31274,27845,28648.0,34421,31271,28791.0,26829.0,28164.0,29996.0,34274.0,34707.0
27577,6245,US,124690,32.5894444444,-89.5947222222,,Census,Town,MS,"Lena, Mississippi",0,0,0,0,0,0,0,0,0,0,0,0,0,198,432.0,3700,4736,6295.0,233.0,231.0,175.0,167.0,148.0
27584,6617,US,122446,34.9491666667,-88.9097222222,,Census,Town,MS,"Walnut, Mississippi",0,0,0,0,0,0,0,0,0,0,0,0,0,150,219.0,516,481,390.0,458.0,513.0,523.0,754.0,771.0
27630,6104,US,122442,34.6705555556,-89.0286111111,,Census,Town,MS,"Blue Mountain, Mississippi",0,0,0,0,0,0,0,0,0,156,0,466,650,654,569.0,544,875,741.0,677.0,867.0,667.0,670.0,920.0
27690,13904,US,122246,31.9561111111,-90.9830555556,,Census,City,MS,"Port Gibson, Mississippi",0,0,0,0,0,0,0,0,0,0,1524,2113,2252,1691,1861.0,2748,2920,2861.0,2589.0,2371.0,1810.0,1840.0,1567.0
27732,7012,US,124681,31.8911111111,-88.9908333333,,Census,Town,MS,"Heidelberg, Mississippi",0,0,0,0,0,0,0,0,0,0,216,228,477,489,653.0,615,863,1049.0,1112.0,1098.0,981.0,840.0,718.0
27821,5931,US,122415,32.3130555556,-89.7986111111,,Census,Town,MS,"Pelahatchie, Mississippi",0,0,0,0,0,0,0,0,0,117,139,326,943,1212,1599.0,938,867,1066.0,1306.0,1445.0,1553.0,1461.0,1334.0
27857,18428,US,94738,34.49,-89.0,,Census,US County,MS,"Union County, Mississippi",0,0,0,0,0,0,0,0,0,13030,15606,16522,18997,20044,21268.0,21867,20262,18904.0,19096.0,21741.0,22085.0,25362.0,27134.0
27881,18444,US,122330,31.5969444444,-89.8697222222,,Census,Town,MS,"Prentiss, Jefferson Davis County, Mississippi",0,0,0,0,0,0,0,0,0,0,0,0,640,468,655.0,989,1212,1321.0,1789.0,1465.0,1487.0,1158.0,1081.0
27996,6094,US,124708,32.0105555556,-89.3822222222,,Census,Village,MS,"Sylvarena, Mississippi",0,0,0,0,0,0,0,0,0,0,0,0,0,0,0.0,0,112,69.0,115.0,102.0,110.0,120.0,112.0
28087,7674,US,122448,34.8386111111,-88.3141666667,,Census,Town,MS,"Burnsville, Mississippi",0,0,0,0,0,0,0,0,0,240,318,222,336,363,404.0,449,525,416.0,435.0,889.0,949.0,1034.0,936.0
28204,6174,US,122410,34.4330555556,-90.22,,Census,Town,MS,"Sledge, Mississippi",0,0,0,0,0,0,0,0,0,0,0,0,0,0,337.0,316,383,440.0,516.0,699.0,577.0,529.0,545.0
28227,8546,US,122216,34.8325,-89.1791666667,,Census,Town,MS,"Ashland, Mississippi",0,0,0,0,0,0,0,0,0,174,138,162,146,190,228.0,354,328,309.0,348.0,532.0,490.0,577.0,569.0
28262,15822,US,122280,30.2897222222,-89.3836111111,,Census,City,MS,"Waveland, Mississippi",0,0,0,0,0,0,0,0,0,0,328,520,554,431,663.0,768,793,1106.0,3108.0,4186.0,5369.0,6674.0,6435.0
28755,13440,US,122314,30.3816666667,-88.6441666667,,Census,City,MS,"Gautier, Mississippi",0,0,0,0,0,0,0,0,0,0,0,0,0,0,0.0,0,0,0.0,2087.0,8917.0,10088.0,11681.0,18572.0
28806,8603,US,122253,34.3658333333,-90.5216666667,,Census,Town,MS,"Coahoma, Mississippi",0,0,0,0,0,0,0,0,0,0,0,171,211,0,0.0,0,0,0.0,0.0,0.0,254.0,325.0,377.0
28858,29531,US,122339,31.1425,-89.4077777778,,Census,City,MS,"Purvis, Mississippi",0,0,0,0,0,0,0,0,0,0,287,564,724,919,881.0,1000,1270,1614.0,1860.0,2256.0,2140.0,2164.0,2175.0
28961,6848,US,122467,33.7305555556,-89.06,,Census,Village,MS,"Mantee, Mississippi",0,0,0,0,0,0,0,0,0,0,0,0,222,249,219.0,241,189,166.0,142.0,158.0,134.0,169.0,232.0
29019,7874,US,122247,32.1736111111,-88.8219444444,,Census,Town,MS,"Enterprise, Clarke County, Mississippi",0,0,0,0,0,0,0,0,0,0,0,789,877,700,792.0,757,691,532.0,458.0,607.0,477.0,474.0,526.0
29100,9304,US,150687,31.4377777778,-88.4761111111,,Census,Town,MS,"State Line, Mississippi",0,0,0,0,0,0,0,0,0,97,0,379,363,0,358.0,542,492,653.0,598.0,484.0,395.0,555.0,565.0
29191,7614,US,122333,31.7855555556,-89.0344444444,,Census,Town,MS,"Sandersville, Mississippi",0,0,0,0,0,0,0,0,0,0,0,357,604,559,565.0,562,681,657.0,694.0,800.0,853.0,789.0,731.0
29283,6614,US,122473,32.9858333333,-90.3233333333,,Census,Village,MS,"Eden, Mississippi",0,0,0,0,0,0,0,0,0,0,0,0,176,221,233.0,292,306,218.0,152.0,150.0,88.0,126.0,103.0
29343,26168,US,57959,33.5,-89.61,,Census,US County,MS,"Montgomery County, Mississippi",0,0,0,0,0,0,0,0,0,13348,14459,16536,17706,13805,15009.0,15703,14470,13320.0,12918.0,13366.0,12388.0,12189.0,10925.0
29447,10196,US,122324,31.9766666667,-89.2794444444,,Census,City,MS,"Bay Springs, Mississippi",0,0,0,0,0,0,0,0,0,0,0,0,836,861,927.0,1228,1302,1544.0,1801.0,1884.0,1729.0,2097.0,1786.0
29541,8592,US,122400,34.1755555556,-89.0322222222,,Census,Town,MS,"Algoma, Mississippi",0,0,0,0,0,0,0,0,0,0,0,0,0,0,0.0,0,0,0.0,0.0,0.0,420.0,508.0,590.0
29719,22672,US,94765,30.77,-89.59,,Census,US County,MS,"Pearl River County, Mississippi",0,0,0,0,0,0,0,0,0,0,2957,6697,10593,15648,19405.0,19125,20641,22411.0,27802.0,33795.0,38714.0,48621.0,55834.0
29977,15845,US,122370,33.8244444444,-88.5497222222,,Census,City,MS,"Aberdeen, Mississippi",0,0,0,0,0,0,0,0,2022,2339,3449,3434,3708,4071,3925.0,4746,5290,6450.0,6507.0,7184.0,6837.0,6415.0,5612.0
30037,7145,US,122335,32.7697222222,-88.6502777778,,Census,Town,MS,"De Kalb, Mississippi",0,0,0,0,0,0,0,0,0,0,0,0,0,554,888.0,866,953,880.0,1072.0,1159.0,1073.0,972.0,1164.0
30071,6306,US,122403,34.3030555556,-89.1719444444,,Census,Town,MS,"Thaxton, Mississippi",0,0,0,0,0,0,0,0,0,0,0,0,143,0,0.0,0,0,0.0,0.0,404.0,431.0,513.0,643.0
30093,10985,US,124658,33.0580555556,-89.5883333333,,Census,City,MS,"Kosciusko, Mississippi",0,0,0,0,0,0,0,0,0,0,1394,2078,2385,2258,3237.0,4291,6753,6800.0,7266.0,7415.0,6986.0,7372.0,7402.0
30145,18877,US,122206,34.9372222222,-88.5152777778,,Census,City,MS,"Corinth, Mississippi",0,0,0,0,0,0,0,0,1512,2275,2111,3661,5020,5498,6220.0,7818,9785,11453.0,11581.0,13180.0,11820.0,14054.0,14573.0
30215,10184,US,122420,32.5727777778,-89.3361111111,,Census,Town,MS,"Sebastopol, Mississippi",0,0,0,0,0,0,0,0,0,0,0,0,0,0,355.0,403,330,343.0,268.0,314.0,281.0,233.0,272.0
30284,13298,US,122275,30.3147222222,-89.3441666667,,Census,City,MS,"Bay St. Louis, Mississippi",0,0,0,0,0,0,0,0,0,1978,1974,2872,3388,3033,3724.0,4138,4621,5073.0,6752.0,7850.0,8063.0,8209.0,9260.0
30340,9962,US,122396,31.1491666667,-90.4613888889,,Census,City,MS,"Magnolia, Mississippi",0,0,0,0,0,0,0,0,0,567,676,1088,1823,2012,1660.0,2125,1984,2083.0,1970.0,2461.0,2245.0,2071.0,2420.0
30374,20212,US,94811,34.36,-89.49,,Census,US County,MS,"Lafayette County, Mississippi",0,0,0,0,0,6531,14069,16125,18802,21671,20553,22110,21883,19243,19978.0,21257,22798,21355.0,24181.0,31030.0,31826.0,38744.0,47351.0
30408,25832,US,122276,30.3833333333,-89.3727777778,,Census,City,MS,"Diamondhead, Mississippi",0,0,0,0,0,0,0,0,0,0,0,0,0,0,0.0,0,0,0.0,0.0,1011.0,2661.0,5912.0,8425.0
30557,7330,US,122343,31.5541666667,-90.11,,Census,Town,MS,"Monticello, Mississippi",0,0,0,0,0,0,0,221,200,0,0,0,450,464,606.0,802,1382,1432.0,1790.0,1834.0,1755.0,1726.0,1571.0
30571,15662,US,122363,32.6119444444,-90.0316666667,,Census,City,MS,"Canton, Mississippi",0,0,0,0,0,0,0,0,1963,2131,3404,3464,3929,3252,4725.0,6011,7048,9707.0,10503.0,11116.0,10062.0,12911.0,13189.0
30705,10926,US,122379,32.3258333333,-88.9280555556,,Census,Town,MS,"Chunky, Mississippi",0,0,0,0,0,0,0,0,0,0,0,0,280,272,268.0,228,258,224.0,280.0,277.0,292.0,344.0,326.0
30723,18789,US,94726,33.09,-89.04,,Census,US County,MS,"Winston County, Mississippi",0,0,0,0,0,4650,7956,9811,8984,10087,12089,14124,17139,18139,21239.0,22751,22231,19246.0,18406.0,19474.0,19433.0,20160.0,19198.0
30911,14376,US,122250,31.8608333333,-88.7005555556,,Census,Town,MS,"Shubuta, Mississippi",0,0,0,0,0,0,0,0,0,754,589,451,1168,912,720.0,756,782,718.0,602.0,626.0,577.0,651.0,441.0
30966,7925,US,122421,32.9738888889,-90.8297222222,,Census,Town,MS,"Anguilla, Mississippi",0,0,0,0,0,0,0,0,0,0,0,0,0,361,467.0,493,601,580.0,612.0,950.0,883.0,907.0,726.0
31113,16051,US,124712,33.7269444444,-90.5491666667,,Census,City,MS,"Ruleville, Mississippi",0,0,0,0,0,0,0,0,0,0,0,226,451,1022,1181.0,1378,1521,1902.0,2351.0,3332.0,3245.0,3234.0,3007.0
31193,6875,US,124719,32.9922222222,-89.0638888889,,Census,Town,MS,"Noxapater, Mississippi",0,0,0,0,0,0,0,0,0,0,0,0,311,515,526.0,569,615,549.0,554.0,516.0,441.0,419.0,472.0
31214,6619,US,122230,33.9116666667,-90.7527777778,,Census,Town,MS,"Winstonville, Mississippi",0,0,0,0,0,0,0,0,0,0,0,0,0,0,142.0,169,322,327.0,536.0,486.0,277.0,319.0,191.0
31266,7937,US,124665,32.1338888889,-88.7925,,Census,Town,MS,"Stonewall, Mississippi",0,0,0,0,0,0,0,0,0,145,0,0,0,0,0.0,0,1015,1126.0,1161.0,1345.0,1148.0,1149.0,1088.0
31367,27125,US,124711,33.4480555556,-90.6475,,Census,City,MS,"Indianola, Mississippi",0,0,0,0,0,0,0,0,0,0,249,630,1098,2112,3116.0,3604,4369,6714.0,8947.0,8050.0,11809.0,12066.0,10683.0
31545,9341,US,150686,33.5366666667,-89.1266666667,,Census,Town,MS,"Mathiston, Mississippi",0,0,0,0,0,0,0,0,0,0,0,170,576,463,484.0,549,584,597.0,570.0,632.0,818.0,720.0,698.0
