,article_length,country,id,lat,lon,other_years,poptype,settlement_type,state,title,y1790,y1800,y1810,y1820,y1830,y1840,y1850,y1860,y1870,y1880,y1890,y1900,y1910,y1920,y1930,y1940,y1950,y1960,y1970,y1980,y1990,y2000,y2010
21,8613,US,130646,36.9,-95.9263888889,,Census,Town,OK,"Copan, Oklahoma",0,0,0,0,0,0,0,0,0,0,0,0,307,430,521.0,549,459,617.0,675.0,960.0,809.0,796.0,733.0
101,8258,US,130388,34.9172222222,-97.3161111111,,Census,Town,OK,"Wayne, Oklahoma",0,0,0,0,0,0,0,0,0,0,0,0,332,429,427.0,401,501,517.0,618.0,621.0,519.0,714.0,688.0
148,6759,US,130386,34.9188888889,-97.185,,Census,Town,OK,"Rosedale, Oklahoma",0,0,0,0,0,0,0,0,0,0,0,0,0,0,0.0,112,136,88.0,98.0,97.0,48.0,66.0,68.0
198,30836,US,130529,34.9330555556,-95.7663888889,,Census,City,OK,"McAlester, Oklahoma",0,0,0,0,0,0,0,0,0,0,0,646,11774,10632,11804.0,12401,17878,17419.0,18802.0,17255.0,16370.0,17783.0,18383.0
373,8513,US,130334,35.8602777778,-97.5630555556,,Census,City,OK,"Cedar Valley, Oklahoma",0,0,0,0,0,0,0,0,0,0,0,0,0,0,0.0,0,0,0.0,0.0,0.0,61.0,58.0,288.0
447,9150,US,130618,34.4525,-97.6683333333,,Census,Town,OK,"Velma, Oklahoma",0,0,0,0,0,0,0,0,0,0,0,0,0,0,0.0,0,0,0.0,611.0,831.0,661.0,771.0,620.0
492,25824,US,92098,35.64,-99.01,,Census,US County,OK,"Custer County, Oklahoma",0,0,0,0,0,0,0,0,0,0,0,12264,23231,18736,27517.0,23068,21097,21040.0,22665.0,25995.0,26897.0,26142.0,27469.0
494,10251,US,130376,36.3925,-95.0486111111,,Census,Town,OK,"Spavinaw, Oklahoma",0,0,0,0,0,0,0,0,0,0,0,0,0,0,0.0,255,213,319.0,470.0,623.0,432.0,62.0,437.0
513,108130,US,57848,35.4822222222,-97.535,,Census,State capital,OK,Oklahoma City,0,0,0,0,0,0,0,0,0,0,4151,10037,64205,91295,185389.0,204424,243504,324253.0,368164.0,404014.0,444719.0,506132.0,579999.0
566,13028,US,130083,34.2819444444,-97.0369444444,,Census,Town,OK,"Gene Autry, Oklahoma",0,0,0,0,0,0,0,0,0,0,0,276,378,435,300.0,227,170,110.0,120.0,178.0,97.0,99.0,158.0
610,11635,US,130224,35.295,-97.7855555556,,Census,City,OK,"Tuttle, Oklahoma",0,0,0,0,0,0,0,0,0,0,0,0,794,590,766.0,940,715,855.0,1640.0,3051.0,2807.0,4294.0,6019.0
687,7388,US,130511,36.1963888889,-96.3605555556,,Census,Town,OK,"Westport, Oklahoma",0,0,0,0,0,0,0,0,0,0,0,0,0,0,0.0,0,0,0.0,146.0,265.0,326.0,264.0,298.0
699,5833,US,130489,36.8347222222,-94.8988888889,,Census,Cdp,OK,"Dotyville, Oklahoma",0,0,0,0,0,0,0,0,0,0,0,0,0,0,0.0,0,0,0.0,0.0,0.0,0.0,17.0,87.0
719,9699,US,130536,34.8730555556,-96.5916666667,,Census,Town,OK,"Francis, Oklahoma",0,0,0,0,0,0,0,0,0,0,0,0,931,911,607.0,370,271,286.0,283.0,365.0,346.0,332.0,315.0
796,8058,US,130604,35.4180555556,-94.5147222222,,Census,Town,OK,"Roland, Oklahoma",0,0,0,0,0,0,0,0,0,0,0,0,228,271,212.0,311,443,100.0,827.0,1472.0,2481.0,2842.0,3169.0
901,6350,US,130560,35.6708333333,-99.5994444444,,Census,Town,OK,"Strong City, Oklahoma",0,0,0,0,0,0,0,0,0,0,0,0,0,350,353.0,245,107,51.0,40.0,56.0,49.0,396.0,47.0
943,20646,US,92039,36.77,-98.86,,Census,US County,OK,"Woods County, Oklahoma",0,0,0,0,0,0,0,0,0,0,0,0,17567,15939,17005.0,14915,14526,11932.0,11920.0,10923.0,9103.0,9089.0,8878.0
950,6198,US,130243,36.8125,-99.9333333333,,Census,Town,OK,"Rosston, Oklahoma",0,0,0,0,0,0,0,0,0,0,0,0,0,181,185.0,143,85,58.0,56.0,66.0,54.0,66.0,31.0
965,9432,US,130656,35.4205555556,-99.28,,Census,Town,OK,"Canute, Oklahoma",0,0,0,0,0,0,0,0,0,0,0,0,0,0,366.0,374,355,370.0,420.0,676.0,542.0,524.0,541.0
1078,8625,US,130223,34.7819444444,-97.9555555556,,Census,Town,OK,"Rush Springs, Oklahoma",0,0,0,0,0,0,0,0,0,0,0,518,823,768,1340.0,1422,1402,1303.0,1381.0,1451.0,1229.0,1278.0,1231.0
1104,8937,US,130468,35.61,-95.8611111111,,Census,City,OK,"Morris, Oklahoma",0,0,0,0,0,0,0,0,0,0,0,0,0,1926,1706.0,1197,1122,982.0,1119.0,1288.0,1216.0,1294.0,1479.0
1128,8512,US,130055,33.8563888889,-96.5033333333,,Census,Town,OK,"Colbert, Oklahoma",0,0,0,0,0,0,0,0,0,0,0,0,0,0,0.0,602,748,671.0,814.0,1122.0,1043.0,1065.0,1140.0
1236,10991,US,130660,35.4533333333,-99.1708333333,,Census,Town,OK,"Foss, Oklahoma",0,0,0,0,0,0,0,0,0,0,0,0,525,348,524.0,306,210,289.0,150.0,188.0,143.0,127.0,151.0
1277,9447,US,130246,35.1502777778,-94.9713888889,,Census,Town,OK,"McCurtain, Oklahoma",0,0,0,0,0,0,0,0,0,0,0,0,526,1062,934.0,870,705,528.0,575.0,549.0,465.0,466.0,516.0
1302,10539,US,150962,35.8,-97.6772222222,,Census,Town,OK,"Cashion, Oklahoma",0,0,0,0,0,0,0,0,0,0,0,0,289,296,291.0,232,182,221.0,329.0,547.0,430.0,635.0,802.0
1306,7061,US,130188,36.1480555556,-99.2991666667,,Census,Town,OK,"Vici, Oklahoma",0,0,0,0,0,0,0,0,0,0,0,0,0,0,482.0,257,261,456.0,588.0,928.0,880.0,668.0,762.0
1334,13865,US,130236,34.8780555556,-99.5052777778,,Census,City,OK,"Mangum, Oklahoma",0,0,0,0,0,0,0,0,0,0,0,0,3067,3405,4806.0,4193,4271,3950.0,4066.0,3833.0,3344.0,2924.0,3010.0
1341,8261,US,130429,36.46,-97.1791666667,,Census,Town,OK,"Red Rock, Oklahoma",0,0,0,0,0,0,0,0,0,0,0,0,575,329,375.0,395,253,262.0,233.0,376.0,321.0,293.0,283.0
1365,7210,US,130044,35.7286111111,-98.3775,,Census,Town,OK,"Greenfield, Oklahoma",0,0,0,0,0,0,0,0,0,0,0,0,0,0,0.0,303,191,128.0,143.0,233.0,200.0,123.0,93.0
1415,8788,US,130158,36.6252777778,-94.9136111111,,Census,Town,OK,"Bernice, Oklahoma",0,0,0,0,0,0,0,0,0,0,0,0,0,198,162.0,205,91,100.0,189.0,318.0,330.0,504.0,562.0
1427,8708,US,130295,35.0710978,-98.8743742,,Census,Town,OK,"Gotebo, Oklahoma",0,0,0,0,0,0,0,0,0,0,0,0,740,737,827.0,607,574,538.0,378.0,457.0,370.0,272.0,226.0
1477,7235,US,130333,35.6908333333,-97.0630555556,,Census,Town,OK,"Wellston, Oklahoma",0,0,0,0,0,0,0,0,0,0,0,383,590,650,632.0,607,643,630.0,789.0,802.0,912.0,825.0,788.0
1480,9813,US,130093,35.9316666667,-95.1427777778,,Census,Town,OK,"Hulbert, Oklahoma",0,0,0,0,0,0,0,0,0,0,0,0,0,0,0.0,0,0,0.0,505.0,633.0,499.0,543.0,590.0
1509,11035,US,130078,35.3927777778,-97.7227777778,,Census,City,OK,"Mustang, Oklahoma",0,0,0,0,0,0,0,0,0,0,0,0,0,0,107.0,214,210,198.0,2637.0,7496.0,10434.0,13156.0,17395.0
1526,7935,US,150963,34.9566666667,-94.8533333333,,Census,Town,OK,"Fanshawe, Oklahoma",0,0,0,0,0,0,0,0,0,0,0,0,0,0,0.0,0,0,0.0,199.0,416.0,331.0,384.0,419.0
1544,7140,US,130615,34.3286111111,-97.6805555556,,Census,Village,OK,"Loco, Oklahoma",0,0,0,0,0,0,0,0,0,0,0,0,0,0,333.0,268,236,268.0,193.0,215.0,160.0,150.0,122.0
1589,9234,US,130156,35.7476127,-98.7494195,,Census,City,OK,"Thomas, Oklahoma",0,0,0,0,0,0,0,0,0,0,0,0,1371,1223,1256.0,1220,1171,1211.0,1336.0,1515.0,1246.0,1238.0,1181.0
1624,8859,US,130328,35.4972222222,-96.8972222222,,Census,Town,OK,"Meeker, Oklahoma",0,0,0,0,0,0,0,0,0,0,0,0,349,513,562.0,502,672,664.0,804.0,1032.0,1003.0,978.0,1144.0
1627,9657,US,130059,34.1486111111,-96.3616666667,,Census,Town,OK,"Kenefic, Oklahoma",0,0,0,0,0,0,0,0,0,0,0,0,0,413,284.0,227,115,125.0,153.0,140.0,147.0,192.0,196.0
1632,7509,US,130457,35.4511111111,-97.4572222222,,Census,Town,OK,"Smith Village, Oklahoma",0,0,0,0,0,0,0,0,0,0,0,0,0,0,0.0,0,0,93.0,93.0,60.0,34.0,40.0,66.0
1671,10414,US,130663,35.1566666667,-99.1738888889,,Census,Town,OK,"Sentinel, Oklahoma",0,0,0,0,0,0,0,0,0,0,0,0,857,723,1269.0,1088,1131,1154.0,984.0,1016.0,960.0,859.0,901.0
1767,17074,US,130141,36.6411111111,-95.1566666667,,Census,City,OK,"Vinita, Oklahoma",0,0,0,0,0,0,0,0,0,0,0,2339,4082,5010,4263.0,5685,5518,6027.0,5847.0,6740.0,5804.0,6472.0,5743.0
1810,7921,US,130459,35.5686111111,-97.5566666667,,Census,City,OK,"The Village, Oklahoma",0,0,0,0,0,0,0,0,0,0,0,0,0,0,0.0,0,0,12118.0,13695.0,11114.0,10353.0,10157.0,8929.0
1887,7827,US,130477,36.9383333333,-96.6505555556,,Census,Town,OK,"Grainola, Oklahoma",0,0,0,0,0,0,0,0,0,0,0,0,0,0,197.0,157,79,67.0,66.0,67.0,58.0,31.0,31.0
1900,6376,US,130559,35.6527777778,-99.9213888889,,Census,Town,OK,"Reydon, Oklahoma",0,0,0,0,0,0,0,0,0,0,0,0,0,0,216.0,311,331,183.0,215.0,252.0,200.0,177.0,210.0
1921,6921,US,130190,36.3733333333,-99.6227777778,,Census,Town,OK,"Fargo, Oklahoma",0,0,0,0,0,0,0,0,0,0,0,0,341,258,325.0,291,318,291.0,262.0,409.0,299.0,326.0,364.0
1973,13127,US,130612,34.3652777778,-97.9686111111,,Census,City,OK,"Comanche, Oklahoma",0,0,0,0,0,0,0,0,0,0,0,547,1301,1427,1704.0,1533,2083,2082.0,1862.0,1937.0,1695.0,1556.0,1663.0
1987,30670,US,130218,35.0383333333,-97.9461111111,,Census,City,OK,"Chickasha, Oklahoma",0,0,0,0,0,0,0,0,0,0,0,3209,10320,10179,14099.0,14111,15842,14886.0,14194.0,15828.0,14988.0,15850.0,16036.0
2021,23913,US,92073,36.31,-98.54,,Census,US County,OK,"Major County, Oklahoma",0,0,0,0,0,0,0,0,0,0,0,0,15248,12426,12206.0,11946,10279,7808.0,7529.0,8772.0,8055.0,7545.0,7527.0
2045,11307,US,130250,34.9569444444,-96.3369444444,,Census,Town,OK,"Atwood, Oklahoma",0,0,0,0,0,0,0,0,0,0,0,0,0,0,0.0,0,0,0.0,439.0,461.0,369.0,113.0,74.0
2084,7748,US,130300,34.8476852,-99.0226613,,Census,Town,OK,"Roosevelt, Oklahoma",0,0,0,0,0,0,0,0,0,0,0,0,298,362,721.0,744,679,495.0,353.0,396.0,323.0,280.0,248.0
2147,26264,US,92077,34.9,-94.7,,Census,US County,OK,"Le Flore County, Oklahoma",0,0,0,0,0,0,0,0,0,0,0,0,29127,42765,42896.0,45866,35276,29106.0,32137.0,40698.0,43270.0,48109.0,50384.0
2176,9239,US,5138140,35.235,-97.7366666667,,Census,Town,OK,"Bridge Creek, Oklahoma",0,0,0,0,0,0,0,0,0,0,0,0,0,0,0.0,0,0,0.0,0.0,0.0,0.0,0.0,336.0
2201,10654,US,130630,34.3411153,-98.8705256,,Census,Town,OK,"Hollister, Oklahoma",0,0,0,0,0,0,0,0,0,0,0,0,0,0,198.0,200,172,166.0,105.0,82.0,59.0,60.0,50.0
2251,10942,US,130542,35.2969444444,-96.7983333333,,Census,Town,OK,"Earlsboro, Oklahoma",0,0,0,0,0,0,0,0,0,0,0,0,638,317,1950.0,486,278,257.0,248.0,266.0,535.0,633.0,628.0
2412,8687,US,130278,34.2411111111,-96.5505555556,,Census,Town,OK,"Milburn, Oklahoma",0,0,0,0,0,0,0,0,0,0,0,0,438,496,429.0,442,350,228.0,275.0,376.0,264.0,312.0,317.0
2505,10004,US,130134,34.1938888889,-98.5905555556,,Census,Town,OK,"Devol, Oklahoma",0,0,0,0,0,0,0,0,0,0,0,0,0,1936,328.0,208,152,117.0,129.0,186.0,165.0,150.0,151.0
2552,22843,US,92083,34.1,-97.84,,Census,US County,OK,"Jefferson County, Oklahoma",0,0,0,0,0,0,0,0,0,0,0,0,17430,17664,17392.0,15107,11122,8192.0,7125.0,8183.0,7010.0,6818.0,6472.0
2565,11184,US,150945,35.6708333333,-97.7519444444,,Census,City,OK,"Piedmont, Oklahoma",0,0,0,0,0,0,0,0,0,0,0,0,255,213,148.0,151,120,146.0,269.0,2016.0,2522.0,3650.0,5720.0
2595,10455,US,150971,35.1319444444,-96.7775,,Census,Town,OK,"Maud, Oklahoma",0,0,0,0,0,0,0,0,0,0,0,0,503,637,4326.0,2036,1389,1137.0,1143.0,1444.0,1204.0,1136.0,1048.0
2724,10063,US,130578,35.1733333333,-96.5983333333,,Census,Town,OK,"Lima, Oklahoma",0,0,0,0,0,0,0,0,0,0,0,0,0,146,239.0,0,0,0.0,238.0,256.0,133.0,74.0,53.0
2770,26993,US,130581,35.1494444444,-96.4944444444,,Census,City,OK,"Wewoka, Oklahoma",0,0,0,0,0,0,0,0,0,0,0,0,1022,1520,10401.0,10315,6747,5954.0,5284.0,5472.0,4050.0,3562.0,3430.0
2856,11457,US,130609,35.4977777778,-94.9708333333,,Census,Town,OK,"Vian, Oklahoma",0,0,0,0,0,0,0,0,0,0,0,296,794,1176,900.0,941,927,930.0,1131.0,1521.0,1414.0,1362.0,1466.0
2861,10558,US,130466,35.4425,-95.985,,Census,City,OK,"Henryetta, Oklahoma",0,0,0,0,0,0,0,0,0,0,0,0,1671,5889,7694.0,6905,7987,6551.0,6430.0,6432.0,5872.0,6096.0,5927.0
2942,11541,US,130225,35.0838888889,-98.0888888889,,Census,Town,OK,"Verden, Oklahoma",0,0,0,0,0,0,0,0,0,0,0,0,524,496,587.0,575,508,405.0,439.0,625.0,546.0,659.0,530.0
2958,11352,US,130171,36.4238888889,-94.7977777778,,Census,City,OK,"Jay, Oklahoma",0,0,0,0,0,0,0,0,0,0,0,0,0,0,0.0,741,697,1120.0,1594.0,2180.0,2220.0,2482.0,2448.0
3007,22752,US,92051,35.69,-99.7,,Census,US County,OK,"Roger Mills County, Oklahoma",0,0,0,0,0,0,0,0,0,0,0,6190,12861,10638,14744.0,10736,7395,5090.0,4452.0,4799.0,4147.0,3436.0,3647.0
3008,7443,US,130187,36.0403885,-98.9643416,,Census,Town,OK,"Taloga, Oklahoma",0,0,0,0,0,0,0,0,0,0,0,0,468,365,436.0,533,430,322.0,363.0,446.0,415.0,1211.0,299.0
3078,18879,US,130629,34.2306677,-98.6874219,,Census,City,OK,"Grandfield, Oklahoma",0,0,0,0,0,0,0,0,0,0,0,0,830,1990,1416.0,1116,1232,2606.0,1524.0,1445.0,1224.0,1110.0,1038.0
3155,9504,US,130230,36.8063888889,-97.7369444444,,Census,City,OK,"Medford, Oklahoma",0,0,0,0,0,0,0,0,0,0,0,551,1110,1050,1084.0,1121,1350,1223.0,1304.0,1419.0,1172.0,1172.0,996.0
3234,22431,US,92063,35.47,-96.33,,Census,US County,OK,"Okfuskee County, Oklahoma",0,0,0,0,0,0,0,0,0,0,0,0,19995,25051,29016.0,26279,16948,11706.0,10683.0,11125.0,11551.0,11814.0,12191.0
3257,6767,US,130185,35.8563888889,-98.9686111111,,Census,Town,OK,"Putnam, Oklahoma",0,0,0,0,0,0,0,0,0,0,0,0,0,0,140.0,142,106,83.0,84.0,74.0,44.0,46.0,29.0
3271,12567,US,130340,36.1555555556,-97.625,,Census,Town,OK,"Marshall, Oklahoma",0,0,0,0,0,0,0,0,0,0,0,0,622,434,695.0,382,386,363.0,420.0,372.0,288.0,258.0,272.0
3291,9862,US,130383,35.04,-97.6397222222,,Census,Town,OK,"Dibble, Oklahoma",0,0,0,0,0,0,0,0,0,0,0,0,0,0,0.0,97,148,127.0,184.0,348.0,181.0,289.0,878.0
3419,9177,US,150951,34.4242471,-98.6540892,,Census,Town,OK,"Chattanooga, Oklahoma",0,0,0,0,0,0,0,0,0,0,0,0,471,507,362.0,365,333,356.0,302.0,403.0,437.0,432.0,461.0
3464,10751,US,130625,36.5044444444,-101.786388889,,Census,Town,OK,"Texhoma, Oklahoma",0,0,0,0,0,0,0,0,0,0,0,0,372,687,819.0,577,1464,911.0,921.0,785.0,746.0,386.0,926.0
3528,12428,US,130471,35.7986111111,-95.9961111111,,Census,Town,OK,"Winchester, Oklahoma",0,0,0,0,0,0,0,0,0,0,0,0,0,0,0.0,0,0,0.0,0.0,150.0,301.0,424.0,516.0
3577,9806,US,130310,34.9513888889,-94.6369444444,,Census,Town,OK,"Howe, Oklahoma",0,0,0,0,0,0,0,0,0,0,0,626,538,711,692.0,640,486,390.0,403.0,562.0,510.0,697.0,802.0
3614,7895,US,130534,34.8627777778,-96.6688888889,,Census,Town,OK,"Byng, Oklahoma",0,0,0,0,0,0,0,0,0,0,0,0,0,0,0.0,0,0,0.0,0.0,833.0,755.0,1090.0,1175.0
3626,8016,US,130649,36.5311111111,-95.9236111111,,Census,Town,OK,"Ramona, Oklahoma",0,0,0,0,0,0,0,0,0,0,0,0,725,793,617.0,574,583,546.0,600.0,567.0,508.0,564.0,535.0
3715,10353,US,130435,36.9941666667,-95.6211111111,,Census,Town,OK,"South Coffeyville, Oklahoma",0,0,0,0,0,0,0,0,0,0,0,0,196,179,271.0,364,527,622.0,646.0,873.0,791.0,300.0,785.0
3885,9456,US,130290,35.9816666667,-97.9111111111,,Census,Town,OK,"Dover, Oklahoma",0,0,0,0,0,0,0,0,0,0,0,0,0,0,0.0,0,0,0.0,0.0,570.0,376.0,367.0,464.0
4001,10428,US,130307,35.3072222222,-94.7913888889,,Census,Town,OK,"Cowlington, Oklahoma",0,0,0,0,0,0,0,0,0,0,0,272,378,344,265.0,224,83,74.0,751.0,546.0,756.0,133.0,155.0
4014,7617,US,130275,33.8961111111,-97.9375,,Census,Town,OK,"Terral, Oklahoma",0,0,0,0,0,0,0,0,0,0,0,0,573,506,593.0,521,616,585.0,636.0,604.0,469.0,85.0,382.0
4035,51952,US,130056,33.9997222222,-96.3847222222,,Census,City,OK,"Durant, Oklahoma",0,0,0,0,0,0,0,0,0,0,0,2969,5330,7340,7463.0,10027,10541,10467.0,11118.0,11972.0,12823.0,13549.0,15856.0
4079,6715,US,130202,36.5630555556,-97.6605555556,,Census,Town,OK,"Hunter, Oklahoma",0,0,0,0,0,0,0,0,0,0,0,0,341,443,336.0,443,279,203.0,274.0,276.0,218.0,173.0,165.0
4110,8091,US,130262,34.7791666667,-99.3333333333,,Census,Town,OK,"Blair, Oklahoma",0,0,0,0,0,0,0,0,0,0,0,0,508,437,585.0,570,700,893.0,1114.0,1092.0,922.0,894.0,818.0
4151,6723,US,130061,34.0372222222,-96.4755555556,,Census,Town,OK,"Silo, Oklahoma",0,0,0,0,0,0,0,0,0,0,0,246,152,0,0.0,0,0,0.0,0.0,43.0,249.0,282.0,331.0
4161,7491,US,130456,35.4913888889,-97.3286111111,,Census,City,OK,"Nicoma Park, Oklahoma",0,0,0,0,0,0,0,0,0,0,0,0,0,0,0.0,0,0,1263.0,2560.0,2588.0,2353.0,2415.0,2393.0
4164,10764,US,130115,35.0152777778,-97.3361111111,,Census,City,OK,"Lexington, Oklahoma",0,0,0,0,0,0,0,0,0,0,223,861,768,950,836.0,1084,1176,1216.0,1516.0,1731.0,1776.0,2086.0,2152.0
4166,7272,US,130272,34.1780555556,-97.5930555556,,Census,Town,OK,"Ringling, Oklahoma",0,0,0,0,0,0,0,0,0,0,0,0,0,1039,1002.0,902,1092,1170.0,1206.0,1561.0,1250.0,1135.0,1037.0
4288,9959,US,130554,34.5877777778,-95.3569444444,,Census,Town,OK,"Clayton, Oklahoma",0,0,0,0,0,0,0,0,0,0,0,0,0,0,0.0,0,612,615.0,718.0,833.0,636.0,719.0,821.0
4302,15788,US,130292,35.8561111111,-97.9344444444,,Census,City,OK,"Kingfisher, Oklahoma",0,0,0,0,0,0,0,0,0,0,1134,2301,2538,2446,2726.0,3352,3345,3249.0,4042.0,4245.0,4095.0,4380.0,4633.0
4312,17863,US,130371,36.3083333333,-95.3169444444,,Census,City,OK,"Pryor Creek, Oklahoma",0,0,0,0,0,0,0,0,0,0,0,495,1798,1767,1828.0,2501,4486,6476.0,7057.0,8483.0,8327.0,8659.0,9539.0
4413,11578,US,130488,36.9336111111,-94.8713888889,,Census,City,OK,"Commerce, Oklahoma",0,0,0,0,0,0,0,0,0,0,0,0,0,2555,2608.0,2422,2422,2378.0,2593.0,2556.0,2426.0,2645.0,2472.0
4431,11709,US,130591,35.5327777778,-95.115,,Census,Town,OK,"Gore, Oklahoma",0,0,0,0,0,0,0,0,0,0,0,0,316,329,297.0,334,387,334.0,478.0,445.0,690.0,850.0,977.0
4438,18679,US,150975,36.2902777778,-95.8286111111,,Census,City,OK,"Owasso, Oklahoma",0,0,0,0,0,0,0,0,0,0,0,0,373,379,416.0,371,431,2032.0,3491.0,6149.0,11151.0,18502.0,28915.0
4452,8363,US,130344,36.1483333333,-97.3775,,Census,Town,OK,"Orlando, Oklahoma",0,0,0,0,0,0,0,0,0,0,0,300,340,161,226.0,332,262,194.0,202.0,218.0,198.0,201.0,148.0
4597,6691,US,130277,34.1858333333,-96.8802777778,,Census,Town,OK,"Mannsville, Oklahoma",0,0,0,0,0,0,0,0,0,0,0,198,515,639,372.0,359,311,297.0,364.0,568.0,396.0,587.0,863.0
4607,11723,US,130545,35.4358333333,-97.0913888889,,Census,City,OK,"McLoud, Oklahoma",0,0,0,0,0,0,0,0,0,0,0,498,638,651,812.0,616,718,837.0,2159.0,4061.0,2493.0,3548.0,4044.0
4722,10177,US,130138,36.5441666667,-95.2205555556,,Census,Town,OK,"Big Cabin, Oklahoma",0,0,0,0,0,0,0,0,0,0,0,0,0,0,271.0,270,210,228.0,198.0,252.0,271.0,293.0,265.0
4838,14072,US,150967,36.1397222222,-96.1088888889,,Census,City,OK,"Sand Springs, Oklahoma",0,0,0,0,0,0,0,0,0,0,0,0,0,4067,6674.0,6137,6994,7754.0,10555.0,13121.0,15346.0,17451.0,18906.0
4887,19247,US,130254,35.0841666667,-96.4002777778,,Census,City,OK,"Holdenville, Oklahoma",0,0,0,0,0,0,0,0,0,0,0,749,2296,2932,7268.0,6632,6192,5712.0,5181.0,5469.0,4792.0,4732.0,5771.0
4914,9493,US,130353,34.0002777778,-96.7211111111,,Census,Town,OK,"Kingston, Oklahoma",0,0,0,0,0,0,0,0,0,0,0,0,439,767,552.0,481,677,639.0,710.0,1171.0,1237.0,1390.0,1601.0
5041,10508,US,130119,35.0836111111,-97.2869444444,,Census,Town,OK,"Slaughterville, Oklahoma",0,0,0,0,0,0,0,0,0,0,0,0,0,0,0.0,0,0,0.0,0.0,1953.0,1843.0,3609.0,4137.0
5047,22585,US,92099,35.9,-96.37,,Census,US County,OK,"Creek County, Oklahoma",0,0,0,0,0,0,0,0,0,0,0,0,26223,62480,64115.0,55503,43143,40495.0,45532.0,59016.0,60915.0,67317.0,69967.0
5053,8085,US,130345,33.8786111111,-97.4286111111,,Census,Town,OK,"Leon, Oklahoma",0,0,0,0,0,0,0,0,0,0,0,221,197,216,146.0,178,122,109.0,112.0,120.0,101.0,96.0,91.0
5077,15017,US,130316,35.0586111111,-94.63,,Census,City,OK,"Poteau, Oklahoma",0,0,0,0,0,0,0,0,0,0,0,1182,1830,2679,3169.0,4020,4776,4428.0,5500.0,7089.0,7210.0,7939.0,8520.0
5164,5206,US,18419254,35.5225,-96.3883333333,,Census,Unknown,OK,"IXL, Oklahoma",0,0,0,0,0,0,0,0,0,0,0,0,0,0,0.0,0,0,0.0,0.0,0.0,0.0,0.0,51.0
5250,12108,US,130474,36.6961111111,-96.7280555556,,Census,Town,OK,"Burbank, Oklahoma",0,0,0,0,0,0,0,0,0,0,0,0,0,0,372.0,329,268,238.0,188.0,161.0,165.0,155.0,141.0
5277,28536,US,130413,35.7466,-95.368,,Census,City,OK,"Muskogee, Oklahoma",0,0,0,0,0,0,0,0,0,0,0,4254,25278,30277,32026.0,32332,37289,38059.0,37331.0,40011.0,37708.0,38310.0,39223.0
5322,9009,US,130465,35.5058333333,-95.8725,,Census,Town,OK,"Grayson, Oklahoma",0,0,0,0,0,0,0,0,0,0,0,0,0,0,0.0,0,0,0.0,142.0,150.0,66.0,134.0,159.0
5328,17278,US,130191,36.3180555556,-99.7572222222,,Census,Town,OK,"Gage, Oklahoma",0,0,0,0,0,0,0,0,0,0,0,0,924,804,856.0,684,648,482.0,536.0,667.0,473.0,429.0,442.0
5348,5167,US,130363,36.36,-95.1216666667,,Census,Town,OK,"Hoot Owl, Oklahoma",0,0,0,0,0,0,0,0,0,0,0,0,0,0,0.0,0,0,0.0,0.0,3.0,5.0,1.0,4.0
5390,6847,US,130651,36.4488888889,-95.8802777778,,Census,Town,OK,"Vera, Oklahoma",0,0,0,0,0,0,0,0,0,0,0,0,312,209,206.0,208,164,125.0,215.0,182.0,167.0,188.0,241.0
5406,13195,US,130357,36.4369444444,-95.2625,,Census,Town,OK,"Adair, Oklahoma",0,0,0,0,0,0,0,0,0,0,0,268,376,369,290.0,407,299,434.0,459.0,508.0,685.0,704.0,790.0
5407,14636,US,130137,34.3563888889,-98.3158333333,,Census,City,OK,"Walters, Oklahoma",0,0,0,0,0,0,0,0,0,0,0,0,1377,3032,2262.0,2238,2743,2825.0,2611.0,2778.0,2519.0,2657.0,2551.0
5447,9660,US,130522,34.8538888889,-95.5788888889,,Census,City,OK,"Haileyville, Oklahoma",0,0,0,0,0,0,0,0,0,0,0,0,2024,2067,1801.0,1183,1107,922.0,928.0,832.0,918.0,891.0,813.0
5464,7140,US,130395,34.0033333333,-95.0913888889,,Census,Town,OK,"Valliant, Oklahoma",0,0,0,0,0,0,0,0,0,0,0,0,656,809,608.0,551,661,477.0,840.0,927.0,873.0,769.0,754.0
5557,8848,US,130421,35.7625,-95.5461111111,,Census,Town,OK,"Taft, Oklahoma",0,0,0,0,0,0,0,0,0,0,0,0,352,553,690.0,772,541,386.0,525.0,489.0,400.0,83.0,250.0
5597,22108,US,92042,,,,Census,US County,OK,"Wagoner County, Oklahoma",0,0,0,0,0,0,0,0,0,0,0,0,22086,21371,22428.0,21642,16741,15673.0,22163.0,41801.0,47883.0,57491.0,73085.0
5626,11589,US,130461,35.5269444444,-97.6180555556,,Census,City,OK,"Warr Acres, Oklahoma",0,0,0,0,0,0,0,0,0,0,0,0,0,0,0.0,0,2378,7135.0,9887.0,9940.0,9288.0,9735.0,10043.0
5709,7700,US,130204,36.3880555556,-98.0888888889,,Census,Town,OK,"Lahoma, Oklahoma",0,0,0,0,0,0,0,0,0,0,0,0,275,262,197.0,195,190,160.0,299.0,537.0,645.0,577.0,611.0
5755,24064,US,92104,34.6,-96.3,,Census,US County,OK,"Coal County, Oklahoma",0,0,0,0,0,0,0,0,0,0,0,0,15817,18406,11521.0,12811,8056,5546.0,5525.0,6041.0,5780.0,6031.0,5925.0
5765,6066,US,130574,36.2783333333,-95.7452777778,,Census,Town,OK,"Valley Park, Oklahoma",0,0,0,0,0,0,0,0,0,0,0,0,0,0,0.0,0,0,0.0,0.0,16.0,1.0,817.0,77.0
5795,11176,US,130463,35.7555555556,-96.0380555556,,Census,City,OK,"Beggs, Oklahoma",0,0,0,0,0,0,0,0,0,0,0,0,855,2327,1531.0,1283,1214,1114.0,1107.0,1428.0,1150.0,1364.0,1321.0
5806,20082,US,92044,34.38,-98.92,,Census,US County,OK,"Tillman County, Oklahoma",0,0,0,0,0,0,0,0,0,0,0,0,18650,22433,24390.0,20754,17598,14654.0,12901.0,12398.0,10384.0,9287.0,7992.0
5899,24403,US,92082,34.31,-96.66,,Census,US County,OK,"Johnston County, Oklahoma",0,0,0,0,0,0,0,0,0,0,0,0,16734,20125,13082.0,15960,10608,8517.0,7870.0,10356.0,10032.0,10513.0,10957.0
5977,24883,US,41539710,36.8058333333,-98.6677777778,,Census,City,OK,"Alva, Oklahoma",0,0,0,0,0,0,0,0,0,0,0,1499,3688,3913,5121.0,5055,6505,6258.0,7440.0,6416.0,5495.0,5288.0,4945.0
6119,9483,US,130637,36.2952777778,-95.99,,Census,Town,OK,"Sperry, Oklahoma",0,0,0,0,0,0,0,0,0,0,0,0,0,487,563.0,570,665,883.0,1123.0,1276.0,937.0,3746.0,1206.0
6143,14299,US,130288,36.8830555556,-97.0558333333,,Census,City,OK,"Newkirk, Oklahoma",0,0,0,0,0,0,0,0,0,0,0,1754,1992,2533,2135.0,2283,2201,2092.0,2173.0,2413.0,2168.0,2243.0,2317.0
6189,13735,US,130506,36.3363888889,-96.8013888889,,Census,City,OK,"Pawnee, Oklahoma",0,0,0,0,0,0,0,0,0,0,0,1464,2161,2418,2562.0,2742,2861,2303.0,2443.0,1688.0,2197.0,2230.0,2196.0
6278,7639,US,18419323,34.6958333333,-99.2288888889,,Census,Unknown,OK,"Friendship, Oklahoma",0,0,0,0,0,0,0,0,0,0,0,0,0,0,0.0,0,0,0.0,0.0,0.0,0.0,0.0,24.0
6349,8169,US,130430,36.7780555556,-95.6416666667,,Census,Town,OK,"Delaware, Oklahoma",0,0,0,0,0,0,0,0,0,0,0,0,662,804,526.0,542,582,540.0,534.0,544.0,434.0,456.0,417.0
6438,9944,US,130026,36.5325,-98.1516666667,,Census,Town,OK,"Goltry, Oklahoma",0,0,0,0,0,0,0,0,0,0,0,0,320,287,346.0,330,277,313.0,282.0,305.0,297.0,268.0,249.0
6697,6227,US,130332,35.6858333333,-97.0080555556,,Census,Town,OK,"Warwick, Oklahoma",0,0,0,0,0,0,0,0,0,0,0,0,0,0,0.0,0,0,0.0,146.0,167.0,160.0,235.0,148.0
6738,17120,US,130634,35.9494444444,-96.0022222222,,Census,City,OK,"Glenpool, Oklahoma",0,0,0,0,0,0,0,0,0,0,0,0,0,428,310.0,284,280,353.0,1770.0,2706.0,6688.0,8123.0,10808.0
6749,8539,US,130052,34.0183333333,-96.1416666667,,Census,Town,OK,"Bokchito, Oklahoma",0,0,0,0,0,0,0,0,0,0,0,0,535,627,466.0,581,643,620.0,607.0,628.0,576.0,564.0,632.0
6752,6936,US,130130,34.62,-98.751,,Census,Town,OK,"Indiahoma, Oklahoma",0,0,0,0,0,0,0,0,0,0,0,0,188,195,288.0,337,319,378.0,434.0,364.0,337.0,374.0,344.0
6757,6870,US,130183,35.8686111111,-99.3441666667,,Census,Town,OK,"Leedey, Oklahoma",0,0,0,0,0,0,0,0,0,0,0,0,0,468,646.0,574,558,451.0,465.0,499.0,468.0,345.0,435.0
6788,12699,US,130552,34.6619444444,-95.0994444444,,Census,Town,OK,"Albion, Oklahoma",0,0,0,0,0,0,0,0,0,0,0,0,0,301,256.0,240,178,161.0,186.0,165.0,88.0,143.0,106.0
6802,10086,US,130125,34.634098,-98.621937,,Census,City,OK,"Cache, Oklahoma",0,0,0,0,0,0,0,0,0,0,0,0,317,382,425.0,620,677,1003.0,1106.0,1661.0,2251.0,2371.0,2796.0
6805,7587,US,130636,36.1333333333,-96.2094444444,,Census,Town,OK,"Lotsee, Oklahoma",0,0,0,0,0,0,0,0,0,0,0,0,0,0,0.0,0,0,0.0,16.0,7.0,7.0,11.0,2.0
6864,6664,US,130231,36.665,-98.0525,,Census,Town,OK,"Nash, Oklahoma",0,0,0,0,0,0,0,0,0,0,0,0,348,439,412.0,348,290,230.0,294.0,301.0,281.0,224.0,204.0
6940,9802,US,130594,35.5830555556,-94.8175,,Census,Town,OK,"Marble City, Oklahoma",0,0,0,0,0,0,0,0,0,0,0,0,342,344,168.0,214,285,271.0,299.0,294.0,232.0,242.0,263.0
6942,8831,US,130431,36.8516666667,-95.6366666667,,Census,Town,OK,"Lenapah, Oklahoma",0,0,0,0,0,0,0,0,0,0,0,154,412,434,336.0,395,328,322.0,325.0,350.0,253.0,298.0,293.0
7009,16422,US,130066,35.1023847,-98.599496,,Census,Town,OK,"Carnegie, Oklahoma",0,0,0,0,0,0,0,0,0,0,0,0,835,1150,2063.0,1740,1719,1500.0,1723.0,2016.0,1593.0,1637.0,1723.0
7049,7439,US,130401,35.5194444444,-95.7525,,Census,Town,OK,"Hitchita, Oklahoma",0,0,0,0,0,0,0,0,0,0,0,0,0,264,228.0,206,141,120.0,160.0,126.0,118.0,113.0,88.0
7053,8589,US,130154,35.6372222222,-99.1858333333,,Census,Town,OK,"Butler, Oklahoma",0,0,0,0,0,0,0,0,0,0,0,0,0,332,473.0,428,351,351.0,315.0,388.0,341.0,345.0,287.0
7120,11501,US,130570,36.4433694444,-95.708625,,Census,Town,OK,"Oologah, Oklahoma",0,0,0,0,0,0,0,0,0,0,0,308,324,277,263.0,236,242,299.0,458.0,798.0,828.0,883.0,1146.0
7252,8877,US,130654,35.38542223,-98.9893166,,Census,Town,OK,"Bessie, Oklahoma",0,0,0,0,0,0,0,0,0,0,0,0,0,363,415.0,284,205,226.0,210.0,245.0,242.0,190.0,181.0
7259,24941,US,92069,34.11,-94.77,,Census,US County,OK,"McCurtain County, Oklahoma",0,0,0,0,0,0,0,0,0,0,0,0,20681,37905,34759.0,41318,31588,25851.0,28642.0,36151.0,33433.0,34402.0,33151.0
7305,9079,US,130129,34.4813888889,-98.3836111111,,Census,Town,OK,"Geronimo, Oklahoma",0,0,0,0,0,0,0,0,0,0,0,0,186,161,134.0,117,103,199.0,587.0,726.0,990.0,959.0,1268.0
7327,24002,US,92115,35.26,-99.69,,Census,US County,OK,"Beckham County, Oklahoma",0,0,0,0,0,0,0,0,0,0,0,0,19699,18989,28991.0,22169,21627,17782.0,15754.0,19243.0,18812.0,19799.0,22119.0
7367,18891,US,130040,35.2136111111,-99.8697222222,,Census,City,OK,"Erick, Oklahoma",0,0,0,0,0,0,0,0,0,0,0,0,915,971,2231.0,1591,1579,1342.0,1285.0,1375.0,1083.0,1023.0,1052.0
7469,22441,US,92067,34.49,-97.07,,Census,US County,OK,"Murray County, Oklahoma",0,0,0,0,0,0,0,0,0,0,0,0,12744,13115,12410.0,13841,10775,10622.0,10669.0,12147.0,12042.0,12623.0,13488.0
7476,159586,US,150969,36.1313888889,-95.9372222222,,Census,City,OK,"Tulsa, Oklahoma",0,0,0,0,0,0,0,0,0,0,0,1390,18182,72075,141258.0,142157,182740,261685.0,331638.0,360919.0,367302.0,393049.0,391906.0
7633,8884,US,130485,36.5455555556,-96.3258333333,,Census,Town,OK,"Wynona, Oklahoma",0,0,0,0,0,0,0,0,0,0,0,0,0,2749,1171.0,810,678,652.0,547.0,780.0,531.0,531.0,437.0
7680,6675,US,130381,34.8727777778,-97.05,,Census,Town,OK,"Byars, Oklahoma",0,0,0,0,0,0,0,0,0,0,0,0,487,629,502.0,466,284,256.0,247.0,353.0,263.0,280.0,255.0
7684,7002,US,130622,36.6163888889,-101.190833333,,Census,Town,OK,"Hardesty, Oklahoma",0,0,0,0,0,0,0,0,0,0,0,0,0,0,0.0,0,201,187.0,223.0,243.0,228.0,277.0,212.0
7751,11225,US,130088,34.4819444444,-97.4644444444,,Census,Town,OK,"Tatums, Oklahoma",0,0,0,0,0,0,0,0,0,0,0,0,0,0,0.0,0,0,0.0,133.0,281.0,176.0,198.0,151.0
7762,15136,US,130446,35.4825,-97.2672222222,,Census,,OK,"Choctaw, Oklahoma",0,0,0,0,0,0,0,0,0,0,0,230,242,199,242.0,289,355,623.0,4750.0,7520.0,8545.0,9377.0,11146.0
7798,8811,US,130335,35.885,-97.6027777778,,Census,Town,OK,"Cimarron City, Oklahoma",0,0,0,0,0,0,0,0,0,0,0,0,0,0,0.0,0,0,0.0,0.0,0.0,71.0,110.0,150.0
7830,8781,US,130515,36.0175,-96.9038888889,,Census,Town,OK,"Ripley, Oklahoma",0,0,0,0,0,0,0,0,0,0,0,474,368,406,487.0,415,292,263.0,307.0,451.0,376.0,444.0,403.0
7848,22068,US,130613,34.5027777778,-97.9583333333,,Census,City,OK,"Duncan, Oklahoma",0,0,0,0,0,0,0,0,0,0,0,1164,2477,3463,8363.0,9207,15325,20009.0,19718.0,22517.0,21732.0,22505.0,23431.0
7882,6777,US,130531,35.1258333333,-95.3675,,Census,Town,OK,"Quinton, Oklahoma",0,0,0,0,0,0,0,0,0,0,0,0,697,1557,1804.0,1245,951,898.0,1262.0,1228.0,1133.0,1071.0,1051.0
7915,7282,US,130382,35.1058333333,-97.5730555556,,Census,Town,OK,"Cole, Oklahoma",0,0,0,0,0,0,0,0,0,0,0,0,0,0,0.0,0,0,0.0,131.0,309.0,355.0,473.0,555.0
7939,8524,US,130210,34.8175,-97.4102777778,,Census,Town,OK,"Maysville, Oklahoma",0,0,0,0,0,0,0,0,0,0,0,0,476,627,875.0,880,1294,1530.0,1380.0,1396.0,1203.0,1313.0,1232.0
7968,9645,US,130196,36.26,-97.6675,,Census,Town,OK,"Douglas, Oklahoma",0,0,0,0,0,0,0,0,0,0,0,0,132,195,163.0,140,114,74.0,79.0,89.0,55.0,32.0,32.0
8045,11943,US,130309,34.8891666667,-94.6041666667,,Census,City,OK,"Heavener, Oklahoma",0,0,0,0,0,0,0,0,0,0,0,234,780,1850,2269.0,2215,2103,1891.0,2566.0,2776.0,2601.0,3201.0,3414.0
8140,15351,US,150944,35.7263888889,-97.9761111111,,Census,Town,OK,"Okarche, Oklahoma",0,0,0,0,0,0,0,0,0,0,0,0,402,449,482.0,453,532,584.0,826.0,1000.0,1160.0,1110.0,1215.0
8142,12522,US,130354,34.0913888889,-96.7736111111,,Census,City,OK,"Madill, Oklahoma",0,0,0,0,0,0,0,0,0,0,0,0,1564,2717,2203.0,2594,2791,3084.0,2875.0,3173.0,3069.0,3410.0,3770.0
8143,9851,US,130029,36.6830555556,-98.4230555556,,Census,Town,OK,"Lambert, Oklahoma",0,0,0,0,0,0,0,0,0,0,0,0,127,130,116.0,99,55,21.0,16.0,20.0,11.0,9.0,6.0
8177,18912,US,150956,35.5094444444,-98.9741666667,,Census,City,OK,"Clinton, Oklahoma",0,0,0,0,0,0,0,0,0,0,0,0,2781,2596,7512.0,6736,7555,9617.0,10359.0,9730.0,9248.0,8833.0,9033.0
8226,7421,US,130251,34.9672222222,-96.2497222222,,Census,Town,OK,"Calvin, Oklahoma",0,0,0,0,0,0,0,0,0,0,0,0,570,700,626.0,589,557,331.0,359.0,315.0,251.0,279.0,294.0
8265,9769,US,130351,36.3888888889,-98.1775,,Census,Town,OK,"Meno, Oklahoma",0,0,0,0,0,0,0,0,0,0,0,0,69,92,96.0,180,76,118.0,119.0,171.0,155.0,195.0,235.0
8320,8211,US,130283,34.3744444444,-96.4225,,Census,Town,OK,"Wapanucka, Oklahoma",0,0,0,0,0,0,0,0,0,0,0,0,948,1038,553.0,730,592,459.0,425.0,472.0,402.0,445.0,438.0
8342,8062,US,130610,34.6305555556,-97.8352777778,,Census,Town,OK,"Bray, Oklahoma",0,0,0,0,0,0,0,0,0,0,0,0,0,0,0.0,0,0,0.0,0.0,591.0,925.0,1035.0,1209.0
8347,6955,US,130155,35.6637681,-98.8869234,,Census,Town,OK,"Custer City, Oklahoma",0,0,0,0,0,0,0,0,0,0,0,0,854,671,698.0,641,479,448.0,486.0,530.0,443.0,393.0,375.0
8366,31787,US,130448,35.65,-97.4666666667,,Census,City,OK,"Edmond, Oklahoma",0,0,0,0,0,0,0,0,0,0,294,965,2090,2452,3576.0,4002,6086,8577.0,16633.0,34637.0,52315.0,68315.0,81405.0
8388,25464,US,92050,36.37,-95.6,,Census,US County,OK,"Rogers County, Oklahoma",0,0,0,0,0,0,0,0,0,0,0,0,17736,17605,18956.0,21078,19532,20614.0,28425.0,46436.0,55170.0,70641.0,86905.0
8502,8477,US,130647,36.7961111111,-95.9361111111,,Census,City,OK,"Dewey, Oklahoma",0,0,0,0,0,0,0,0,0,0,0,0,1344,2302,2095.0,2114,2513,3994.0,3958.0,3545.0,3326.0,3179.0,3432.0
8517,7647,US,130205,36.4361111111,-97.8669444444,,Census,Town,OK,"North Enid, Oklahoma",0,0,0,0,0,0,0,0,0,0,0,205,128,95,165.0,166,219,286.0,730.0,992.0,874.0,796.0,860.0
8567,23587,US,92095,36.21,-99.75,,Census,US County,OK,"Ellis County, Oklahoma",0,0,0,0,0,0,0,0,0,0,0,0,15375,11673,10541.0,8466,7326,5427.0,5129.0,5596.0,4497.0,4075.0,4151.0
8576,24978,US,92075,35.91,-97.45,,Census,US County,OK,"Logan County, Oklahoma",0,0,0,0,0,0,0,0,0,0,0,26563,31740,27550,27761.0,25245,22170,18662.0,19645.0,26881.0,29011.0,33924.0,41848.0
8614,28096,US,130533,34.7636111111,-96.6683333333,,Census,City,OK,"Ada, Oklahoma",0,0,0,0,0,0,0,0,0,0,0,0,4349,8012,11261.0,15143,15995,14347.0,14859.0,15902.0,15820.0,15691.0,16810.0
8703,6754,US,130530,34.7127777778,-95.8511111111,,Census,Town,OK,"Pittsburg, Oklahoma",0,0,0,0,0,0,0,0,0,0,0,0,0,892,873.0,689,278,195.0,282.0,305.0,249.0,280.0,207.0
8709,6797,US,130123,34.5025,-96.2241666667,,Census,Town,OK,"Phillips, Oklahoma",0,0,0,0,0,0,0,0,0,0,0,0,680,972,176.0,212,181,91.0,106.0,178.0,161.0,150.0,135.0
8716,7318,US,130087,34.3044444444,-97.1363888889,,Census,Town,OK,"Springer, Oklahoma",0,0,0,0,0,0,0,0,0,0,0,0,0,0,0.0,0,0,212.0,256.0,679.0,485.0,204.0,700.0
8817,14093,US,3057539,36.9030555556,-102.963333333,,Census,Cdp,OK,"Kenton, Oklahoma",0,0,0,0,0,0,0,0,0,0,0,0,0,0,0.0,0,0,0.0,0.0,0.0,0.0,0.0,17.0
8898,7181,US,130128,34.8225,-98.2405555556,,Census,Town,OK,"Fletcher, Oklahoma",0,0,0,0,0,0,0,0,0,0,0,0,374,482,739.0,789,875,884.0,950.0,1074.0,1002.0,1022.0,1177.0
8899,6444,US,130391,33.8458333333,-94.6530555556,,Census,Town,OK,"Haworth, Oklahoma",0,0,0,0,0,0,0,0,0,0,0,0,0,400,276.0,232,254,351.0,293.0,341.0,293.0,354.0,297.0
8916,23726,US,92086,35.23,-95.11,,Census,US County,OK,"Haskell County, Oklahoma",0,0,0,0,0,0,0,0,0,0,0,0,18875,19397,16216.0,17324,13313,9121.0,9578.0,11010.0,10940.0,11792.0,12769.0
8968,13468,US,130032,34.3841666667,-96.1275,,Census,Town,OK,"Stringtown, Oklahoma",0,0,0,0,0,0,0,0,0,0,0,0,0,360,558.0,718,499,414.0,397.0,1047.0,366.0,396.0,410.0
9002,8132,US,130442,35.5072222222,-96.5686111111,,Census,Town,OK,"Paden, Oklahoma",0,0,0,0,0,0,0,0,0,0,0,0,419,600,595.0,620,426,417.0,442.0,448.0,400.0,446.0,461.0
9059,21773,US,92072,34.03,-96.77,,Census,US County,OK,"Marshall County, Oklahoma",0,0,0,0,0,0,0,0,0,0,0,0,11619,14674,11026.0,12384,8177,7263.0,7682.0,10550.0,10829.0,13184.0,15840.0
9065,14156,US,130117,35.1411111111,-97.3888888889,,Census,City,OK,"Noble, Oklahoma",0,0,0,0,0,0,0,0,0,0,0,349,403,497,463.0,536,724,995.0,2241.0,3497.0,4710.0,5260.0,6481.0
9089,9102,US,130409,35.6494444444,-95.6536111111,,Census,Town,OK,"Boynton, Oklahoma",0,0,0,0,0,0,0,0,0,0,0,0,679,1204,1204.0,842,718,604.0,522.0,518.0,391.0,274.0,248.0
9117,8408,US,130124,34.6030555556,-96.4205555556,,Census,City,OK,"Tupelo, Oklahoma",0,0,0,0,0,0,0,0,0,0,0,0,0,0,0.0,0,376,261.0,485.0,542.0,323.0,393.0,329.0
9140,6467,US,130631,34.3048947,-98.7712715,,Census,Town,OK,"Loveland, Oklahoma",0,0,0,0,0,0,0,0,0,0,0,0,0,191,106.0,101,96,90.0,36.0,21.0,13.0,14.0,13.0
9199,8767,US,130387,35.06,-97.485,,Census,Town,OK,"Washington, Oklahoma",0,0,0,0,0,0,0,0,0,0,0,0,0,336,400.0,359,292,278.0,322.0,477.0,279.0,520.0,618.0
9220,23540,US,92065,36.39,-97.24,,Census,US County,OK,"Noble County, Oklahoma",0,0,0,0,0,0,0,0,0,0,0,11798,14945,13560,15139.0,14826,12156,10376.0,10043.0,11573.0,11045.0,11411.0,11561.0
9260,15718,US,130392,33.8963888889,-94.8291666667,,Census,City,OK,"Idabel, Oklahoma",0,0,0,0,0,0,0,0,0,0,0,0,1493,3067,2581.0,3689,4671,4967.0,5946.0,7622.0,6957.0,7658.0,7010.0
9274,11216,US,130319,35.2413888889,-94.6208333333,,Census,Town,OK,"Spiro, Oklahoma",0,0,0,0,0,0,0,0,0,0,0,543,1173,1162,969.0,1041,1365,1450.0,2057.0,2221.0,2146.0,2227.0,2164.0
9291,12883,US,130433,36.6952777778,-95.6375,,Census,City,OK,"Nowata, Oklahoma",0,0,0,0,0,0,0,0,0,0,0,498,3672,4435,3531.0,3904,3965,4163.0,3679.0,4270.0,3896.0,3971.0,3731.0
9327,8555,US,130665,36.6991666667,-98.79,,Census,Unincorporated community,OK,"Avard, Oklahoma",0,0,0,0,0,0,0,0,0,0,0,0,170,147,212.0,126,96,56.0,59.0,51.0,37.0,26.0,0.0
9380,14777,US,130189,36.1344444444,-99.7708333333,,Census,Town,OK,"Arnett, Oklahoma",0,0,0,0,0,0,0,0,0,0,0,0,511,404,426.0,529,690,547.0,711.0,714.0,547.0,520.0,524.0
9400,45044,US,92043,36.12,-95.94,,Census,US County,OK,"Tulsa County, Oklahoma",0,0,0,0,0,0,0,0,0,0,0,0,34995,109023,187574.0,193363,251686,346038.0,401663.0,470593.0,503341.0,563299.0,603403.0
9462,20264,US,92046,34.48,-97.86,,Census,US County,OK,"Stephens County, Oklahoma",0,0,0,0,0,0,0,0,0,0,0,0,22252,24692,33069.0,31090,34071,37990.0,35902.0,43419.0,42299.0,43182.0,45048.0
9510,6387,US,130550,35.0927777778,-97.0916666667,,Census,Town,OK,"Tribbey, Oklahoma",0,0,0,0,0,0,0,0,0,0,0,0,0,0,0.0,0,0,0.0,0.0,215.0,288.0,3299.0,391.0
9562,15587,US,130478,36.4172222222,-96.3933333333,,Census,Town,OK,"Hominy, Oklahoma",0,0,0,0,0,0,0,0,0,0,0,0,760,2875,3485.0,3267,2702,2866.0,2274.0,3130.0,2342.0,2584.0,3565.0
9613,8634,US,130306,35.1358333333,-94.5355555556,,Census,Town,OK,"Cameron, Oklahoma",0,0,0,0,0,0,0,0,0,0,0,316,206,203,283.0,203,209,211.0,311.0,365.0,327.0,312.0,302.0
9649,26815,US,92078,34.87,-95.24,,Census,US County,OK,"Latimer County, Oklahoma",0,0,0,0,0,0,0,0,0,0,0,0,11321,13866,11184.0,12380,9690,7738.0,8601.0,9840.0,10333.0,10692.0,11154.0
9752,21009,US,92064,36.79,-95.62,,Census,US County,OK,"Nowata County, Oklahoma",0,0,0,0,0,0,0,0,0,0,0,0,14223,15899,13611.0,15774,12734,10848.0,9773.0,11486.0,9992.0,10569.0,10536.0
9758,23168,US,92080,35.94,-97.94,,Census,US County,OK,"Kingfisher County, Oklahoma",0,0,0,0,0,0,0,0,0,0,0,0,18825,15671,15960.0,15617,12860,10635.0,12857.0,14187.0,13212.0,13926.0,15034.0
9773,8907,US,130035,36.9075,-100.539166667,,Census,Town,OK,"Forgan, Oklahoma",0,0,0,0,0,0,0,0,0,0,0,0,0,582,605.0,428,410,532.0,496.0,611.0,489.0,532.0,547.0
9807,12369,US,130517,36.1147222222,-96.6983333333,,Census,City,OK,"Yale, Oklahoma",0,0,0,0,0,0,0,0,0,0,0,0,685,2601,1734.0,1407,1359,1369.0,1239.0,1652.0,1392.0,1342.0,1227.0
9883,9543,US,130644,35.8377777778,-95.4391666667,,Census,Town,OK,"Tullahassee, Oklahoma",0,0,0,0,0,0,0,0,0,0,0,0,0,189,164.0,200,209,199.0,183.0,145.0,92.0,448.0,106.0
9929,10574,US,130361,36.4775,-95.0202777778,,Census,Town,OK,"Disney, Oklahoma",0,0,0,0,0,0,0,0,0,0,0,0,0,0,0.0,0,0,224.0,303.0,464.0,257.0,226.0,311.0
9974,7247,US,130268,34.5469444444,-99.4230555556,,Census,Town,OK,"Olustee, Oklahoma",0,0,0,0,0,0,0,0,0,0,0,0,850,665,651.0,248,455,463.0,819.0,721.0,701.0,680.0,607.0
9994,13987,US,150946,35.7947222222,-95.2530555556,,Census,Town,OK,"Fort Gibson, Oklahoma",0,0,0,0,0,0,0,0,0,0,0,617,1344,1353,1159.0,1233,1496,1407.0,1418.0,2477.0,3359.0,4054.0,4154.0
10096,11781,US,130455,35.5458333333,-97.5422222222,,Census,City,OK,"Nichols Hills, Oklahoma",0,0,0,0,0,0,0,0,0,0,0,0,0,0,0.0,942,2606,4897.0,4478.0,4153.0,4020.0,4056.0,3710.0
10120,12225,US,130475,36.5713888889,-96.7063888889,,Census,Town,OK,"Fairfax, Oklahoma",0,0,0,0,0,0,0,0,0,0,0,0,819,1342,2134.0,2327,2017,2076.0,1889.0,1949.0,1749.0,1555.0,1380.0
10204,8090,US,130509,36.3808333333,-96.7038888889,,Census,Town,OK,"Skedee, Oklahoma",0,0,0,0,0,0,0,0,0,0,0,0,289,268,272.0,235,170,128.0,117.0,117.0,96.0,102.0,51.0
10230,15311,US,150972,36.1822222222,-95.7597222222,,Census,City,OK,"Catoosa, Oklahoma",0,0,0,0,0,0,0,0,0,0,0,241,404,363,264.0,405,438,638.0,970.0,1561.0,2954.0,5449.0,7159.0
10303,8025,US,130182,36.0177777778,-99.2872222222,,Census,Town,OK,"Camargo, Oklahoma",0,0,0,0,0,0,0,0,0,0,0,0,0,0,291.0,289,315,254.0,236.0,264.0,185.0,115.0,178.0
10306,25907,US,130116,35.3388888889,-97.4875,,Census,City,OK,"Moore, Oklahoma",0,0,0,0,0,0,0,0,0,0,0,129,225,254,538.0,499,942,1221.0,19761.0,35063.0,40318.0,41138.0,55081.0
10309,11792,US,150955,35.7591666667,-96.6522222222,,Census,City,OK,"Stroud, Oklahoma",0,0,0,0,0,0,0,0,0,0,0,800,1220,1361,1894.0,1917,2450,2456.0,2502.0,3148.0,2666.0,2758.0,2690.0
10390,10330,US,130203,36.5477777778,-97.8322222222,,Census,Town,OK,"Kremlin, Oklahoma",0,0,0,0,0,0,0,0,0,0,0,221,253,169,124.0,146,143,128.0,200.0,301.0,243.0,240.0,255.0
10411,15804,US,130034,36.8136111111,-100.524166667,,Census,Town,OK,"Beaver, Oklahoma",0,0,0,0,0,0,0,0,0,0,0,112,326,920,1028.0,1166,1495,2087.0,1853.0,1939.0,1584.0,1570.0,1515.0
10512,20702,US,92088,34.74,-99.84,,Census,US County,OK,"Harmon County, Oklahoma",0,0,0,0,0,0,0,0,0,0,0,0,11328,11261,13834.0,10019,8079,5853.0,5136.0,4519.0,3793.0,3283.0,2922.0
10521,11590,US,130054,33.9341666667,-96.4283333333,,Census,Town,OK,"Calera, Oklahoma",0,0,0,0,0,0,0,0,0,0,0,575,575,703,503.0,597,643,592.0,1063.0,1390.0,1536.0,1739.0,2164.0
10603,7062,US,130626,36.9544444444,-101.0675,,Census,Town,OK,"Tyrone, Oklahoma",0,0,0,0,0,0,0,0,0,0,0,0,0,0,482.0,257,261,456.0,588.0,928.0,880.0,880.0,762.0
10620,11794,US,130291,36.1080555556,-97.8983333333,,Census,Town,OK,"Hennessey, Oklahoma",0,0,0,0,0,0,0,0,0,0,0,1367,1665,1310,1271.0,1342,1264,1228.0,2181.0,2287.0,1902.0,2058.0,2131.0
10644,11599,US,130443,35.3455555556,-96.1347222222,,Census,Town,OK,"Weleetka, Oklahoma",0,0,0,0,0,0,0,0,0,0,0,0,1229,1588,2042.0,1904,1548,1231.0,1199.0,1195.0,1112.0,1014.0,998.0
10653,21900,US,92054,34.72,-96.69,,Census,US County,OK,"Pontotoc County, Oklahoma",0,0,0,0,0,0,0,0,0,0,0,0,24331,30949,32469.0,39792,30875,28089.0,27867.0,32598.0,34119.0,35143.0,37492.0
10654,12143,US,130562,36.5355555556,-95.4313888889,,Census,Town,OK,"Chelsea, Oklahoma",0,0,0,0,0,0,0,0,0,0,0,566,1350,1692,1527.0,1642,1437,1541.0,1622.0,1754.0,1620.0,2136.0,1964.0
10701,13550,US,130036,36.8519444444,-100.055833333,,Census,Town,OK,"Gate, Oklahoma",0,0,0,0,0,0,0,0,0,0,0,0,958,309,307.0,243,197,130.0,151.0,146.0,159.0,112.0,93.0
10737,9776,US,130200,36.4366666667,-97.5819444444,,Census,City,OK,"Garber, Oklahoma",0,0,0,0,0,0,0,0,0,0,0,0,382,1446,1356.0,1086,957,905.0,1101.0,992.0,959.0,845.0,822.0
10749,7833,US,130453,35.6605555556,-97.1913888889,,Census,Town,OK,"Luther, Oklahoma",0,0,0,0,0,0,0,0,0,0,0,0,310,601,613.0,425,409,517.0,836.0,1159.0,1560.0,612.0,1221.0
10757,28889,US,130563,36.3152777778,-95.6127777778,,Census,City,OK,"Claremore, Oklahoma",0,0,0,0,0,0,0,0,0,0,0,855,2866,3435,3720.0,4134,5494,6639.0,9084.0,12085.0,13280.0,15873.0,18581.0
10776,6341,US,130452,35.5316666667,-97.4483333333,,Census,Town,OK,"Lake Aluma, Oklahoma",0,0,0,0,0,0,0,0,0,0,0,0,0,0,0.0,0,0,82.0,124.0,101.0,96.0,97.0,88.0
10982,8673,US,130112,36.8075,-102.251944444,,Census,Town,OK,"Keyes, Oklahoma",0,0,0,0,0,0,0,0,0,0,0,0,0,0,350.0,227,431,627.0,569.0,557.0,454.0,410.0,324.0
10997,34868,US,130512,35.9825,-96.7641666667,,Census,City,OK,"Cushing, Oklahoma",0,0,0,0,0,0,0,0,0,0,0,226,1072,6326,9301.0,7703,8414,8619.0,7529.0,7720.0,7218.0,8371.0,7826.0
11043,21239,US,130399,35.2919444444,-95.5866666667,,Census,City,OK,"Eufaula, Oklahoma",0,0,0,0,0,0,0,0,0,0,0,757,1307,2286,2073.0,2355,2540,2382.0,2355.0,3159.0,2652.0,2639.0,2813.0
11092,6232,US,130470,35.5136111111,-95.9563888889,,Census,Town,OK,"Schulter, Oklahoma",0,0,0,0,0,0,0,0,0,0,0,0,0,0,0.0,0,0,0.0,0.0,0.0,0.0,600.0,509.0
11143,32017,US,130539,34.9886111111,-96.9266666667,,Census,Town,OK,"Asher, Oklahoma",0,0,0,0,0,0,0,0,0,0,0,0,381,370,653.0,507,420,343.0,437.0,659.0,449.0,419.0,393.0
11177,10102,US,130170,36.5886111111,-94.7830555556,,Census,City,OK,"Grove, Oklahoma",0,0,0,0,0,0,0,0,0,0,0,314,888,869,804.0,1093,928,975.0,2000.0,3378.0,4020.0,5131.0,6623.0
11290,9196,US,130072,35.0994444444,-98.4386111111,,Census,Town,OK,"Fort Cobb, Oklahoma",0,0,0,0,0,0,0,0,0,0,0,0,382,546,827.0,699,665,687.0,722.0,760.0,663.0,667.0,634.0
11406,192814,US,22489,,,,Census,US State,OK,Oklahoma,0,0,0,0,0,0,0,0,0,0,258657,790391,1657155,2028283,2396040.0,2336434,2233351,2328284.0,2559229.0,3025290.0,3145585.0,3450654.0,3751351.0
11436,34522,US,130081,34.1811111111,-97.1294444444,,Census,City,OK,"Ardmore, Oklahoma",0,0,0,0,0,0,0,0,0,0,0,5681,8618,14181,15741.0,16886,17890,20184.0,20881.0,23689.0,23079.0,23711.0,24283.0
11440,7785,US,130024,36.5794444444,-98.4594444444,,Census,Town,OK,"Carmen, Oklahoma",0,0,0,0,0,0,0,0,0,0,0,0,883,792,904.0,818,654,533.0,519.0,516.0,459.0,411.0,355.0
11541,20148,US,92049,35.17,-96.61,,Census,US County,OK,"Seminole County, Oklahoma",0,0,0,0,0,0,0,0,0,0,0,0,19964,23808,79621.0,61201,40672,28066.0,25144.0,27473.0,25412.0,24894.0,25482.0
11661,8999,US,130304,35.3494444444,-94.4375,,Census,Town,OK,"Arkoma, Oklahoma",0,0,0,0,0,0,0,0,0,0,0,0,0,0,0.0,0,1691,1862.0,2098.0,2175.0,2393.0,2180.0,1989.0
11786,14091,US,130014,35.8152777778,-94.6313888889,,Census,City,OK,"Stilwell, Oklahoma",0,0,0,0,0,0,0,0,0,0,0,779,1039,1155,1366.0,1717,1813,1916.0,2134.0,2369.0,2663.0,3965.0,3949.0
11799,21714,US,92087,36.78,-99.65,,Census,US County,OK,"Harper County, Oklahoma",0,0,0,0,0,0,0,0,0,0,0,0,8189,7623,7761.0,6454,5777,5956.0,5151.0,4715.0,4063.0,3562.0,3685.0
11814,10217,US,130347,33.7958333333,-97.1436111111,,Census,Town,OK,"Thackerville, Oklahoma",0,0,0,0,0,0,0,0,0,0,0,0,0,210,185.0,207,178,185.0,257.0,431.0,290.0,404.0,445.0
11891,23394,US,92040,35.29,-98.99,,Census,US County,OK,"Washita County, Oklahoma",0,0,0,0,0,0,0,0,0,0,0,0,25034,22237,29435.0,22279,17657,18121.0,12141.0,13798.0,11441.0,11508.0,11629.0
11899,6436,US,130229,36.9933333333,-98.0366666667,,Census,Town,OK,"Manchester, Oklahoma",0,0,0,0,0,0,0,0,0,0,0,158,271,237,281.0,269,190,162.0,165.0,146.0,106.0,104.0,103.0
11943,8434,US,130186,36.149,-98.925,,Census,City,OK,"Seiling, Oklahoma",0,0,0,0,0,0,0,0,0,0,0,0,352,323,568.0,629,70,910.0,1033.0,1103.0,1031.0,875.0,860.0
11958,6857,US,130238,34.6691666667,-99.7730555556,,Census,Town,OK,"Gould, Oklahoma",0,0,0,0,0,0,0,0,0,0,0,0,0,228,367.0,391,303,241.0,368.0,318.0,237.0,206.0,141.0
11971,8628,US,130192,36.2725,-99.8761111111,,Census,Town,OK,"Shattuck, Oklahoma",0,0,0,0,0,0,0,0,0,0,0,0,1231,1365,1490.0,1275,1692,1625.0,1546.0,1759.0,1454.0,1274.0,1356.0
12004,8335,US,130245,35.1208333333,-95.2386111111,,Census,Town,OK,"Kinta, Oklahoma",0,0,0,0,0,0,0,0,0,0,0,0,0,393,259.0,221,283,233.0,247.0,303.0,233.0,243.0,297.0
12012,7494,US,130520,35.175,-95.655,,Census,Town,OK,"Canadian, Oklahoma",0,0,0,0,0,0,0,0,0,0,0,522,481,373,295.0,385,277,255.0,304.0,279.0,261.0,239.0,220.0
12036,6872,US,130667,36.66,-98.5641666667,,Census,Town,OK,"Dacoma, Oklahoma",0,0,0,0,0,0,0,0,0,0,0,0,146,265,332.0,274,256,219.0,226.0,226.0,182.0,148.0,107.0
12152,8936,US,130360,36.1869444444,-95.3383333333,,Census,Town,OK,"Chouteau, Oklahoma",0,0,0,0,0,0,0,0,0,0,0,0,483,541,430.0,400,658,958.0,1046.0,1559.0,1771.0,1931.0,2097.0
12170,7131,US,130263,34.6630555556,-99.5697222222,,Census,Town,OK,"East Duke, Oklahoma",0,0,0,0,0,0,0,0,0,0,0,0,0,502,543.0,0,0,0.0,0.0,0.0,0.0,445.0,424.0
12201,8713,US,130484,36.8072222222,-96.7091666667,,Census,Town,OK,"Webb City, Oklahoma",0,0,0,0,0,0,0,0,0,0,0,0,0,0,493.0,352,284,233.0,186.0,157.0,99.0,95.0,62.0
12289,16064,US,130062,35.0691666667,-98.2461111111,,Census,City,OK,"Anadarko, Oklahoma",0,0,0,0,0,0,0,0,0,0,0,0,3439,3116,5036.0,5579,6184,6299.0,6682.0,6378.0,6586.0,6645.0,6762.0
12302,9888,US,130038,35.2180555556,-99.505,,Census,Town,OK,"Carter, Oklahoma",0,0,0,0,0,0,0,0,0,0,0,0,265,389,642.0,535,406,364.0,311.0,367.0,286.0,254.0,256.0
12313,7401,US,130449,35.5072222222,-97.4513888889,,Census,Town,OK,"Forest Park, Oklahoma",0,0,0,0,0,0,0,0,0,0,0,0,0,0,0.0,0,0,766.0,835.0,1148.0,1249.0,1066.0,998.0
12345,11319,US,130172,36.2025,-94.795,,Census,Town,OK,"Kansas, Oklahoma",0,0,0,0,0,0,0,0,0,0,0,0,0,154,163.0,0,0,0.0,317.0,491.0,556.0,685.0,802.0
12346,50098,US,92052,34.42,-95.36,,Census,US County,OK,"Pushmataha County, Oklahoma",0,0,0,0,0,0,0,0,0,0,0,0,10118,17514,14744.0,19466,12001,9088.0,9385.0,11773.0,10997.0,11667.0,11572.0
12351,8046,US,130321,34.9683333333,-94.7230555556,,Census,Town,OK,"Wister, Oklahoma",0,0,0,0,0,0,0,0,0,0,0,313,498,586,761.0,763,729,592.0,927.0,982.0,956.0,1002.0,1102.0
12371,24222,US,92119,35.88,-94.66,,Census,US County,OK,"Adair County, Oklahoma",0,0,0,0,0,0,0,0,0,0,0,0,10535,13703,14756.0,15755,14918,13112.0,15141.0,18575.0,18421.0,21038.0,22683.0
12391,9139,US,130146,35.9438888889,-96.0594444444,,Census,Town,OK,"Kiefer, Oklahoma",0,0,0,0,0,0,0,0,0,0,0,0,1197,1663,606.0,330,275,489.0,803.0,912.0,962.0,1026.0,1685.0
12466,24047,US,92059,,,,Census,US County,OK,"Ottawa County, Oklahoma",0,0,0,0,0,0,0,0,0,0,0,0,15713,41108,38542.0,35849,32218,28301.0,29800.0,32870.0,30561.0,33194.0,31848.0
12588,8464,US,130590,35.3872222222,-94.6938888889,,Census,Town,OK,"Gans, Oklahoma",0,0,0,0,0,0,0,0,0,0,0,136,351,295,204.0,0,0,234.0,238.0,346.0,218.0,208.0,312.0
12718,5950,US,130233,36.9252777778,-97.6555555556,,Census,Town,OK,"Renfrow, Oklahoma",0,0,0,0,0,0,0,0,0,0,0,129,207,132,125.0,115,68,38.0,39.0,27.0,19.0,16.0,12.0
12754,16666,US,130111,36.73,-102.511388889,,Census,City,OK,"Boise City, Oklahoma",0,0,0,0,0,0,0,0,0,0,0,0,0,0,1256.0,1144,1902,1978.0,1993.0,1761.0,1509.0,1483.0,1266.0
12840,6562,US,130331,35.8725,-96.9630555556,,Census,Town,OK,"Tryon, Oklahoma",0,0,0,0,0,0,0,0,0,0,0,0,176,225,299.0,279,285,254.0,301.0,435.0,514.0,273.0,491.0
12916,7611,US,130195,36.3075,-97.5883333333,,Census,Town,OK,"Covington, Oklahoma",0,0,0,0,0,0,0,0,0,0,0,0,183,1283,927.0,780,769,687.0,605.0,715.0,590.0,553.0,527.0
12924,14344,US,130523,34.8452777778,-95.5591666667,,Census,City,OK,"Hartshorne, Oklahoma",0,0,0,0,0,0,0,0,0,0,0,2352,2963,3480,3587.0,2596,2330,1903.0,2121.0,2380.0,2120.0,2102.0,2125.0
12940,13419,US,130481,36.6691666667,-96.3330555556,,Census,City,OK,"Pawhuska, Oklahoma",0,0,0,0,0,0,0,0,0,0,0,0,2776,6414,5931.0,5443,5331,5414.0,4278.0,4771.0,3825.0,3629.0,3584.0
12956,9245,US,130514,35.9766666667,-97.0319444444,,Census,City,OK,"Perkins, Oklahoma",0,0,0,0,0,0,0,0,0,0,0,719,603,608,606.0,728,706,769.0,1029.0,1762.0,1925.0,2272.0,2831.0
12975,8651,US,130050,34.0525,-96.3441666667,,Census,Town,OK,"Armstrong, Oklahoma",0,0,0,0,0,0,0,0,0,0,0,0,0,0,0.0,0,0,0.0,0.0,0.0,122.0,141.0,105.0
12983,15715,US,130219,35.3155555556,-97.9458333333,,Census,City,OK,"Minco, Oklahoma",0,0,0,0,0,0,0,0,0,0,0,0,706,606,962.0,921,978,1021.0,1129.0,1489.0,1411.0,1672.0,1632.0
13004,7282,US,130255,35.0838888889,-96.2497222222,,Census,Town,OK,"Horntown, Oklahoma",0,0,0,0,0,0,0,0,0,0,0,0,0,0,0.0,0,0,0.0,0.0,0.0,0.0,61.0,97.0
13040,8197,US,130482,36.2497222222,-96.2675,,Census,Town,OK,"Prue, Oklahoma",0,0,0,0,0,0,0,0,0,0,0,0,0,0,0.0,0,0,0.0,271.0,554.0,346.0,433.0,465.0
13055,6519,US,130267,34.7255555556,-99.3863888889,,Census,Town,OK,"Martha, Oklahoma",0,0,0,0,0,0,0,0,0,0,0,0,0,0,327.0,242,222,243.0,268.0,219.0,217.0,205.0,162.0
13082,19238,US,130324,35.7091666667,-96.8897222222,,Census,City,OK,"Chandler, Oklahoma",0,0,0,0,0,0,0,0,0,0,0,1430,2024,2226,2717.0,2738,2724,2524.0,2529.0,2926.0,2596.0,2842.0,3100.0
13106,9446,US,130326,35.7494444444,-97.1216666667,,Census,Town,OK,"Fallis, Oklahoma",0,0,0,0,0,0,0,0,0,0,0,0,248,239,173.0,137,105,42.0,39.0,22.0,49.0,28.0,27.0
13167,17433,US,130428,36.2913888889,-97.2911111111,,Census,City,OK,"Perry, Oklahoma",0,0,0,0,0,0,0,0,0,0,0,3351,3133,3154,4206.0,5045,5137,5210.0,5341.0,5796.0,4978.0,5230.0,5126.0
13175,22508,US,92074,33.95,-97.25,,Census,US County,OK,"Love County, Oklahoma",0,0,0,0,0,0,0,0,0,0,0,0,10236,12433,9639.0,11433,7721,5862.0,5637.0,7469.0,8157.0,8831.0,9423.0
13322,8208,US,130109,34.0333333333,-95.6966666667,,Census,Town,OK,"Soper, Oklahoma",0,0,0,0,0,0,0,0,0,0,0,0,233,538,417.0,481,337,309.0,322.0,465.0,305.0,300.0,261.0
13339,43991,US,130547,35.3425,-96.9338888889,,Census,City,OK,"Shawnee, Oklahoma",0,0,0,0,0,0,0,0,0,0,0,3462,12474,15348,23283.0,22053,22948,24326.0,25075.0,26506.0,26017.0,28692.0,29857.0
13349,7044,US,130325,35.7075,-96.7644444444,,Census,Town,OK,"Davenport, Oklahoma",0,0,0,0,0,0,0,0,0,0,0,0,394,440,1072.0,975,841,813.0,831.0,974.0,979.0,881.0,814.0
13383,23893,US,92048,,,,Census,US County,OK,"Sequoyah County, Oklahoma",0,0,0,0,0,0,0,0,0,0,0,0,25005,26786,19505.0,23138,19773,18001.0,23370.0,30749.0,33828.0,38972.0,42391.0
13387,6853,US,130407,34.5594444444,-96.8569444444,,Census,Town,OK,"Hickory, Oklahoma",0,0,0,0,0,0,0,0,0,0,0,262,350,359,157.0,224,112,112.0,62.0,95.0,77.0,87.0,71.0
13404,21541,US,130261,34.6438888889,-99.3266666667,,Census,City,OK,"Altus, Oklahoma",0,0,0,0,0,0,0,0,0,0,0,0,4821,4522,8439.0,8593,9735,21225.0,23302.0,23101.0,21910.0,21447.0,19813.0
13435,8905,US,130500,36.3063888889,-96.4647222222,,Census,City,OK,"Cleveland, Oklahoma",0,0,0,0,0,0,0,0,0,0,0,211,1310,2717,2959.0,2510,2464,2519.0,2573.0,2972.0,3156.0,3282.0,3251.0
13440,22458,US,150949,35.0175,-97.3694444444,,Census,City,OK,"Purcell, Oklahoma",0,0,0,0,0,0,0,0,0,0,0,2277,2740,2938,2817.0,3116,3546,3729.0,4076.0,4638.0,4784.0,5571.0,5884.0
13519,25165,US,92117,34.38,-96.05,,Census,US County,OK,"Atoka County, Oklahoma",0,0,0,0,0,0,0,0,0,0,0,0,13808,20862,14533.0,18702,14269,10352.0,10972.0,12748.0,12778.0,13879.0,14182.0
13542,7049,US,130045,35.9675,-98.3491666667,,Census,Town,OK,"Hitchcock, Oklahoma",0,0,0,0,0,0,0,0,0,0,0,0,275,281,246.0,222,166,134.0,160.0,172.0,139.0,141.0,121.0
13563,12614,US,130028,36.6661111111,-98.1811111111,,Census,Town,OK,"Jet, Oklahoma",0,0,0,0,0,0,0,0,0,0,0,0,365,370,389.0,442,371,339.0,317.0,352.0,272.0,230.0,213.0
13686,9412,US,130241,36.7080555556,-99.8972222222,,Census,Town,OK,"Laverne, Oklahoma",0,0,0,0,0,0,0,0,0,0,0,0,0,476,903.0,816,1269,1937.0,1337.0,1563.0,1269.0,1097.0,1344.0
13782,9677,US,130476,36.8725,-96.5655555556,,Census,Town,OK,"Foraker, Oklahoma",0,0,0,0,0,0,0,0,0,0,0,0,415,394,310.0,222,105,74.0,52.0,34.0,25.0,23.0,19.0
13924,10334,US,130342,36.0652777778,-97.405,,Census,Town,OK,"Mulhall, Oklahoma",0,0,0,0,0,0,0,0,0,0,0,564,441,385,374.0,406,320,253.0,250.0,301.0,199.0,239.0,225.0
14068,8037,US,130415,35.3583333333,-95.2658333333,,Census,Town,OK,"Porum, Oklahoma",0,0,0,0,0,0,0,0,0,0,0,0,548,533,471.0,502,616,573.0,658.0,668.0,851.0,725.0,727.0
14140,7110,US,130507,36.5027777778,-96.7336111111,,Census,Town,OK,"Ralston, Oklahoma",0,0,0,0,0,0,0,0,0,0,0,0,597,703,725.0,621,416,411.0,443.0,495.0,405.0,355.0,330.0
14216,7282,US,130404,35.3688888889,-95.7008333333,,Census,Town,OK,"Stidham, Oklahoma",0,0,0,0,0,0,0,0,0,0,0,0,116,62,93.0,103,46,88.0,53.0,60.0,48.0,23.0,18.0
14300,11162,US,130053,34.1266666667,-96.2655555556,,Census,Town,OK,"Caddo, Oklahoma",0,0,0,0,0,0,0,0,0,0,0,930,1143,1421,933.0,954,895,814.0,886.0,923.0,918.0,944.0,997.0
14303,10701,US,130666,36.8963888889,-98.5783333333,,Census,Inactive town,OK,"Capron, Oklahoma",0,0,0,0,0,0,0,0,0,0,0,0,196,184,155.0,147,100,102.0,80.0,54.0,38.0,42.0,23.0
14323,6195,US,130673,36.2763888889,-99.3386111111,,Census,Town,OK,"Sharon, Oklahoma",0,0,0,0,0,0,0,0,0,0,0,0,0,0,227.0,226,133,97.0,155.0,171.0,108.0,122.0,135.0
14390,8741,US,130498,36.7947222222,-94.7236111111,,Census,Town,OK,"Wyandotte, Oklahoma",0,0,0,0,0,0,0,0,0,0,0,224,255,274,271.0,348,242,226.0,297.0,336.0,356.0,363.0,333.0
14418,9853,US,130127,34.4583333333,-98.5797222222,,Census,Town,OK,"Faxon, Oklahoma",0,0,0,0,0,0,0,0,0,0,0,0,215,163,212.0,178,135,137.0,121.0,140.0,127.0,134.0,136.0
14444,9566,US,130643,35.8886111111,-95.5883333333,,Census,Town,OK,"Redbird, Oklahoma",0,0,0,0,0,0,0,0,0,0,0,0,0,336,218.0,393,411,310.0,230.0,199.0,166.0,153.0,137.0
14451,9598,US,130400,35.2041666667,-95.8894444444,,Census,Town,OK,"Hanna, Oklahoma",0,0,0,0,0,0,0,0,0,0,0,0,0,460,360.0,344,325,233.0,181.0,157.0,99.0,133.0,138.0
14477,7052,US,130480,36.2938888889,-96.4177777778,,Census,Town,OK,"Osage, Oklahoma",0,0,0,0,0,0,0,0,0,0,0,0,0,757,627.0,628,425,220.0,170.0,243.0,163.0,188.0,156.0
14536,12446,US,130373,36.2925,-95.1525,,Census,Town,OK,"Salina, Oklahoma",0,0,0,0,0,0,0,0,0,0,0,0,0,411,582.0,687,905,972.0,1024.0,1115.0,1153.0,1422.0,1396.0
14562,7963,US,130322,35.8941666667,-96.8708333333,,Census,Town,OK,"Agra, Oklahoma",0,0,0,0,0,0,0,0,0,0,0,0,366,272,258.0,281,302,265.0,335.0,354.0,334.0,356.0,339.0
14630,12762,US,150942,35.6294444444,-98.3180555556,,Census,City,OK,"Geary, Oklahoma",0,0,0,0,0,0,0,0,0,0,0,0,1452,1167,1892.0,1634,1614,1416.0,1380.0,1700.0,1347.0,1258.0,1280.0
14645,11856,US,150952,35.9880555556,-96.6005555556,,Census,City,OK,"Drumright, Oklahoma",0,0,0,0,0,0,0,0,0,0,0,0,0,6460,4972.0,4303,5028,4029.0,2740.0,3278.0,2799.0,2905.0,2907.0
14686,7122,US,130502,36.1805555556,-96.5697222222,,Census,Town,OK,"Jennings, Oklahoma",0,0,0,0,0,0,0,0,0,0,0,0,361,910,653.0,453,338,306.0,338.0,395.0,381.0,373.0,363.0
14701,11933,US,130209,34.8372222222,-97.6075,,Census,City,OK,"Lindsay, Oklahoma",0,0,0,0,0,0,0,0,0,0,0,0,1156,1543,1713.0,1792,3021,4258.0,3705.0,3454.0,2947.0,2889.0,2840.0
14869,7844,US,130349,36.4047222222,-98.4411111111,,Census,Town,OK,"Cleo Springs, Oklahoma",0,0,0,0,0,0,0,0,0,0,0,0,425,377,356.0,386,310,236.0,344.0,514.0,359.0,326.0,338.0
14923,14244,US,130424,35.51,-95.1466666667,,Census,Town,OK,"Webbers Falls, Oklahoma",0,0,0,0,0,0,0,0,0,0,0,211,380,480,415.0,486,489,441.0,485.0,461.0,722.0,726.0,616.0
14949,9885,US,130153,,,,Census,Town,OK,"Arapaho, Oklahoma",0,0,0,0,0,0,0,0,0,0,0,253,713,326,414.0,401,311,351.0,531.0,851.0,802.0,748.0,796.0
14954,6249,US,130237,35.0525,-99.5094444444,,Census,Town,OK,"Willow, Oklahoma",0,0,0,0,0,0,0,0,0,0,0,0,0,286,347.0,248,223,187.0,188.0,162.0,142.0,114.0,149.0
14960,11874,US,130042,35.2197222222,-99.9922222222,,Census,Town,OK,"Texola, Oklahoma",0,0,0,0,0,0,0,0,0,0,0,0,361,298,581.0,337,265,202.0,144.0,106.0,45.0,47.0,36.0
14979,8267,US,130411,35.5552777778,-95.6519444444,,Census,Town,OK,"Council Hill, Oklahoma",0,0,0,0,0,0,0,0,0,0,0,0,0,206,196.0,171,166,130.0,135.0,141.0,139.0,129.0,158.0
15042,8020,US,130180,36.1780555556,-94.5958333333,,Census,Town,OK,"West Siloam Springs, Oklahoma",0,0,0,0,0,0,0,0,0,0,0,0,0,0,0.0,0,0,0.0,210.0,431.0,539.0,877.0,846.0
15144,8293,US,130259,35.2388888889,-96.2397222222,,Census,City,OK,"Wetumka, Oklahoma",0,0,0,0,0,0,0,0,0,0,0,0,231,1422,2153.0,2340,2025,1798.0,1687.0,1725.0,1427.0,1451.0,1282.0
15205,8428,US,130648,36.6002777778,-95.9805555556,,Census,Town,OK,"Ochelata, Oklahoma",0,0,0,0,0,0,0,0,0,0,0,0,550,419,335.0,333,357,312.0,330.0,480.0,441.0,494.0,424.0
15330,7095,US,130108,34.0127777778,-95.3722222222,,Census,Town,OK,"Sawyer, Oklahoma",0,0,0,0,0,0,0,0,0,0,0,0,0,0,0.0,0,0,0.0,0.0,0.0,0.0,274.0,321.0
15400,11560,US,130049,33.8347222222,-96.3902777778,,Census,Town,OK,"Achille, Oklahoma",0,0,0,0,0,0,0,0,0,0,0,0,0,500,383.0,356,383,294.0,382.0,0.0,0.0,506.0,492.0
15430,9937,US,130265,34.48,-99.3527777778,,Census,Town,OK,"Elmer, Oklahoma",0,0,0,0,0,0,0,0,0,0,0,0,0,0,288.0,249,145,120.0,138.0,131.0,132.0,94.0,96.0
15438,11053,US,130397,35.4719444444,-95.5238888889,,Census,Town,OK,"Checotah, Oklahoma",0,0,0,0,0,0,0,0,0,0,0,805,1683,2390,2110.0,2126,2638,2614.0,3074.0,3454.0,3290.0,3481.0,3335.0
15461,10639,US,130336,35.9541666667,-97.2363888889,,Census,Town,OK,"Coyle, Oklahoma",0,0,0,0,0,0,0,0,0,0,0,0,413,408,421.0,440,360,292.0,303.0,345.0,289.0,337.0,325.0
15523,10388,US,130655,35.3561111111,-99.1761111111,,Census,Town,OK,"Burns Flat, Oklahoma",0,0,0,0,0,0,0,0,0,0,0,0,0,0,0.0,0,0,2280.0,988.0,2431.0,1027.0,1782.0,2057.0
15550,24230,US,92092,35.02,-97.89,,Census,US County,OK,"Grady County, Oklahoma",0,0,0,0,0,0,0,0,0,0,0,0,30309,33943,47638.0,41116,34872,29590.0,29354.0,39490.0,41747.0,45516.0,52431.0
15671,21535,US,130025,36.7544444444,-98.3566666667,,Census,City,OK,"Cherokee, Oklahoma",0,0,0,0,0,0,0,0,0,0,0,0,2016,2017,2236.0,2553,2635,2410.0,2119.0,2105.0,1787.0,1630.0,1498.0
15724,22738,US,92038,36.42,-99.26,,Census,US County,OK,"Woodward County, Oklahoma",0,0,0,0,0,0,0,0,0,0,0,0,16592,14663,15844.0,16270,14383,13902.0,15537.0,21172.0,18976.0,18486.0,20081.0
15768,9867,US,130148,35.8761111111,-96.06,,Census,Town,OK,"Mounds, Oklahoma",0,0,0,0,0,0,0,0,0,0,0,0,701,1078,740.0,627,560,674.0,766.0,1086.0,980.0,1153.0,1168.0
15775,27803,US,92070,35.0,-97.44,,Census,US County,OK,"McClain County, Oklahoma",0,0,0,0,0,0,0,0,0,0,0,0,15659,19326,21575.0,19205,14681,12740.0,14157.0,20291.0,22795.0,27740.0,34506.0
15824,10830,US,130549,35.2622222222,-96.9347222222,,Census,City,OK,"Tecumseh, Oklahoma",0,0,0,0,0,0,0,0,0,0,0,1193,1626,1429,2419.0,2042,2275,2630.0,4451.0,5123.0,5750.0,6098.0,6457.0
15865,26177,US,130039,35.4027777778,-99.4238888889,,Census,City,OK,"Elk City, Oklahoma",0,0,0,0,0,0,0,0,0,0,0,0,3165,2814,5666.0,5029,7963,8196.0,7323.0,9569.0,10428.0,10510.0,11693.0
15876,10764,US,130348,36.2466666667,-98.1866666667,,Census,Town,OK,"Ames, Oklahoma",0,0,0,0,0,0,0,0,0,0,0,0,0,278,290.0,332,263,211.0,227.0,314.0,268.0,199.0,239.0
15901,67544,US,130131,34.6041666667,-98.3955555556,,Census,City,OK,"Lawton, Oklahoma",0,0,0,0,0,0,0,0,0,0,0,0,7788,8930,12121.0,18055,34757,61697.0,74470.0,80054.0,80561.0,92757.0,96867.0
15908,8861,US,130018,35.9913888889,-94.5711111111,,Census,Town,OK,"Westville, Oklahoma",0,0,0,0,0,0,0,0,0,0,0,296,802,956,691.0,716,781,727.0,934.0,1049.0,1374.0,1596.0,1639.0
15924,7316,US,130071,35.3053997,-98.5560624,,Census,Town,OK,"Eakly, Oklahoma",0,0,0,0,0,0,0,0,0,0,0,0,0,0,0.0,231,191,217.0,228.0,452.0,277.0,276.0,338.0
15939,11015,US,130022,36.9,-98.4227777778,,Census,Town,OK,"Burlington, Oklahoma",0,0,0,0,0,0,0,0,0,0,0,0,135,169,166.0,177,181,174.0,165.0,206.0,169.0,156.0,152.0
16025,13488,US,130645,35.9555555556,-95.3780555556,,Census,City,OK,"Wagoner, Oklahoma",0,0,0,0,0,0,0,0,0,0,0,2372,4018,3436,2994.0,3535,4395,4469.0,4959.0,6191.0,6894.0,7669.0,8323.0
16040,10848,US,130276,34.17,-98.0013888889,,Census,City,OK,"Waurika, Oklahoma",0,0,0,0,0,0,0,0,0,0,0,0,2928,3204,2368.0,2458,2327,1933.0,1833.0,2369.0,2088.0,2158.0,2064.0
16084,7006,US,130133,34.7494444444,-98.1694444444,,Census,Town,OK,"Sterling, Oklahoma",0,0,0,0,0,0,0,0,0,0,0,0,276,265,361.0,430,447,562.0,675.0,702.0,684.0,577.0,793.0
16107,23623,US,92105,35.2,-97.33,,Census,US County,OK,"Cleveland County, Oklahoma",0,0,0,0,0,0,0,0,0,0,6605,16388,18843,19389,24948.0,27728,41443,47600.0,81839.0,133173.0,174253.0,208016.0,255755.0
16127,17447,US,130212,34.7413888889,-97.2205555556,,Census,City,OK,"Pauls Valley, Oklahoma",0,0,0,0,0,0,0,0,0,0,0,1467,2689,3694,4235.0,5104,6896,6856.0,5769.0,5664.0,6150.0,6256.0,6187.0
16132,6969,US,130600,35.6238888889,-95.0705555556,,Census,Town,OK,"Paradise Hill, Oklahoma",0,0,0,0,0,0,0,0,0,0,0,0,0,0,0.0,0,0,0.0,87.0,154.0,88.0,100.0,85.0
16177,8077,US,130669,36.5846437,-98.8785312,,Census,City,OK,"Waynoka, Oklahoma",0,0,0,0,0,0,0,0,0,0,0,0,1160,1500,1840.0,1584,2018,1794.0,1444.0,1377.0,947.0,993.0,927.0
16191,14082,US,130337,35.9530555556,-97.5947222222,,Census,City,OK,"Crescent, Oklahoma",0,0,0,0,0,0,0,0,0,0,0,139,903,878,1190.0,1301,1341,1264.0,1568.0,1651.0,1236.0,1281.0,1411.0
16193,7820,US,130575,35.1475,-96.6697222222,,Census,Town,OK,"Bowlegs, Oklahoma",0,0,0,0,0,0,0,0,0,0,0,0,0,0,0.0,0,0,0.0,0.0,522.0,398.0,371.0,405.0
16234,8213,US,130611,34.6158333333,-98.0802777778,,Census,Town,OK,"Central High, Oklahoma",0,0,0,0,0,0,0,0,0,0,0,0,0,0,0.0,0,0,0.0,0.0,0.0,0.0,954.0,1199.0
16241,24438,US,92116,36.75,-100.48,,Census,US County,OK,"Beaver County, Oklahoma",0,0,0,0,0,0,0,0,0,0,0,3051,13631,14048,11452.0,8648,7411,6965.0,6282.0,6806.0,6023.0,5857.0,5636.0
16279,9170,US,130616,34.6433333333,-97.9588888889,,Census,City,OK,"Marlow, Oklahoma",0,0,0,0,0,0,0,0,0,0,0,1016,1965,2276,3084.0,2899,3399,4027.0,3995.0,5017.0,4416.0,4592.0,4662.0
16298,10678,US,130244,35.2569444444,-94.9213888889,,Census,Town,OK,"Keota, Oklahoma",0,0,0,0,0,0,0,0,0,0,0,0,0,494,470.0,525,619,579.0,685.0,661.0,625.0,517.0,564.0
16300,11530,US,130084,34.2316666667,-97.4844444444,,Census,City,OK,"Healdton, Oklahoma",0,0,0,0,0,0,0,0,0,0,0,0,0,2157,2017.0,2067,2578,2898.0,2324.0,3769.0,2872.0,2786.0,2788.0
16308,7889,US,130301,34.6552528,-98.9533021,,Census,City,OK,"Snyder, Oklahoma",0,0,0,0,0,0,0,0,0,0,0,0,1122,1197,1195.0,1278,1646,1663.0,1671.0,1848.0,1619.0,1509.0,1394.0
16364,7715,US,130057,33.7747222222,-96.4069444444,,Census,Town,OK,"Hendrix, Oklahoma",0,0,0,0,0,0,0,0,0,0,0,0,0,130,84.0,145,152,142.0,117.0,106.0,108.0,79.0,79.0
16479,9163,US,130235,34.9625,-99.3813888889,,Census,Town,OK,"Granite, Oklahoma",0,0,0,0,0,0,0,0,0,0,0,0,1229,912,1341.0,1058,1096,952.0,1808.0,1617.0,1844.0,1844.0,2065.0
16498,7046,US,130518,34.9011111111,-95.6925,,Census,Town,OK,"Alderson, Oklahoma",0,0,0,0,0,0,0,0,0,0,0,0,786,855,421.0,340,311,207.0,215.0,366.0,395.0,261.0,304.0
16504,10177,US,130079,35.4136111111,-97.9105555556,,Census,Town,OK,"Union City, Oklahoma",0,0,0,0,0,0,0,0,0,0,0,0,0,0,0.0,0,301,329.0,300.0,558.0,1000.0,1375.0,1645.0
16508,25752,US,92110,34.25,-97.29,,Census,US County,OK,"Carter County, Oklahoma",0,0,0,0,0,0,0,0,0,0,0,0,25358,40247,41419.0,43292,36455,39044.0,37349.0,43610.0,42919.0,45621.0,47557.0
16556,10807,US,130580,35.2411111111,-96.6683333333,,Census,City,OK,"Seminole, Oklahoma",0,0,0,0,0,0,0,0,0,0,0,0,476,854,11459.0,11547,11863,11464.0,7878.0,8590.0,7071.0,6899.0,7488.0
16614,6541,US,2997003,35.4222222222,-99.9113888889,,Census,Town,OK,"Sweetwater, Oklahoma",0,0,0,0,0,0,0,0,0,0,0,0,0,0,0.0,0,0,0.0,0.0,0.0,238.0,226.0,87.0
16620,8923,US,130458,35.5077777778,-97.3705555556,,Census,City,OK,"Spencer, Oklahoma",0,0,0,0,0,0,0,0,0,0,0,0,0,0,0.0,0,0,1189.0,3714.0,4064.0,3972.0,3746.0,3912.0
16679,17029,US,130157,35.5384097,-98.6872467,,Census,City,OK,"Weatherford, Oklahoma",0,0,0,0,0,0,0,0,0,0,0,1017,2118,1929,2417.0,2504,3529,4499.0,7959.0,9640.0,10124.0,9859.0,10833.0
16740,22827,US,92108,34.03,-95.55,,Census,US County,OK,"Choctaw County, Oklahoma",0,0,0,0,0,0,0,0,0,0,0,0,21862,32144,24142.0,28358,20405,15637.0,15141.0,17203.0,15302.0,15342.0,15205.0
16782,15936,US,130041,35.2988888889,-99.6366666667,,Census,City,OK,"Sayre, Oklahoma",0,0,0,0,0,0,0,0,0,0,0,0,1881,1703,3157.0,3037,3362,2913.0,2712.0,3177.0,2881.0,4114.0,4375.0
16788,11288,US,130670,36.5722222222,-99.5738888889,,Census,Town,OK,"Fort Supply, Oklahoma",0,0,0,0,0,0,0,0,0,0,0,0,169,231,230.0,414,293,394.0,550.0,559.0,369.0,328.0,330.0
16806,8242,US,130573,36.5291666667,-95.6991666667,,Census,Town,OK,"Talala, Oklahoma",0,0,0,0,0,0,0,0,0,0,0,0,340,107,198.0,188,210,147.0,163.0,191.0,206.0,250.0,273.0
16842,18610,US,130150,36.0036111111,-96.1047222222,,Census,City,OK,"Sapulpa, Oklahoma",0,0,0,0,0,0,0,0,0,0,0,891,8283,11634,10533.0,12249,13031,14282.0,15159.0,15853.0,18074.0,19166.0,20544.0
16900,6909,US,130323,35.8058333333,-97.0125,,Census,Town,OK,"Carney, Oklahoma",0,0,0,0,0,0,0,0,0,0,0,0,260,367,328.0,283,277,227.0,396.0,622.0,558.0,649.0,647.0
16940,7356,US,130264,34.4725,-99.6494444444,,Census,Town,OK,"Eldorado, Oklahoma",0,0,0,0,0,0,0,0,0,0,0,0,926,967,1183.0,929,732,708.0,737.0,688.0,573.0,527.0,446.0
16943,12257,US,130366,36.1972222222,-95.1669444444,,Census,Town,OK,"Locust Grove, Oklahoma",0,0,0,0,0,0,0,0,0,0,0,0,0,587,510.0,545,730,828.0,1090.0,1179.0,1326.0,1366.0,1423.0
17011,15555,US,130247,35.2563888889,-95.1241666667,,Census,City,OK,"Stigler, Oklahoma",0,0,0,0,0,0,0,0,0,0,0,0,1583,1797,1517.0,1861,2125,1923.0,2347.0,2630.0,2574.0,2731.0,2685.0
17081,7230,US,130206,36.2805555556,-97.9022222222,,Census,Town,OK,"Waukomis, Oklahoma",0,0,0,0,0,0,0,0,0,0,0,688,533,463,445.0,397,537,516.0,842.0,1551.0,1322.0,1261.0,1286.0
17156,10658,US,130126,34.7808333333,-98.2927777778,,Census,City,OK,"Elgin, Oklahoma",0,0,0,0,0,0,0,0,0,0,0,0,178,181,335.0,381,428,540.0,840.0,1003.0,975.0,1210.0,2156.0
17168,14035,US,130121,34.5336111111,-96.2186111111,,Census,City,OK,"Coalgate, Oklahoma",0,0,0,0,0,0,0,0,0,0,0,2614,3255,3009,2064.0,2118,1984,1689.0,1859.0,2001.0,1895.0,2005.0,1967.0
17209,10312,US,150960,34.8780555556,-96.4119444444,,Census,Town,OK,"Allen, Oklahoma",0,0,0,0,0,0,0,0,0,0,0,0,645,1377,1438.0,1389,1215,1005.0,974.0,998.0,972.0,951.0,932.0
17283,8732,US,130576,35.3502777778,-96.4597222222,,Census,Town,OK,"Cromwell, Oklahoma",0,0,0,0,0,0,0,0,0,0,0,0,0,0,249.0,451,313,269.0,287.0,337.0,268.0,265.0,286.0
17324,7611,US,130564,36.4338888889,-95.5208333333,,Census,Town,OK,"Foyil, Oklahoma",0,0,0,0,0,0,0,0,0,0,0,0,0,109,184.0,170,146,127.0,164.0,191.0,86.0,234.0,344.0
17328,7856,US,130047,36.1163888889,-98.3183333333,,Census,Town,OK,"Okeene, Oklahoma",0,0,0,0,0,0,0,0,0,0,0,0,920,1084,1035.0,1079,1170,1164.0,1421.0,1601.0,1343.0,1240.0,1204.0
17365,10191,US,130320,34.7516666667,-95.0411111111,,Census,Town,OK,"Talihina, Oklahoma",0,0,0,0,0,0,0,0,0,0,0,0,491,690,1032.0,1057,965,1048.0,1223.0,1387.0,1297.0,1270.0,1114.0
17375,6602,US,130217,34.8761111111,-97.7088888889,,Census,Town,OK,"Bradley, Oklahoma",0,0,0,0,0,0,0,0,0,0,0,0,0,0,0.0,281,248,294.0,247.0,284.0,166.0,182.0,130.0
17406,7706,US,130253,34.8361111111,-96.29,,Census,Town,OK,"Gerty, Oklahoma",0,0,0,0,0,0,0,0,0,0,0,0,305,251,137.0,206,155,135.0,139.0,149.0,95.0,101.0,118.0
17431,12071,US,150950,34.4177777778,-96.4944444444,,Census,Town,OK,"Bromide, Oklahoma",0,0,0,0,0,0,0,0,0,0,0,0,0,523,352.0,312,258,264.0,231.0,180.0,162.0,163.0,165.0
17451,22880,US,92089,34.93,-99.56,,Census,US County,OK,"Greer County, Oklahoma",0,0,0,0,0,0,0,0,0,0,0,0,16449,15836,20282.0,14550,11749,8877.0,7979.0,7028.0,6559.0,6061.0,6239.0
17505,7586,US,130460,35.4036111111,-97.4819444444,,Census,Town,OK,"Valley Brook, Oklahoma",0,0,0,0,0,0,0,0,0,0,0,0,0,0,0.0,0,0,1378.0,1197.0,923.0,744.0,1375.0,765.0
17581,10021,US,130541,35.2147222222,-96.9691666667,,Census,Town,OK,"Brooksville, Oklahoma",0,0,0,0,0,0,0,0,0,0,0,0,166,0,0.0,0,0,0.0,0.0,46.0,69.0,90.0,63.0
17680,17669,US,130628,34.3902777778,-99.0161111111,,Census,City,OK,"Frederick, Oklahoma",0,0,0,0,0,0,0,0,0,0,0,0,3027,3822,4568.0,5109,5467,5879.0,6132.0,6153.0,5221.0,4637.0,3940.0
17730,8211,US,130315,35.2580555556,-94.4738888889,,Census,Town,OK,"Pocola, Oklahoma",0,0,0,0,0,0,0,0,0,0,0,0,0,0,0.0,0,0,0.0,1840.0,3268.0,3664.0,3994.0,4056.0
17733,54839,US,92103,34.66,-98.46,,Census,US County,OK,"Comanche County, Oklahoma",0,0,0,0,0,0,0,0,0,0,0,0,41489,26629,34317.0,38988,55165,90803.0,108144.0,112456.0,111486.0,114996.0,124098.0
17742,27150,US,92114,35.88,-98.43,,Census,US County,OK,"Blaine County, Oklahoma",0,0,0,0,0,0,0,0,0,0,0,10658,17960,15875,20452.0,18543,15049,12077.0,11794.0,13443.0,11470.0,11976.0,11943.0
17808,15816,US,130441,35.4311111111,-96.3055555556,,Census,City,OK,"Okemah, Oklahoma",0,0,0,0,0,0,0,0,0,0,0,0,1389,2162,4002.0,3811,3454,2836.0,2913.0,3381.0,3085.0,3038.0,3223.0
17810,6776,US,130525,34.7225,-95.9033333333,,Census,Town,OK,"Kiowa, Oklahoma",0,0,0,0,0,0,0,0,0,0,0,0,1021,1287,689.0,802,802,607.0,754.0,866.0,718.0,693.0,731.0
17853,7706,US,130065,35.5466666667,-98.3833333333,,Census,Town,OK,"Bridgeport, Oklahoma",0,0,0,0,0,0,0,0,0,0,0,0,428,294,432.0,302,199,139.0,142.0,115.0,137.0,109.0,116.0
17885,11461,US,130021,36.9244444444,-98.2916666667,,Census,Town,OK,"Amorita, Oklahoma",0,0,0,0,0,0,0,0,0,0,0,0,0,196,194.0,208,125,74.0,63.0,66.0,56.0,44.0,37.0
17901,9810,US,130227,36.7191666667,-97.7905555556,,Census,Town,OK,"Jefferson, Oklahoma",0,0,0,0,0,0,0,0,0,0,0,300,281,322,269.0,229,179,119.0,128.0,92.0,36.0,37.0,12.0
17932,6758,US,130060,34.0011111111,-96.5105555556,,Census,Town,OK,"Mead, Oklahoma",0,0,0,0,0,0,0,0,0,0,0,0,0,0,0.0,0,0,0.0,80.0,143.0,109.0,123.0,122.0
17935,7792,US,130384,35.1466666667,-97.4738888889,,Census,Town,OK,"Goldsby, Oklahoma",0,0,0,0,0,0,0,0,0,0,0,0,0,0,0.0,0,0,0.0,298.0,603.0,816.0,1204.0,1801.0
17978,6795,US,130222,35.1938888889,-97.9538888889,,Census,Town,OK,"Pocasset, Oklahoma",0,0,0,0,0,0,0,0,0,0,0,0,0,0,0.0,0,0,0.0,0.0,0.0,0.0,192.0,156.0
18007,10843,US,150957,35.6325,-99.3813888889,,Census,Town,OK,"Hammon, Oklahoma",0,0,0,0,0,0,0,0,0,0,0,0,0,440,736.0,705,621,656.0,677.0,866.0,611.0,469.0,568.0
18010,6586,US,130510,36.1877777778,-96.4911111111,,Census,Town,OK,"Terlton, Oklahoma",0,0,0,0,0,0,0,0,0,0,0,0,0,0,234.0,245,122,90.0,111.0,155.0,121.0,1146.0,106.0
18086,101350,US,130118,35.22,-97.44,,Census,City,OK,"Norman, Oklahoma",0,0,0,0,0,0,0,0,0,0,787,2225,3724,5004,9603.0,11429,27006,33412.0,52117.0,68020.0,80071.0,95694.0,110925.0
18105,8491,US,130566,36.1330555556,-95.5238888889,,Census,Town,OK,"Inola, Oklahoma",0,0,0,0,0,0,0,0,0,0,0,0,405,498,398.0,395,294,584.0,948.0,1550.0,1444.0,1589.0,1788.0
18157,13590,US,130639,35.9630555556,-95.6616666667,,Census,City,OK,"Coweta, Oklahoma",0,0,0,0,0,0,0,0,0,0,0,0,1187,1318,1274.0,1455,1601,1858.0,2457.0,4554.0,6159.0,7139.0,9943.0
18212,6874,US,130521,35.1219444444,-95.6713888889,,Census,Town,OK,"Crowder, Oklahoma",0,0,0,0,0,0,0,0,0,0,0,0,529,581,340.0,378,267,254.0,339.0,431.0,339.0,436.0,430.0
18322,22885,US,130077,35.5302777778,-97.9575,,Census,City,OK,"El Reno, Oklahoma",0,0,0,0,0,0,0,0,0,0,285,3383,7872,7737,9384.0,10078,10991,11015.0,14510.0,15486.0,15414.0,16212.0,16749.0
18354,6526,US,130377,36.2458333333,-95.2513888889,,Census,Town,OK,"Sportsmen Acres, Oklahoma",0,0,0,0,0,0,0,0,0,0,0,0,0,0,0.0,0,0,0.0,0.0,218.0,181.0,204.0,322.0
18390,9063,US,130145,35.9427777778,-96.2194444444,,Census,Town,OK,"Kellyville, Oklahoma",0,0,0,0,0,0,0,0,0,0,0,0,0,0,548.0,647,528,501.0,685.0,960.0,984.0,906.0,1150.0
18460,6251,US,130281,34.2416666667,-96.7555555556,,Census,Town,OK,"Ravia, Oklahoma",0,0,0,0,0,0,0,0,0,0,0,128,556,513,345.0,424,327,307.0,373.0,487.0,404.0,459.0,528.0
18485,9737,US,130207,34.6233333333,-97.3958333333,,Census,Town,OK,"Elmore City, Oklahoma",0,0,0,0,0,0,0,0,0,0,0,192,266,337,395.0,494,743,982.0,653.0,582.0,493.0,756.0,697.0
18562,26627,US,92068,35.38,-95.67,,Census,US County,OK,"McIntosh County, Oklahoma",0,0,0,0,0,0,0,0,0,0,0,0,20961,26404,24924.0,24097,17829,12371.0,12472.0,15562.0,16779.0,19456.0,20252.0
18655,7947,US,130089,34.1613888889,-97.425,,Census,Town,OK,"Wilson, Oklahoma",0,0,0,0,0,0,0,0,0,0,0,0,0,2286,2517.0,1700,1832,1647.0,1569.0,1585.0,1639.0,1584.0,1724.0
18668,71294,US,130516,36.116,-97.059,,Census,City,OK,"Stillwater, Oklahoma",0,0,0,0,0,0,0,0,0,0,480,2431,3444,4701,7016.0,10097,20238,23965.0,31126.0,38268.0,36676.0,39065.0,45688.0
18673,23111,US,92102,34.28,-98.37,,Census,US County,OK,"Cotton County, Oklahoma",0,0,0,0,0,0,0,0,0,0,0,0,0,16679,15442.0,12884,10180,8031.0,6832.0,7338.0,6651.0,6614.0,6193.0
18744,22161,US,130438,35.4927777778,-96.4816666667,,Census,Town,OK,"Boley, Oklahoma",0,0,0,0,0,0,0,0,0,0,0,0,1334,1154,874.0,942,646,573.0,514.0,423.0,908.0,1126.0,1184.0
18758,9857,US,130286,36.7658333333,-96.8580555556,,Census,City,OK,"Kaw City, Oklahoma",0,0,0,0,0,0,0,0,0,0,0,0,595,627,1001.0,809,561,457.0,283.0,283.0,314.0,372.0,375.0
18769,9493,US,130106,34.02,-95.2794444444,,Census,Town,OK,"Fort Towson, Oklahoma",0,0,0,0,0,0,0,0,0,0,0,0,697,965,486.0,501,713,474.0,430.0,789.0,568.0,611.0,519.0
18815,7195,US,130135,34.1766666667,-98.4655555556,,Census,Town,OK,"Randlett, Oklahoma",0,0,0,0,0,0,0,0,0,0,0,0,574,323,257.0,327,396,356.0,384.0,461.0,458.0,511.0,438.0
18896,32713,US,92066,35.61,-95.38,,Census,US County,OK,"Muskogee County, Oklahoma",0,0,0,0,0,0,0,0,0,0,0,0,52743,61710,66424.0,65914,65573,61866.0,59542.0,66939.0,68078.0,69451.0,70990.0
18956,12018,US,130076,35.6005555556,-98.1202777778,,Census,Town,OK,"Calumet, Oklahoma",0,0,0,0,0,0,0,0,0,0,0,0,0,0,0.0,0,339,354.0,386.0,469.0,560.0,535.0,507.0
18973,24245,US,130338,35.8563888889,-97.4358333333,,Census,City,OK,"Guthrie, Oklahoma",0,0,0,0,0,0,0,0,0,0,5333,10006,11654,11757,9582.0,10018,10113,9502.0,9575.0,10312.0,10518.0,9925.0,10191.0
19034,7164,US,130293,35.9736111111,-98.1191666667,,Census,Town,OK,"Loyal, Oklahoma",0,0,0,0,0,0,0,0,0,0,0,0,0,0,0.0,177,125,87.0,107.0,112.0,76.0,81.0,79.0
19046,15608,US,130445,35.5047222222,-97.6388888889,,Census,City,OK,"Bethany, Oklahoma",0,0,0,0,0,0,0,0,0,0,0,0,0,485,2032.0,2590,5705,12342.0,22694.0,22038.0,20075.0,20307.0,19051.0
19080,7335,US,130538,34.6511111111,-96.5266666667,,Census,Town,OK,"Stonewall, Oklahoma",0,0,0,0,0,0,0,0,0,0,0,0,494,622,478.0,761,634,584.0,653.0,672.0,519.0,465.0,470.0
19111,6585,US,130503,36.2425,-96.6811111111,,Census,Town,OK,"Maramec, Oklahoma",0,0,0,0,0,0,0,0,0,0,0,0,224,287,376.0,271,184,169.0,128.0,101.0,110.0,104.0,91.0
19287,18247,US,130107,34.0094444444,-95.5147222222,,Census,City,OK,"Hugo, Oklahoma",0,0,0,0,0,0,0,0,0,0,0,0,4582,6368,5272.0,5909,5984,6287.0,6585.0,7172.0,5978.0,5536.0,5310.0
19301,22776,US,130621,36.6827777778,-101.481666667,,Census,City,OK,"Guymon, Oklahoma",0,0,0,0,0,0,0,0,0,0,0,0,1342,1507,2181.0,2290,4718,5768.0,7674.0,8492.0,7803.0,10472.0,11442.0
19352,8024,US,130299,35.0993813,-98.7501336,,Census,Town,OK,"Mountain View, Oklahoma",0,0,0,0,0,0,0,0,0,0,0,0,855,917,1025.0,1075,1009,864.0,1110.0,1189.0,1086.0,880.0,795.0
19368,8087,US,130270,34.1627777778,-97.5955555556,,Census,Town,OK,"Cornish, Oklahoma",0,0,0,0,0,0,0,0,0,0,0,307,489,261,186.0,234,152,127.0,90.0,115.0,164.0,172.0,163.0
19433,8810,US,130073,35.1877777778,-98.2586111111,,Census,Town,OK,"Gracemont, Oklahoma",0,0,0,0,0,0,0,0,0,0,0,0,0,266,394.0,328,301,306.0,424.0,503.0,339.0,336.0,318.0
19462,7713,US,150974,36.1480555556,-95.7083333333,,Census,Town,OK,"Fair Oaks, Oklahoma",0,0,0,0,0,0,0,0,0,0,0,0,0,0,0.0,0,0,0.0,23.0,228.0,1133.0,122.0,103.0
19465,8311,US,130199,36.3552777778,-97.705,,Census,Town,OK,"Fairmont, Oklahoma",0,0,0,0,0,0,0,0,0,0,0,0,0,166,169.0,153,134,115.0,154.0,419.0,129.0,147.0,134.0
19551,17018,US,130658,35.3787092,-98.7820174,,Census,Town,OK,"Corn, Oklahoma",0,0,0,0,0,0,0,0,0,0,0,0,0,0,0.0,0,0,317.0,409.0,542.0,548.0,591.0,503.0
19665,9797,US,130308,35.2991666667,-94.58,,Census,Town,OK,"Fort Coffee, Oklahoma",0,0,0,0,0,0,0,0,0,0,0,0,0,0,0.0,0,0,0.0,0.0,0.0,0.0,412.0,424.0
19670,8787,US,130149,36.0833333333,-96.5833333333,,Census,City,OK,"Oilton, Oklahoma",0,0,0,0,0,0,0,0,0,0,0,0,0,2231,1518.0,1225,1109,1100.0,1087.0,1244.0,1060.0,1099.0,1013.0
19727,11216,US,130105,34.0283333333,-95.87,,Census,Town,OK,"Boswell, Oklahoma",0,0,0,0,0,0,0,0,0,0,0,0,828,1212,934.0,962,875,753.0,755.0,702.0,643.0,703.0,709.0
19756,9025,US,130074,35.4788888889,-98.3536111111,,Census,Town,OK,"Hinton, Oklahoma",0,0,0,0,0,0,0,0,0,0,0,0,686,744,1009.0,842,1025,907.0,889.0,1432.0,1233.0,2175.0,3196.0
19773,8538,US,130551,34.9627777778,-97.0311111111,,Census,Town,OK,"Wanette, Oklahoma",0,0,0,0,0,0,0,0,0,0,0,0,677,783,758.0,665,594,381.0,303.0,473.0,346.0,402.0,350.0
19791,9100,US,130540,35.3113888889,-97.0275,,Census,Town,OK,"Bethel Acres, Oklahoma",0,0,0,0,0,0,0,0,0,0,0,0,388,0,0.0,0,0,0.0,1083.0,2314.0,2505.0,2735.0,2895.0
19899,8800,US,130142,36.8747222222,-95.0938888889,,Census,Town,OK,"Welch, Oklahoma",0,0,0,0,0,0,0,0,0,0,0,334,684,696,448.0,498,483,557.0,651.0,697.0,499.0,597.0,619.0
19927,12894,US,130122,34.47,-96.2186111111,,Census,City,OK,"Lehigh, Oklahoma",0,0,0,0,0,0,0,0,0,0,0,1500,1880,1898,497.0,519,352,296.0,296.0,284.0,303.0,315.0,356.0
19967,22256,US,92084,34.59,-99.41,,Census,US County,OK,"Jackson County, Oklahoma",0,0,0,0,0,0,0,0,0,0,0,0,23737,22141,28910.0,22708,20082,29736.0,30902.0,30356.0,28764.0,28439.0,26446.0
20035,9613,US,130140,36.5255555556,-95.0258333333,,Census,Town,OK,"Ketchum, Oklahoma",0,0,0,0,0,0,0,0,0,0,0,0,0,0,0.0,611,254,255.0,238.0,326.0,263.0,286.0,442.0
20091,9093,US,130662,35.1563888889,-99.06,,Census,Town,OK,"Rocky, Oklahoma",0,0,0,0,0,0,0,0,0,0,0,0,378,322,518.0,442,366,343.0,260.0,242.0,181.0,174.0,162.0
20109,10662,US,130451,35.5644444444,-97.2908333333,,Census,Town,OK,"Jones, Oklahoma",0,0,0,0,0,0,0,0,0,0,0,0,163,214,288.0,260,476,794.0,1666.0,2270.0,2424.0,2517.0,2692.0
20110,6801,US,130535,34.6622222222,-96.7758333333,,Census,Town,OK,"Fitzhugh, Oklahoma",0,0,0,0,0,0,0,0,0,0,0,0,0,0,0.0,0,0,0.0,0.0,0.0,196.0,204.0,230.0
20135,22914,US,92062,35.48,-97.53,,Census,US County,OK,"Oklahoma County, Oklahoma",0,0,0,0,0,0,0,0,0,0,11742,25915,85232,116307,221738.0,244159,325352,439506.0,526805.0,568933.0,599611.0,660448.0,718633.0
20199,7052,US,130493,36.9186111111,-94.8802777778,,Census,Town,OK,"North Miami, Oklahoma",0,0,0,0,0,0,0,0,0,0,0,0,0,483,503.0,393,486,472.0,503.0,544.0,450.0,433.0,374.0
20220,7762,US,130462,35.5091666667,-97.6477777778,,Census,Town,OK,"Woodlawn Park, Oklahoma",0,0,0,0,0,0,0,0,0,0,0,0,0,0,0.0,0,0,129.0,220.0,167.0,170.0,161.0,153.0
20240,9833,US,130330,35.6097222222,-96.8197222222,,Census,Town,OK,"Sparks, Oklahoma",0,0,0,0,0,0,0,0,0,0,0,0,421,472,470.0,339,233,186.0,183.0,772.0,202.0,137.0,169.0
20322,23701,US,92056,34.93,-95.75,,Census,US County,OK,"Pittsburg County, Oklahoma",0,0,0,0,0,0,0,0,0,0,0,0,47650,52570,50778.0,48985,41031,34360.0,37521.0,40524.0,40581.0,43953.0,45837.0
20352,8219,US,130252,35.2725,-96.0327777778,,Census,Town,OK,"Dustin, Oklahoma",0,0,0,0,0,0,0,0,0,0,0,0,579,713,537.0,652,524,457.0,502.0,498.0,429.0,452.0,395.0
20371,10335,US,130412,35.82,-95.6769444444,,Census,Town,OK,"Haskell, Oklahoma",0,0,0,0,0,0,0,0,0,0,0,0,857,2196,1682.0,1572,1676,1887.0,2063.0,1953.0,2143.0,1765.0,2007.0
20384,13259,US,130085,34.1775,-97.2486111111,,Census,City,OK,"Lone Grove, Oklahoma",0,0,0,0,0,0,0,0,0,0,0,215,222,0,0.0,0,0,0.0,1240.0,3369.0,4114.0,4631.0,5054.0
20450,11127,US,130486,36.6919444444,-94.9638888889,,Census,Town,OK,"Afton, Oklahoma",0,0,0,0,0,0,0,0,0,0,0,606,1279,1518,1219.0,1261,1252,1111.0,1022.0,1174.0,915.0,1118.0,1049.0
20489,8831,US,130369,36.4555555556,-95.1302777778,,Census,Town,OK,"Pensacola, Oklahoma",0,0,0,0,0,0,0,0,0,0,0,0,0,0,0.0,93,51,28.0,56.0,82.0,69.0,71.0,125.0
20495,28996,US,150965,36.7472222222,-95.9594444444,,Census,City,OK,"Bartlesville, Oklahoma",0,0,0,0,0,0,0,0,0,0,0,698,6181,14417,14763.0,16267,19228,27893.0,29683.0,34568.0,34256.0,34748.0,35750.0
20535,8486,US,130598,35.4061944444,-94.5988333333,,Census,Town,OK,"Muldrow, Oklahoma",0,0,0,0,0,0,0,0,0,0,0,465,671,693,557.0,638,828,1137.0,1680.0,2538.0,2889.0,3104.0,3466.0
20555,6901,US,130659,35.2794444444,-99.1305555556,,Census,Town,OK,"Dill City, Oklahoma",0,0,0,0,0,0,0,0,0,0,0,0,240,345,511.0,511,453,623.0,578.0,649.0,628.0,526.0,562.0
20793,23263,US,92081,36.81,-97.14,,Census,US County,OK,"Kay County, Oklahoma",0,0,0,0,0,0,0,0,0,0,0,22530,26999,34907,50186.0,47084,48892,51042.0,48791.0,49852.0,48056.0,48080.0,46562.0
20849,9873,US,130279,34.4011111111,-96.8252777778,,Census,Town,OK,"Mill Creek, Oklahoma",0,0,0,0,0,0,0,0,0,0,0,0,626,620,422.0,459,299,287.0,234.0,431.0,336.0,340.0,319.0
20850,23510,US,92058,36.31,-96.7,,Census,US County,OK,"Pawnee County, Oklahoma",0,0,0,0,0,0,0,0,0,0,0,12366,17332,19126,19882.0,17395,13616,10884.0,11338.0,15310.0,15575.0,16612.0,16577.0
20879,7082,US,130365,36.4688888889,-95.0497222222,,Census,Town,OK,"Langley, Oklahoma",0,0,0,0,0,0,0,0,0,0,0,0,0,0,0.0,838,204,205.0,481.0,582.0,526.0,669.0,819.0
20972,7118,US,130256,35.0988888889,-96.1252777778,,Census,Town,OK,"Lamar, Oklahoma",0,0,0,0,0,0,0,0,0,0,0,0,0,0,250.0,296,180,150.0,153.0,121.0,97.0,172.0,158.0
20976,10239,US,130305,35.1880555556,-94.7905555556,,Census,Town,OK,"Bokoshe, Oklahoma",0,0,0,0,0,0,0,0,0,0,0,153,483,869,715.0,690,589,431.0,588.0,556.0,403.0,450.0,512.0
21050,6619,US,130257,35.0136111111,-96.4447222222,,Census,Town,OK,"Spaulding, Oklahoma",0,0,0,0,0,0,0,0,0,0,0,0,0,0,0.0,0,0,0.0,0.0,0.0,0.0,137.0,178.0
21063,9323,US,130298,34.6988401,-98.9523057,,Census,Town,OK,"Mountain Park, Oklahoma",0,0,0,0,0,0,0,0,0,0,0,0,449,334,459.0,441,418,403.0,458.0,557.0,473.0,390.0,409.0
21114,8330,US,130144,35.8013888889,-96.5066666667,,Census,Town,OK,"Depew, Oklahoma",0,0,0,0,0,0,0,0,0,0,0,0,0,0,1126.0,876,719,686.0,739.0,682.0,502.0,564.0,476.0
21277,7419,US,130287,36.8083333333,-97.05,,Census,Town,OK,"Kildare, Oklahoma",0,0,0,0,0,0,0,0,0,0,0,0,216,146,160.0,137,155,124.0,79.0,112.0,94.0,92.0,100.0
21281,6473,US,130037,36.8736111111,-100.192777778,,Census,Town,OK,"Knowles, Oklahoma",0,0,0,0,0,0,0,0,0,0,0,0,0,0,219.0,104,91,62.0,52.0,44.0,18.0,32.0,11.0
21321,10232,US,130577,34.9591666667,-96.7527777778,,Census,City,OK,"Konawa, Oklahoma",0,0,0,0,0,0,0,0,0,0,0,0,701,896,2070.0,2205,2707,1555.0,1719.0,1711.0,1508.0,1479.0,1298.0
21336,10308,US,130046,36.1336688,-98.5509841,,Census,Town,OK,"Longdale, Oklahoma",0,0,0,0,0,0,0,0,0,0,0,0,296,308,284.0,291,277,218.0,331.0,405.0,281.0,310.0,262.0
21355,9857,US,150943,35.5479858,-98.5796842,,Census,Town,OK,"Hydro, Oklahoma",0,0,0,0,0,0,0,0,0,0,0,0,562,686,948.0,759,714,697.0,805.0,938.0,977.0,1060.0,969.0
21387,8196,US,130051,34.0016666667,-96.0375,,Census,Town,OK,"Bennington, Oklahoma",0,0,0,0,0,0,0,0,0,0,0,0,513,951,492.0,513,361,226.0,288.0,302.0,251.0,289.0,334.0
21523,7343,US,130201,36.5625,-97.9925,,Census,Town,OK,"Hillsdale, Oklahoma",0,0,0,0,0,0,0,0,0,0,0,0,226,209,173.0,131,104,60.0,77.0,110.0,96.0,101.0,121.0
21720,6391,US,130113,35.1347222222,-97.1686111111,,Census,Town,OK,"Etowah, Oklahoma",0,0,0,0,0,0,0,0,0,0,0,0,0,0,0.0,0,0,0.0,0.0,0.0,33.0,122.0,92.0
21771,9920,US,130396,34.0638888889,-95.0036111111,,Census,Town,OK,"Wright City, Oklahoma",0,0,0,0,0,0,0,0,0,0,0,0,0,0,0.0,0,1121,1161.0,1068.0,1168.0,836.0,848.0,762.0
22006,6671,US,130422,35.6133333333,-95.5661111111,,Census,Town,OK,"Wainwright, Oklahoma",0,0,0,0,0,0,0,0,0,0,0,0,213,254,162.0,162,138,114.0,135.0,182.0,223.0,197.0,165.0
22057,25325,US,130553,34.2311111111,-95.6208333333,,Census,City,OK,"Antlers, Oklahoma",0,0,0,0,0,0,0,0,0,0,0,0,1273,1842,2246.0,3254,2506,2085.0,2685.0,2989.0,2524.0,2552.0,2453.0
22080,7321,US,130242,36.6166666667,-99.7494444444,,Census,Town,OK,"May, Oklahoma",0,0,0,0,0,0,0,0,0,0,0,0,0,324,258.0,239,143,0.0,91.0,0.0,42.0,33.0,39.0
22147,7077,US,130543,35.4177777778,-96.8330555556,,Census,Town,OK,"Johnson, Oklahoma",0,0,0,0,0,0,0,0,0,0,0,0,0,0,0.0,0,0,0.0,0.0,0.0,196.0,223.0,247.0
22257,6595,US,130624,36.7583333333,-101.356388889,,Census,Town,OK,"Optima, Oklahoma",0,0,0,0,0,0,0,0,0,0,0,0,0,0,115.0,69,97,64.0,103.0,133.0,92.0,266.0,356.0
22303,7067,US,130075,35.3622222222,-98.3666666667,,Census,Town,OK,"Lookeba, Oklahoma",0,0,0,0,0,0,0,0,0,0,0,0,217,240,312.0,279,206,158.0,165.0,221.0,141.0,131.0,166.0
22308,6164,US,130274,34.0813888889,-97.9786111111,,Census,Town,OK,"Sugden, Oklahoma",0,0,0,0,0,0,0,0,0,0,0,0,321,218,146.0,171,105,68.0,54.0,76.0,65.0,220.0,43.0
22336,9701,US,130350,36.2706102,-98.477017,,Census,City,OK,"Fairview, Oklahoma",0,0,0,0,0,0,0,0,0,0,0,0,2020,1751,1887.0,1913,2411,2213.0,2894.0,3370.0,2936.0,2733.0,2579.0
22444,8613,US,130597,35.3897222222,-94.4463888889,,Census,Town,OK,"Moffett, Oklahoma",0,0,0,0,0,0,0,0,0,0,0,0,0,0,340.0,538,380,357.0,312.0,269.0,219.0,179.0,128.0
22487,12767,US,130164,36.2641666667,-94.6927777778,,Census,Town,OK,"Colcord, Oklahoma",0,0,0,0,0,0,0,0,0,0,0,0,0,0,0.0,0,0,173.0,438.0,530.0,628.0,819.0,815.0
22508,24872,US,92094,36.38,-97.78,,Census,US County,OK,"Garfield County, Oklahoma",0,0,0,0,0,0,0,0,0,0,22076,10037,33050,37500,45588.0,45484,52820,52975.0,55365.0,62820.0,56735.0,57813.0,60580.0
22524,9495,US,130269,34.2433333333,-97.9666666667,,Census,Town,OK,"Addington, Oklahoma",0,0,0,0,0,0,0,0,0,0,0,0,493,368,318.0,250,0,144.0,123.0,0.0,0.0,117.0,114.0
22527,7314,US,130086,34.4488888889,-97.5111111111,,Census,Town,OK,"Ratliff City, Oklahoma",0,0,0,0,0,0,0,0,0,0,0,0,0,0,0.0,0,0,0.0,250.0,350.0,157.0,131.0,120.0
22531,15223,US,130556,35.6125,-99.6738888889,,Census,Town,OK,"Cheyenne, Oklahoma",0,0,0,0,0,0,0,0,0,0,0,0,468,400,826.0,1070,1133,930.0,892.0,1207.0,948.0,778.0,801.0
22537,23971,US,92085,35.04,-96.26,,Census,US County,OK,"Hughes County, Oklahoma",0,0,0,0,0,0,0,0,0,0,0,0,24040,26045,30334.0,29189,20664,15144.0,13228.0,14338.0,13023.0,14154.0,14003.0
22559,7358,US,130614,34.4638888889,-98.0380555556,,Census,Town,OK,"Empire City, Oklahoma",0,0,0,0,0,0,0,0,0,0,0,0,0,0,0.0,0,0,0.0,23.0,13.0,219.0,734.0,955.0
22650,7016,US,130393,33.9861111111,-95.0147222222,,Census,Town,OK,"Millerton, Oklahoma",0,0,0,0,0,0,0,0,0,0,0,0,0,0,0.0,0,0,0.0,0.0,262.0,234.0,359.0,320.0
22908,8105,US,130314,35.1705555556,-94.67,,Census,Town,OK,"Panama, Oklahoma",0,0,0,0,0,0,0,0,0,0,0,0,310,568,754.0,880,1027,937.0,1121.0,1425.0,1528.0,1362.0,1413.0
22968,12214,US,130473,36.5594444444,-96.1611111111,,Census,City,OK,"Barnsdall, Oklahoma",0,0,0,0,0,0,0,0,0,0,0,0,307,2099,2001.0,1831,1708,1663.0,1579.0,1501.0,1316.0,1325.0,1243.0
23013,8660,US,130544,35.1477777778,-97.0083333333,,Census,Town,OK,"Macomb, Oklahoma",0,0,0,0,0,0,0,0,0,0,0,0,166,281,197.0,201,123,76.0,41.0,58.0,64.0,61.0,32.0
23030,6439,US,130266,34.6266666667,-99.1386111111,,Census,Town,OK,"Headrick, Oklahoma",0,0,0,0,0,0,0,0,0,0,0,0,270,280,243.0,174,144,152.0,139.0,223.0,183.0,130.0,94.0
23033,23036,US,92101,36.76,-95.22,,Census,US County,OK,"Craig County, Oklahoma",0,0,0,0,0,0,0,0,0,0,0,0,17404,19160,18052.0,21083,18263,16303.0,14722.0,15014.0,14104.0,14950.0,15029.0
23040,7159,US,130152,35.7763888889,-96.2669444444,,Census,Town,OK,"Slick, Oklahoma",0,0,0,0,0,0,0,0,0,0,0,0,0,0,422.0,300,151,151.0,171.0,187.0,124.0,148.0,131.0
23054,7383,US,130352,36.38,-98.2438888889,,Census,Town,OK,"Ringwood, Oklahoma",0,0,0,0,0,0,0,0,0,0,0,0,271,225,265.0,288,331,232.0,241.0,389.0,394.0,424.0,497.0
23058,8459,US,130194,36.4766666667,-98.0205555556,,Census,Town,OK,"Carrier, Oklahoma",0,0,0,0,0,0,0,0,0,0,0,0,0,0,0.0,0,0,0.0,0.0,259.0,171.0,77.0,85.0
23094,12924,US,130641,35.8527777778,-95.3158333333,,Census,Town,OK,"Okay, Oklahoma",0,0,0,0,0,0,0,0,0,0,0,0,0,0,248.0,322,427,419.0,419.0,554.0,528.0,597.0,620.0
23104,19344,US,130080,35.5022222222,-97.7491666667,,Census,City,OK,"Yukon, Oklahoma",0,0,0,0,0,0,0,0,0,0,0,0,1018,1016,1455.0,1660,1990,3076.0,8411.0,17112.0,20935.0,21043.0,22709.0
23140,15876,US,130408,34.5091666667,-96.9752777778,,Census,City,OK,"Sulphur, Oklahoma",0,0,0,0,0,0,0,0,0,0,0,1198,3684,3607,4242.0,4970,4389,4737.0,5158.0,5516.0,4824.0,4794.0,4929.0
23206,26932,US,92111,35.54,-97.98,,Census,US County,OK,"Canadian County, Oklahoma",0,0,0,0,0,0,0,0,0,0,7158,15981,23501,22288,28115.0,27329,25644,24727.0,32245.0,56452.0,74409.0,87697.0,115541.0
23358,7414,US,130633,34.5033333333,-99.1391666667,,Census,Town,OK,"Tipton, Oklahoma",0,0,0,0,0,0,0,0,0,0,0,0,441,727,1459.0,1470,1172,1117.0,1206.0,1475.0,1043.0,1238.0,847.0
23383,8818,US,130537,34.6266666667,-96.8413888889,,Census,Town,OK,"Roff, Oklahoma",0,0,0,0,0,0,0,0,0,0,0,0,1044,1138,772.0,705,623,638.0,632.0,729.0,717.0,734.0,725.0
23451,12368,US,130555,34.2022222222,-95.4108333333,,Census,Town,OK,"Rattan, Oklahoma",0,0,0,0,0,0,0,0,0,0,0,0,0,0,0.0,0,0,0.0,0.0,332.0,257.0,241.0,310.0
23452,8124,US,130317,35.1827777778,-94.4769444444,,Census,Town,OK,"Rock Island, Oklahoma",0,0,0,0,0,0,0,0,0,0,0,0,0,0,0.0,0,0,0.0,0.0,0.0,478.0,709.0,646.0
23467,30772,US,92109,35.91,-95.0,,Census,US County,OK,"Cherokee County, Oklahoma",0,0,0,0,0,0,0,0,0,0,0,0,16778,19872,17470.0,21030,18989,17762.0,23174.0,30684.0,34049.0,42521.0,46987.0
23489,38736,US,150961,36.7125,-97.0725,,Census,City,OK,"Ponca City, Oklahoma",0,0,0,0,0,0,0,0,0,0,0,2528,2521,7051,16136.0,16794,20180,24411.0,25940.0,26238.0,26359.0,25919.0,25387.0
23528,8777,US,130248,35.3938888889,-94.9883333333,,Census,Town,OK,"Tamaha, Oklahoma",0,0,0,0,0,0,0,0,0,0,0,237,498,501,202.0,245,117,80.0,83.0,145.0,188.0,372.0,176.0
23532,7108,US,130642,35.8675,-95.5219444444,,Census,Town,OK,"Porter, Oklahoma",0,0,0,0,0,0,0,0,0,0,0,0,637,597,525.0,562,562,492.0,624.0,642.0,588.0,574.0,566.0
23628,11508,US,130661,35.2972349,-98.9815857,,Census,City,OK,"New Cordell, Oklahoma",0,0,0,0,0,0,0,0,0,0,0,0,1950,1855,2936.0,2776,2920,3589.0,3261.0,3301.0,2903.0,2867.0,2915.0
23673,7633,US,130426,36.5602777778,-97.1516666667,,Census,Town,OK,"Marland, Oklahoma",0,0,0,0,0,0,0,0,0,0,0,0,0,0,361.0,257,221,191.0,236.0,340.0,280.0,280.0,225.0
23763,8093,US,130067,34.9355555556,-98.1372222222,,Census,Town,OK,"Cement, Oklahoma",0,0,0,0,0,0,0,0,0,0,0,0,770,1098,1117.0,1039,1076,959.0,892.0,884.0,642.0,530.0,501.0
23773,24317,US,92057,36.08,-96.97,,Census,US County,OK,"Payne County, Oklahoma",0,0,0,0,0,0,0,0,0,0,7215,20909,23735,30180,36905.0,36057,46430,44231.0,50654.0,62435.0,61507.0,68190.0,77350.0
23819,7982,US,130494,36.915,-94.6702777778,,Census,Town,OK,"Peoria, Oklahoma",0,0,0,0,0,0,0,0,0,0,0,144,135,166,189.0,227,201,156.0,179.0,165.0,136.0,141.0,132.0
23823,15773,US,130214,34.6438888889,-97.1647222222,,Census,City,OK,"Wynnewood, Oklahoma",0,0,0,0,0,0,0,0,0,0,0,1907,2002,2200,1820.0,2318,2423,2509.0,2374.0,2615.0,2451.0,2367.0,2212.0
23862,12772,US,130623,36.8613888889,-101.213888889,,Census,City,OK,"Hooker, Oklahoma",0,0,0,0,0,0,0,0,0,0,0,0,525,946,1682.0,1146,1842,1684.0,1615.0,1788.0,1551.0,1788.0,1918.0
23903,7264,US,130632,34.5071127,-98.9809107,,Census,Town,OK,"Manitou, Oklahoma",0,0,0,0,0,0,0,0,0,0,0,0,267,335,323.0,258,293,269.0,308.0,322.0,244.0,278.0,181.0
23905,10206,US,130303,34.9183333333,-95.3105555556,,Census,City,OK,"Wilburton, Oklahoma",0,0,0,0,0,0,0,0,0,0,0,0,2277,2226,1524.0,1925,1939,1772.0,2504.0,2996.0,3092.0,2972.0,2843.0
23940,25124,US,92045,36.75,-101.48,,Census,US County,OK,"Texas County, Oklahoma",0,0,0,0,0,0,0,0,0,0,0,0,14249,13975,14100.0,9896,14235,14162.0,16352.0,17727.0,16419.0,20107.0,20640.0
24016,6709,US,130437,35.3580555556,-96.3883333333,,Census,Town,OK,"Bearden, Oklahoma",0,0,0,0,0,0,0,0,0,0,0,0,0,0,0.0,0,0,0.0,0.0,0.0,142.0,140.0,133.0
24028,11613,US,130282,34.2355555556,-96.6775,,Census,City,OK,"Tishomingo, Oklahoma",0,0,0,0,0,0,0,0,0,0,0,0,1408,1871,1281.0,1951,2325,2381.0,2663.0,3212.0,3116.0,2987.0,3034.0
24034,10734,US,130015,36.1077777778,-94.5713888889,,Census,Town,OK,"Watts, Oklahoma",0,0,0,0,0,0,0,0,0,0,0,0,0,396,353.0,307,267,268.0,326.0,316.0,303.0,316.0,324.0
24051,9211,US,130249,35.2533333333,-95.2377777778,,Census,Town,OK,"Whitefield, Oklahoma",0,0,0,0,0,0,0,0,0,0,0,0,0,0,0.0,0,0,0.0,0.0,240.0,253.0,231.0,391.0
24251,7184,US,130258,34.9008333333,-96.1,,Census,Town,OK,"Stuart, Oklahoma",0,0,0,0,0,0,0,0,0,0,0,0,0,0,535.0,340,303,271.0,294.0,235.0,228.0,2758.0,180.0
24261,7700,US,130260,35.1572222222,-96.3402777778,,Census,Town,OK,"Yeager, Oklahoma",0,0,0,0,0,0,0,0,0,0,0,0,231,286,300.0,284,180,129.0,107.0,138.0,40.0,67.0,75.0
24310,8033,US,130499,36.3716666667,-96.5963888889,,Census,Town,OK,"Blackburn, Oklahoma",0,0,0,0,0,0,0,0,0,0,0,0,335,257,219.0,198,135,129.0,88.0,114.0,110.0,102.0,108.0
24400,13687,US,130143,35.8308333333,-96.3905555556,,Census,City,OK,"Bristow, Oklahoma",0,0,0,0,0,0,0,0,0,0,0,626,1667,3460,6630.0,6050,5400,4795.0,4653.0,4702.0,4062.0,4325.0,4222.0
24460,8083,US,130294,34.8661111111,-98.87,,Census,Town,OK,"Cooperton, Oklahoma",0,0,0,0,0,0,0,0,0,0,0,0,100,105,151.0,187,129,106.0,55.0,31.0,15.0,20.0,16.0
24467,7348,US,130220,34.9569444444,-97.935,,Census,Town,OK,"Ninnekah, Oklahoma",0,0,0,0,0,0,0,0,0,0,0,0,0,0,0.0,0,0,0.0,0.0,0.0,0.0,994.0,1002.0
24515,7397,US,130211,34.8269444444,-97.2611111111,,Census,Town,OK,"Paoli, Oklahoma",0,0,0,0,0,0,0,0,0,0,0,234,239,363,394.0,423,353,358.0,480.0,573.0,574.0,649.0,610.0
24669,8301,US,130436,36.915,-95.805,,Census,Town,OK,"Wann, Oklahoma",0,0,0,0,0,0,0,0,0,0,0,0,286,404,168.0,147,99,157.0,135.0,156.0,126.0,132.0,125.0
24711,8997,US,130226,36.8052777778,-97.5191666667,,Census,Town,OK,"Deer Creek, Oklahoma",0,0,0,0,0,0,0,0,0,0,0,0,166,218,312.0,250,209,215.0,203.0,174.0,124.0,147.0,130.0
24765,8017,US,130318,35.1286111111,-94.6597222222,,Census,Town,OK,"Shady Point, Oklahoma",0,0,0,0,0,0,0,0,0,0,0,0,0,0,0.0,0,0,0.0,0.0,235.0,597.0,848.0,1026.0
24813,32636,US,130447,35.4427777778,-97.4411111111,,Census,City,OK,"Del City, Oklahoma",0,0,0,0,0,0,0,0,0,0,0,0,0,0,0.0,0,2504,12934.0,27133.0,28523.0,23928.0,22128.0,21332.0
24860,10134,US,130289,36.6802777778,-97.3091666667,,Census,City,OK,"Tonkawa, Oklahoma",0,0,0,0,0,0,0,0,0,0,0,707,1776,1448,3311.0,3197,3643,3415.0,3337.0,3524.0,3127.0,3162.0,3216.0
24938,6554,US,130327,35.7852777778,-96.7752777778,,Census,Town,OK,"Kendrick, Oklahoma",0,0,0,0,0,0,0,0,0,0,0,0,0,255,270.0,256,172,155.0,126.0,132.0,171.0,138.0,139.0
25022,22108,US,92079,34.92,-98.98,,Census,US County,OK,"Kiowa County, Oklahoma",0,0,0,0,0,0,0,0,0,0,0,0,27526,23094,29630.0,22817,18926,14825.0,12532.0,12711.0,11347.0,10227.0,9446.0
25060,9701,US,130058,33.7691666667,-96.3536111111,,Census,Town,OK,"Kemp, Oklahoma",0,0,0,0,0,0,0,0,0,0,0,221,336,396,186.0,204,158,153.0,153.0,178.0,138.0,144.0,133.0
25090,6544,US,130228,36.6911111111,-97.5588888889,,Census,Town,OK,"Lamont, Oklahoma",0,0,0,0,0,0,0,0,0,0,0,0,593,586,554.0,577,594,543.0,478.0,571.0,454.0,465.0,417.0
25156,7260,US,130184,35.9313888889,-98.7058333333,,Census,Town,OK,"Oakwood, Oklahoma",0,0,0,0,0,0,0,0,0,0,0,0,199,224,266.0,233,161,122.0,129.0,140.0,107.0,72.0,65.0
25228,25672,US,92113,33.97,-96.25,,Census,US County,OK,"Bryan County, Oklahoma",0,0,0,0,0,0,0,0,0,0,0,0,29854,40700,32277.0,38138,28999,24252.0,25552.0,30535.0,32089.0,36534.0,42416.0
25387,17376,US,130605,35.4580555556,-94.7944444444,,Census,City,OK,"Sallisaw, Oklahoma",0,0,0,0,0,0,0,0,0,0,0,965,2479,2225,1785.0,2140,2885,3351.0,4888.0,6403.0,7122.0,7989.0,8880.0
25420,23446,US,92097,36.41,-94.8,,Census,US County,OK,"Delaware County, Oklahoma",0,0,0,0,0,0,0,0,0,0,0,0,11469,13868,15370.0,18592,14734,13198.0,17767.0,23946.0,28070.0,37077.0,41487.0
25429,8693,US,130657,35.35,-98.6666666667,,Census,Town,OK,"Colony, Oklahoma",0,0,0,0,0,0,0,0,0,0,0,0,0,0,0.0,0,0,0.0,201.0,185.0,163.0,147.0,136.0
25464,7776,US,130423,35.4941666667,-95.3080555556,,Census,Town,OK,"Warner, Oklahoma",0,0,0,0,0,0,0,0,0,0,0,0,0,318,316.0,391,382,881.0,1217.0,1310.0,1479.0,1430.0,1641.0
25469,7040,US,130355,34.0994444444,-96.7933333333,,Census,Town,OK,"Oakland, Oklahoma",0,0,0,0,0,0,0,0,0,0,0,701,366,420,248.0,311,293,288.0,317.0,485.0,602.0,674.0,1057.0
25530,11970,US,130329,35.4861111111,-96.6877777778,,Census,City,OK,"Prague, Oklahoma",0,0,0,0,0,0,0,0,0,0,0,0,1025,1127,1299.0,1422,1546,1545.0,1802.0,2208.0,2308.0,2138.0,2386.0
25771,24309,US,92112,35.18,-98.38,,Census,US County,OK,"Caddo County, Oklahoma",0,0,0,0,0,0,0,0,0,0,0,0,35685,34207,50779.0,41567,34913,28621.0,28931.0,30905.0,29550.0,30150.0,29600.0
25803,9428,US,130671,36.4375,-99.2055555556,,Census,Town,OK,"Mooreland, Oklahoma",0,0,0,0,0,0,0,0,0,0,0,0,493,592,706.0,811,867,871.0,1196.0,1383.0,1157.0,1226.0,1190.0
25822,8229,US,130033,34.3194444444,-96.1663888889,,Census,Town,OK,"Tushka, Oklahoma",0,0,0,0,0,0,0,0,0,0,0,0,0,0,0.0,0,0,0.0,230.0,358.0,256.0,377.0,312.0
25841,12489,US,150973,36.3672222222,-95.8397222222,,Census,City,OK,"Collinsville, Oklahoma",0,0,0,0,0,0,0,0,0,0,0,376,1324,3801,2249.0,1927,2011,2526.0,3009.0,3563.0,3612.0,4077.0,5606.0
25903,19152,US,130469,35.6244444444,-95.9633333333,,Census,City,OK,"Okmulgee, Oklahoma",0,0,0,0,0,0,0,0,0,0,0,0,4176,17430,17097.0,16051,18317,15951.0,15180.0,16263.0,13441.0,13022.0,12321.0
25915,7350,US,130548,35.0744444444,-96.8494444444,,Census,Town,OK,"St. Louis, Oklahoma",0,0,0,0,0,0,0,0,0,0,0,0,0,0,493.0,326,290,76.0,207.0,109.0,181.0,206.0,158.0
25983,10091,US,130070,34.8980555556,-98.2027777778,,Census,Town,OK,"Cyril, Oklahoma",0,0,0,0,0,0,0,0,0,0,0,0,0,386,922.0,972,998,1284.0,1302.0,1220.0,1072.0,1168.0,1059.0
26017,6506,US,130532,34.8333333333,-95.8388888889,,Census,Town,OK,"Savanna, Oklahoma",0,0,0,0,0,0,0,0,0,0,0,0,0,0,0.0,0,0,620.0,948.0,828.0,869.0,730.0,686.0
26019,22590,US,92041,36.747206,-95.980597,,Census,US County,OK,"Washington County, Oklahoma",0,0,0,0,0,0,0,0,0,0,0,0,17484,27002,27777.0,30559,32880,42347.0,42277.0,48113.0,48066.0,48996.0,50976.0
26135,10007,US,130425,36.535,-97.4294444444,,Census,Town,OK,"Billings, Oklahoma",0,0,0,0,0,0,0,0,0,0,0,406,524,846,658.0,661,620,510.0,618.0,632.0,555.0,436.0,509.0
26213,6768,US,130627,34.2413888889,-99.0775,,Census,Town,OK,"Davidson, Oklahoma",0,0,0,0,0,0,0,0,0,0,0,0,361,461,572.0,507,490,429.0,515.0,501.0,473.0,375.0,315.0
26310,6782,US,130221,34.9886111111,-97.9961111111,,Census,Town,OK,"Norge, Oklahoma",0,0,0,0,0,0,0,0,0,0,0,0,0,0,0.0,0,0,0.0,0.0,87.0,97.0,82.0,145.0
26398,8288,US,17296797,35.8572222222,-95.9691666667,"[[y2014,218]]",Census,Town,OK,"Liberty, Oklahoma",0,0,0,0,0,0,0,0,0,0,0,0,0,0,0.0,0,0,0.0,0.0,19.0,155.0,184.0,220.0
26438,6327,US,130379,36.4111111111,-95.1330555556,,Census,Town,OK,"Strang, Oklahoma",0,0,0,0,0,0,0,0,0,0,0,0,0,0,286.0,283,201,176.0,164.0,126.0,141.0,465.0,89.0
26522,9855,US,130402,35.5252777778,-95.4919444444,,Census,Town,OK,"Rentiesville, Oklahoma",0,0,0,0,0,0,0,0,0,0,0,0,411,255,154.0,180,156,122.0,96.0,78.0,66.0,102.0,128.0
26541,7704,US,130197,36.3011111111,-98.0358333333,,Census,Town,OK,"Drummond, Oklahoma",0,0,0,0,0,0,0,0,0,0,0,637,0,292,254.0,245,314,281.0,326.0,482.0,408.0,405.0,455.0
26564,8961,US,130082,34.1922222222,-96.9911111111,,Census,Town,OK,"Dickson, Oklahoma",0,0,0,0,0,0,0,0,0,0,0,0,0,0,0.0,0,0,0.0,798.0,996.0,942.0,1139.0,1207.0
26589,16806,US,130527,34.9294444444,-95.7211111111,,Census,City,OK,"Krebs, Oklahoma",0,0,0,0,0,0,0,0,0,0,0,0,2884,2078,1375.0,1436,1532,1342.0,1515.0,1754.0,1955.0,2051.0,2053.0
26696,13781,US,130296,35.0263888889,-99.0908333333,,Census,City,OK,"Hobart, Oklahoma",0,0,0,0,0,0,0,0,0,0,0,0,3845,2936,4982.0,5380,5132,5132.0,4638.0,4735.0,4305.0,3997.0,3756.0
26776,22720,US,92061,35.64,-95.97,,Census,US County,OK,"Okmulgee County, Oklahoma",0,0,0,0,0,0,0,0,0,0,0,0,21115,55072,56558.0,50101,44561,36945.0,35358.0,39169.0,36490.0,39685.0,40069.0
26788,9932,US,130346,33.9355555556,-97.12,,Census,City,OK,"Marietta, Oklahoma",0,0,0,0,0,0,0,0,0,0,0,842,1546,1977,1505.0,1837,1875,1933.0,2013.0,2494.0,2306.0,2445.0,2626.0
26834,19934,US,130491,36.8836111111,-94.8761111111,,Census,City,OK,"Miami, Oklahoma",0,0,0,0,0,0,0,0,0,0,0,1527,2907,6802,8064.0,8345,11801,12869.0,13880.0,14237.0,13142.0,13704.0,13570.0
26841,30565,US,92060,,,,Census,US County,OK,"Osage County, Oklahoma",0,0,0,0,0,0,0,0,0,0,0,0,20101,36536,47334.0,41502,33071,32441.0,29750.0,39327.0,41645.0,44437.0,47472.0
26869,11830,US,130023,36.9019444444,-98.2938888889,,Census,Town,OK,"Byron, Oklahoma",0,0,0,0,0,0,0,0,0,0,0,0,286,249,197.0,177,131,82.0,72.0,67.0,57.0,45.0,35.0
27000,12339,US,130619,36.5933333333,-101.629722222,,Census,Town,OK,"Goodwell, Oklahoma",0,0,0,0,0,0,0,0,0,0,0,0,0,0,501.0,360,714,771.0,1467.0,1186.0,1065.0,1192.0,1293.0
