,article_length,country,id,lat,lon,other_years,poptype,settlement_type,state,title,y1790,y1800,y1810,y1820,y1830,y1840,y1850,y1860,y1870,y1880,y1890,y1900,y1910,y1920,y1930,y1940,y1950,y1960,y1970,y1980,y1990,y2000,y2010
71,16036,US,130764,44.3908333333,-118.948888889,,Census,City,OR,"Canyon City, Oregon",0,0,0,0,0,0,0,0,250,393,304,345,364,354,268.0,312,508,654.0,600.0,639.0,648.0,669.0,703.0
284,13486,US,130916,45.8958333333,-119.492777778,,Census,City,OR,"Irrigon, Oregon",0,0,0,0,0,0,0,0,0,0,0,0,125,115,65.0,0,75,232.0,261.0,700.0,737.0,1702.0,1826.0
332,31162,US,130789,45.7066666667,-121.521666667,,Census,City,OR,"Hood River, Oregon",0,0,0,0,0,0,0,0,0,200,201,766,2331,3195,2757.0,3280,3701,3657.0,3991.0,4329.0,4632.0,5831.0,7167.0
382,10393,US,130924,45.535,-122.418611111,,Census,City,OR,"Wood Village, Oregon",0,0,0,0,0,0,0,0,0,0,0,0,0,0,0.0,0,0,822.0,1533.0,2253.0,2814.0,2860.0,3878.0
448,13618,US,130877,43.7397222222,-117.070833333,,Census,City,OR,"Adrian, Oregon",0,0,0,0,0,0,0,0,0,0,0,0,0,0,0.0,0,0,0.0,0.0,162.0,131.0,147.0,177.0
595,15515,US,130995,45.0030555556,-120.753055556,,Census,City,OR,"Shaniko, Oregon",0,0,0,0,0,0,0,0,0,0,0,72,495,124,100.0,55,61,39.0,58.0,30.0,26.0,26.0,36.0
601,11270,US,130813,42.4336111111,-123.054444444,,Census,City,OR,"Gold Hill, Oregon",0,0,0,0,0,0,0,0,0,0,0,385,0,422,502.0,0,619,608.0,603.0,904.0,964.0,1073.0,1220.0
688,16182,US,130753,42.9516666667,-123.365,,Census,City,OR,"Riddle, Oregon",0,0,0,0,0,0,0,0,0,0,0,131,187,268,195.0,214,634,992.0,1042.0,1265.0,1143.0,1014.0,1185.0
714,15234,US,130973,45.2963888889,-117.808055556,,Census,City,OR,"Cove, Oregon",0,0,0,0,0,0,0,0,0,0,223,0,433,399,307.0,321,282,311.0,363.0,451.0,507.0,594.0,552.0
803,23597,US,48964,45.4277777778,-122.778888889,,Census,City,OR,"Tigard, Oregon",0,0,0,0,0,0,0,0,0,0,0,0,0,0,0.0,0,0,0.0,6499.0,14799.0,29344.0,42249.0,48035.0
1017,25390,US,91991,44.73,-120.02,,Census,US County,OR,"Wheeler County, Oregon",0,0,0,0,0,0,0,0,0,0,0,2443,2484,2791,2799.0,2974,3313,2722.0,1849.0,1513.0,1396.0,1547.0,1441.0
1136,14334,US,131002,45.5186111111,-123.055277778,,Census,City,OR,"Cornelius, Oregon",0,0,0,0,0,0,0,0,0,0,0,246,459,282,265.0,637,998,1146.0,1903.0,4462.0,6148.0,9652.0,11869.0
1182,9981,US,130783,43.5591666667,-119.083333333,,Census,City,OR,"Hines, Oregon",0,0,0,0,0,0,0,0,0,0,0,0,0,0,0.0,677,918,1207.0,1407.0,1632.0,1452.0,1664.0,1563.0
1304,16662,US,150989,45.0766666667,-123.485,,Census,City,OR,"Willamina, Oregon",0,0,0,0,0,0,0,0,0,68,0,0,376,247,360.0,677,1082,960.0,1193.0,1749.0,1717.0,1844.0,2025.0
1465,10257,US,130951,45.6133333333,-123.942777778,,Census,City,OR,"Rockaway Beach, Oregon",0,0,0,0,0,0,0,0,0,0,0,0,0,0,0.0,0,1027,771.0,665.0,906.0,970.0,1267.0,1312.0
1481,14739,US,130705,46.165,-123.924166667,,Census,City,OR,"Warrenton, Oregon",0,0,0,0,0,0,0,0,0,0,0,332,339,730,683.0,1365,1896,1717.0,1825.0,2493.0,2681.0,4096.0,4989.0
1491,16227,US,130738,43.6616666667,-123.314722222,,Census,City,OR,"Drain, Oregon",0,0,0,0,0,0,0,0,0,188,0,193,335,607,497.0,597,1150,1052.0,1204.0,1148.0,1011.0,1021.0,1151.0
1545,21182,US,130841,43.9841666667,-124.103055556,,Census,City,OR,"Florence, Oregon",0,0,0,0,0,0,0,0,0,68,0,222,311,317,339.0,458,1026,1642.0,2246.0,4411.0,5162.0,7263.0,8466.0
1640,15433,US,130853,44.05,-123.3525,,Census,City,OR,"Veneta, Oregon",0,0,0,0,0,0,0,0,0,0,0,0,0,0,0.0,0,0,0.0,1377.0,2449.0,2519.0,2755.0,4561.0
1775,30217,US,91995,,,,Census,US County,OR,"Umatilla County, Oregon",0,0,0,0,0,0,0,0,2916,9607,13381,18049,20309,25946,24399.0,26030,41703,44352.0,44923.0,58861.0,59249.0,70548.0,75889.0
1864,10033,US,2114932,45.5286111111,-122.911111111,,Census,Neighborhood,OR,"Orenco, Oregon",0,0,0,0,0,0,0,0,0,0,0,0,75,335,0.0,0,313,400.0,200.0,450.0,450.0,0.0,0.0
1966,150870,US,26811621,,,,Census,US State,OR,Oregon,0,0,0,0,0,0,12093,52465,90923,174768,317704,413536,672765,783389,953786.0,1089684,1521341,1768687.0,2091533.0,2633156.0,2842321.0,3421399.0,3831074.0
1989,11058,US,130979,45.4891666667,-118.002777778,,Census,City,OR,"Summerville, Oregon",0,0,0,0,0,0,0,0,0,0,280,184,237,116,116.0,80,73,76.0,76.0,143.0,111.0,117.0,135.0
2086,19739,US,130677,44.8783333333,-117.110555556,,Census,City,OR,"Halfway, Oregon",0,0,0,0,0,0,0,0,0,0,0,0,186,324,351.0,416,312,505.0,317.0,380.0,311.0,339.0,288.0
2105,15135,US,130879,43.8791666667,-116.996944444,,Census,City,OR,"Nyssa, Oregon",0,0,0,0,0,0,0,0,0,0,0,0,449,563,821.0,1855,2525,2611.0,2620.0,2862.0,2629.0,3163.0,3267.0
2136,12792,US,130722,43.0647222222,-124.138888889,,Census,City,OR,"Myrtle Point, Oregon",0,0,0,0,0,0,0,0,0,52,354,530,836,934,1362.0,1296,2033,2886.0,2511.0,2859.0,2712.0,2514.0,2451.0
2174,18963,US,130908,45.2112295,-122.9767662,,Census,City,OR,"St. Paul, Oregon",0,0,0,0,0,0,0,0,0,0,0,0,103,160,148.0,183,226,254.0,347.0,312.0,322.0,354.0,421.0
2339,11875,US,130744,43.4227777778,-123.296944444,,Census,City,OR,"Oakland, Oregon",0,0,0,0,0,0,0,0,0,369,339,368,467,516,421.0,367,829,856.0,1010.0,886.0,844.0,954.0,927.0
2346,9538,US,130866,44.3844444444,-123.110277778,,Census,City,OR,"Halsey, Oregon",0,0,0,0,0,0,0,0,0,306,270,294,337,339,300.0,305,388,404.0,467.0,693.0,667.0,724.0,904.0
2394,24562,US,91997,45.41,-120.69,,Census,US County,OR,"Sherman County, Oregon",0,0,0,0,0,0,0,0,0,0,1792,3477,4242,3826,2978.0,2321,2271,2446.0,2139.0,2172.0,1918.0,1934.0,1765.0
2530,10259,US,130820,42.4333333333,-122.833888889,,Census,Census-designated place (cdp),OR,"White City, Oregon",0,0,0,0,0,0,0,0,0,0,0,0,0,0,0.0,0,0,0.0,0.0,0.0,0.0,0.0,0.0
2622,17418,US,130971,45.9172222222,-119.3425,,Census,City,OR,"Umatilla, Oregon",0,0,0,0,0,0,0,0,150,149,118,127,198,390,345.0,370,883,617.0,679.0,3199.0,3046.0,4978.0,6906.0
2767,11827,US,130759,43.1216666667,-123.4175,,Census,City,OR,"Winston, Oregon",0,0,0,0,0,0,0,0,0,0,0,0,0,0,0.0,0,0,2395.0,2468.0,3359.0,3773.0,4613.0,5379.0
2835,8178,US,130829,42.2025,-121.726388889,,Census,Census-designated place (cdp),OR,"Altamont, Oregon",0,0,0,0,0,0,0,0,0,0,0,0,0,0,0.0,0,9419,10811.0,15746.0,19805.0,18591.0,19603.0,19257.0
2840,20478,US,130859,44.6,-124.05,,Census,City,OR,"Newport, Oregon",0,0,0,0,0,0,0,0,0,52,121,256,721,980,1530.0,2019,3241,5344.0,5188.0,7519.0,8437.0,9532.0,9989.0
2966,12117,US,130960,45.8508333333,-118.658333333,,Census,City,OR,"Helix, Oregon",0,0,0,0,0,0,0,0,0,0,0,0,109,200,193.0,121,182,148.0,152.0,155.0,150.0,183.0,184.0
2971,18778,US,130745,43.6988888889,-124.112222222,,Census,City,OR,"Reedsport, Oregon",0,0,0,0,0,0,0,0,0,0,0,0,0,850,1178.0,1421,2288,2998.0,4039.0,4984.0,4796.0,4378.0,4154.0
3139,9283,US,130895,45.2219444444,-122.840277778,,Census,City,OR,"Donald, Oregon",0,0,0,0,0,0,0,0,0,0,0,0,0,126,114.0,164,187,201.0,231.0,267.0,316.0,612.0,979.0
3504,13595,US,130983,45.3508333333,-117.230277778,,Census,City,OR,"Joseph, Oregon",0,0,0,0,0,0,0,0,0,0,249,237,725,770,504.0,593,666,788.0,839.0,999.0,1073.0,1055.0,1081.0
3690,11398,US,130890,44.8447222222,-122.871388889,,Census,City,OR,"Aumsville, Oregon",0,0,0,0,0,0,0,0,0,0,0,0,0,171,153.0,0,281,300.0,590.0,1432.0,1650.0,3003.0,3584.0
3691,22139,US,130874,44.4005555556,-122.715833333,,Census,City,OR,"Sweet Home, Oregon",0,0,0,0,0,0,0,0,0,0,0,0,202,175,189.0,1090,3603,3353.0,3799.0,6921.0,6850.0,8016.0,8925.0
3804,15329,US,130724,42.8833333333,-124.073055556,,Census,City,OR,"Powers, Oregon",0,0,0,0,0,0,0,0,0,0,0,0,0,160,0.0,0,895,1366.0,842.0,819.0,682.0,734.0,689.0
3934,31012,US,92032,43.18,-124.09,,Census,US County,OR,"Coos County, Oregon",0,0,0,0,0,0,0,445,1644,4834,8874,10324,17959,22257,28373.0,32466,42265,54955.0,56515.0,64047.0,60273.0,62779.0,63043.0
4095,10008,US,130721,43.5788888889,-124.174444444,,Census,City,OR,"Lakeside, Oregon",0,0,0,0,0,0,0,0,0,0,0,0,125,92,0.0,134,150,350.0,900.0,1453.0,1437.0,1371.0,1699.0
4106,14142,US,130963,45.9363888889,-118.390833333,,Census,City,OR,"Milton-Freewater, Oregon",0,0,0,0,0,0,0,0,0,0,0,0,0,0,0.0,0,0,4110.0,4105.0,5086.0,5533.0,6470.0,7050.0
4215,91298,US,131007,45.5166666667,-122.983333333,,Census,City,OR,"Hillsboro, Oregon",0,0,0,0,0,0,0,0,0,402,1246,980,2016,2468,3039.0,3747,5142,8232.0,15365.0,27664.0,37598.0,70187.0,91611.0
4367,28235,US,92029,42.48,-124.136666667,,Census,US County,OR,"Curry County, Oregon",0,0,0,0,0,0,0,393,504,1208,1709,1868,2044,3025,3257.0,4301,6048,13983.0,13006.0,16992.0,19327.0,21137.0,22364.0
4398,8517,US,130954,45.6880555556,-123.883055556,,Census,City,OR,"Wheeler, Oregon",0,0,0,0,0,0,0,0,0,0,0,0,0,0,280.0,259,291,237.0,262.0,319.0,335.0,391.0,414.0
4453,15562,US,130729,42.7497222222,-124.498055556,,Census,City,OR,"Port Orford, Oregon",0,0,0,0,0,0,0,146,100,0,108,227,227,217,300.0,755,674,1171.0,1037.0,1061.0,1025.0,1153.0,1133.0
4516,7779,US,130735,44.3491666667,-121.18,,Census,Census-designated place,OR,"Terrebonne, Oregon",0,0,0,0,0,0,0,0,0,0,0,0,0,0,75.0,0,198,378.0,521.0,900.0,1143.0,1469.0,1257.0
4531,29197,US,92030,44.13,-120.36,,Census,US County,OR,"Crook County, Oregon",0,0,0,0,0,0,0,0,0,0,3244,3964,9315,3424,3336.0,5533,8991,9430.0,9985.0,13091.0,14111.0,19182.0,20978.0
4662,11580,US,689479,42.3977777778,-121.040555556,,Census,Unincorporated community,OR,"Bly, Oregon",0,0,0,0,0,0,0,0,0,0,0,0,100,100,0.0,800,800,600.0,500.0,750.0,750.0,0.0,0.0
4753,11751,US,130732,43.7191666667,-121.528055556,,Census,City,OR,"La Pine, Oregon",0,0,0,0,0,0,0,0,0,0,0,0,0,0,0.0,0,0,0.0,0.0,0.0,0.0,0.0,1653.0
5021,83818,US,150979,44.6302777778,-123.096111111,,Census,City,OR,"Albany, Oregon",0,0,0,0,0,0,0,0,1292,1867,3079,3149,4275,4840,5325.0,5654,10115,12926.0,18181.0,26546.0,29462.0,40852.0,50158.0
5084,19939,US,130822,44.6305555556,-121.129166667,,Census,City,OR,"Madras, Oregon",0,0,0,0,0,0,0,0,0,0,0,0,364,337,291.0,412,1258,1515.0,1689.0,2235.0,3443.0,5078.0,6046.0
5091,13085,US,130915,45.5008333333,-119.824444444,,Census,City,OR,"Ione, Oregon",0,0,0,0,0,0,0,0,0,0,0,223,239,439,283.0,262,262,350.0,355.0,345.0,255.0,321.0,329.0
5206,10316,US,130685,44.3161111111,-123.299722222,,Census,City,OR,"Monroe, Oregon",0,0,0,0,0,0,0,0,0,135,0,0,0,191,227.0,311,362,374.0,443.0,412.0,448.0,607.0,617.0
5211,25940,US,130977,45.3272222222,-118.093333333,,Census,City,OR,"La Grande, Oregon",0,0,0,0,0,0,0,0,240,400,2583,2991,4843,6913,8050.0,7747,8635,9014.0,9645.0,11354.0,11766.0,12327.0,13082.0
5309,15784,US,130816,42.2744444444,-122.818611111,,Census,City,OR,"Phoenix, Oregon",0,0,0,0,0,0,0,0,0,277,0,0,250,159,439.0,432,746,769.0,1287.0,2309.0,3239.0,4061.0,4538.0
5492,7644,US,130824,44.7602777778,-121.268333333,,Census,Census-designated place (cdp),OR,"Warm Springs, Oregon",0,0,0,0,0,0,0,0,0,0,0,0,0,0,50.0,150,550,450.0,550.0,500.0,2287.0,2431.0,0.0
5667,7102,US,26058941,44.6019444444,-124.008611111,,Census,Unincorporated community,OR,"Yaquina, Oregon",0,0,0,0,0,0,0,0,0,0,0,268,289,310,88.0,0,0,0.0,0.0,0.0,0.0,0.0,0.0
5893,15514,US,130706,46.1030555556,-123.203611111,,Census,City,OR,"Clatskanie, Oregon",0,0,0,0,0,0,0,0,0,0,212,311,747,1171,739.0,708,901,797.0,1286.0,1648.0,1629.0,1528.0,1737.0
5904,40812,US,131026,45.2116666667,-123.197222222,,Census,City,OR,"McMinnville, Oregon",0,0,0,0,0,0,0,0,388,670,1368,1420,2400,2767,2917.0,3706,6635,7656.0,10125.0,14080.0,17894.0,26499.0,32187.0
6193,63695,US,150983,45.3066666667,-122.766388889,,Census,City,OR,"Wilsonville, Oregon",0,0,0,0,0,0,0,0,0,0,0,0,0,0,0.0,0,0,0.0,1001.0,2920.0,7106.0,13991.0,19509.0
6203,11287,US,130891,45.2302777778,-122.755277778,,Census,City,OR,"Aurora, Oregon",0,0,0,0,0,0,0,0,0,0,0,122,190,229,215.0,228,242,274.0,306.0,523.0,567.0,655.0,918.0
6266,44620,US,130832,42.225,-121.781666667,,Census,City,OR,"Klamath Falls, Oregon",0,0,0,0,0,0,0,0,0,250,364,447,2758,4801,16093.0,16497,15875,16949.0,15775.0,16661.0,17737.0,19480.0,20840.0
6324,16419,US,130734,44.2908333333,-121.548888889,,Census,City,OR,"Sisters, Oregon",0,0,0,0,0,0,0,0,0,0,0,0,0,0,0.0,0,723,602.0,516.0,696.0,679.0,959.0,2038.0
6675,13610,US,130770,44.82,-119.420833333,,Census,City,OR,"Monument, Oregon",0,0,0,0,0,0,0,0,0,0,0,0,119,147,97.0,118,228,214.0,161.0,192.0,162.0,151.0,128.0
6683,12160,US,150988,44.7519444444,-122.478333333,,Census,City,OR,"Mill City, Oregon",0,0,0,0,0,0,0,0,0,0,0,0,0,0,0.0,0,1792,1289.0,1451.0,1565.0,1555.0,1537.0,1855.0
6900,31234,US,91996,45.46,-123.7,,Census,US County,OR,"Tillamook County, Oregon",0,0,0,0,0,0,0,95,408,970,2932,4471,6266,8810,11824.0,12263,18606,18955.0,17930.0,21164.0,21570.0,24262.0,25250.0
6901,10637,US,131008,45.4011111111,-122.803055556,,Census,City,OR,"King City, Oregon",0,0,0,0,0,0,0,0,0,0,0,0,0,0,0.0,0,0,0.0,1427.0,1853.0,2060.0,1949.0,3111.0
7169,24034,US,130838,43.7947222222,-123.0525,,Census,City,OR,"Cottage Grove, Oregon",0,0,0,0,0,0,0,0,0,0,0,974,1834,1919,2473.0,2626,3536,3895.0,6004.0,7148.0,7402.0,8432.0,9686.0
7179,13701,US,130837,44.1372222222,-123.063611111,,Census,City,OR,"Coburg, Oregon",0,0,0,0,0,0,0,0,0,0,0,0,613,270,263.0,456,693,754.0,713.0,699.0,763.0,969.0,1035.0
7295,9355,US,130976,45.3386111111,-118.047222222,,Census,City,OR,"Island City, Oregon",0,0,0,0,0,0,0,0,0,0,0,0,166,141,116.0,177,138,158.0,202.0,477.0,696.0,916.0,989.0
7430,13992,US,130862,44.6213888889,-123.938333333,,Census,City,OR,"Toledo, Oregon",0,0,0,0,0,0,0,0,0,0,0,302,541,678,2187.0,2288,2323,3053.0,2818.0,3151.0,3174.0,3472.0,3465.0
7588,11799,US,130998,45.4902777778,-122.871944444,,Census,Census-designated place (cdp),OR,"Aloha, Oregon",0,0,0,0,0,0,0,0,0,0,0,0,0,0,0.0,0,0,0.0,0.0,28353.0,34284.0,41741.0,49425.0
7606,31257,US,92024,43.91,-121.22,,Census,US County,OR,"Deschutes County, Oregon",0,0,0,0,0,0,0,0,0,0,0,0,0,9622,14749.0,18631,21812,23100.0,30442.0,62142.0,74958.0,115367.0,157733.0
7729,25356,US,92010,44.63,-121.17,,Census,US County,OR,"Jefferson County, Oregon",0,0,0,0,0,0,0,0,0,0,0,0,0,3211,2291.0,2042,5536,7130.0,8548.0,11599.0,13676.0,19009.0,21720.0
7908,14166,US,130868,44.5330555556,-122.907777778,,Census,City,OR,"Lebanon, Oregon",0,0,0,0,0,0,0,0,0,270,829,922,1820,1805,1851.0,2729,5873,5858.0,6636.0,10413.0,10950.0,12950.0,15518.0
8064,16343,US,130778,44.1355555556,-118.971944444,,Census,City,OR,"Seneca, Oregon",0,0,0,0,0,0,0,0,0,0,0,0,0,0,0.0,0,0,0.0,0.0,285.0,191.0,223.0,199.0
8202,12384,US,130935,45.485,-120.732222222,,Census,City,OR,"Moro, Oregon",0,0,0,0,0,0,0,0,0,0,0,335,378,418,352.0,309,359,327.0,290.0,336.0,292.0,337.0,324.0
8318,18553,US,130901,45.0005555556,-123.021944444,,Census,City,OR,"Keizer, Oregon",0,0,0,0,0,0,0,0,0,0,0,0,0,0,0.0,0,0,0.0,0.0,0.0,21884.0,32203.0,36478.0
8712,9973,US,130934,45.3591666667,-120.785555556,,Census,City,OR,"Grass Valley, Oregon",0,0,0,0,0,0,0,0,0,0,0,0,342,317,208.0,204,195,234.0,153.0,164.0,160.0,171.0,164.0
8738,10014,US,130687,45.2522222222,-122.721388889,,Census,City,OR,"Barlow, Oregon",0,0,0,0,0,0,0,0,0,0,0,0,69,42,40.0,52,75,85.0,105.0,105.0,118.0,140.0,135.0
8837,9039,US,130872,44.4838888889,-122.868611111,,Census,City,OR,"Sodaville, Oregon",0,0,0,0,0,0,0,0,0,56,66,178,110,72,77.0,99,157,145.0,178.0,145.0,192.0,290.0,308.0
8986,5449,US,18607434,41.9941666667,-120.297222222,,Census,Unincorporated community &amp; census-designated place (cdp),OR,"New Pine Creek, Oregon",0,0,0,0,0,0,0,0,0,0,65,111,175,318,142.0,0,0,0.0,0.0,0.0,0.0,0.0,0.0
9058,10298,US,5978239,42.7511111111,-122.487777778,,Census,Unincorporated community,OR,"Prospect, Oregon",0,0,0,0,0,0,0,0,0,0,0,0,0,0,125.0,125,500,500.0,200.0,1200.0,1200.0,0.0,0.0
9064,19068,US,130767,44.4180555556,-118.955,,Census,City,OR,"John Day, Oregon",0,0,0,0,0,0,0,0,179,280,211,282,258,321,432.0,708,1597,1520.0,1566.0,2012.0,1836.0,1821.0,1744.0
9217,31667,US,92036,44.4902777778,-123.4325,,Census,US County,OR,"Benton County, Oregon",0,0,0,0,0,0,814,3074,4584,6403,8650,6706,10663,13744,16555.0,18629,31570,39165.0,53776.0,68211.0,70811.0,78153.0,85579.0
9397,27516,US,92020,45.38,-120.21,,Census,US County,OR,"Gilliam County, Oregon",0,0,0,0,0,0,0,0,0,0,3600,3201,3701,3960,3467.0,2844,2817,3069.0,2342.0,2057.0,1717.0,1915.0,1871.0
9565,43805,US,130719,43.3763888889,-124.237222222,,Census,City,OR,"Coos Bay, Oregon",0,0,0,0,0,0,0,0,250,642,1461,1391,2930,4034,5287.0,5259,6223,7084.0,13466.0,14424.0,15076.0,15374.0,15967.0
9793,11611,US,130942,45.5602777778,-123.911388889,,Census,City,OR,"Garibaldi, Oregon",0,0,0,0,0,0,0,0,0,0,0,0,0,0,0.0,0,1249,1163.0,1083.0,999.0,877.0,899.0,779.0
9875,40618,US,77156,45.41956,-122.66755,,Census,City,OR,"Lake Oswego, Oregon",0,0,0,0,0,0,0,0,0,96,544,0,0,1818,1285.0,1726,3316,8906.0,14615.0,22527.0,30576.0,35278.0,36619.0
10360,31737,US,92034,46.01,-123.71,,Census,US County,OR,"Clatsop County, Oregon",0,0,0,0,0,0,462,498,1255,7222,10016,12765,16106,23030,21124.0,24697,30776,27380.0,28473.0,32489.0,33301.0,35630.0,37039.0
10435,17870,US,130986,44.9108333333,-120.722777778,,Census,City,OR,"Antelope, Oregon",0,0,0,0,0,0,0,0,0,0,184,249,175,199,136.0,90,60,46.0,51.0,39.0,34.0,59.0,46.0
10499,9510,US,130869,44.7719444444,-122.606111111,,Census,City,OR,"Lyons, Oregon",0,0,0,0,0,0,0,0,0,0,0,0,0,0,0.0,0,0,463.0,645.0,877.0,938.0,1008.0,1161.0
10557,32001,US,92022,43.29,-123.18,,Census,US County,OR,"Douglas County, Oregon",0,0,0,0,0,0,0,3203,6066,9596,11864,14565,19674,21332,21965.0,25728,54549,68458.0,71743.0,93748.0,94649.0,100399.0,107667.0
10821,28583,US,92037,44.71,-117.67,,Census,US County,OR,"Baker County, Oregon",0,0,0,0,0,0,0,0,2804,4616,6764,15597,18076,17929,16754.0,18297,16175,17295.0,14919.0,16134.0,15317.0,16741.0,16134.0
11019,12584,US,130945,45.7158333333,-123.895555556,,Census,City,OR,"Nehalem, Oregon",0,0,0,0,0,0,0,0,0,0,0,59,119,192,245.0,247,270,233.0,241.0,258.0,232.0,203.0,271.0
11101,12660,US,130865,44.3933333333,-122.983611111,,Census,City,OR,"Brownsville, Oregon",0,0,0,0,0,0,0,0,0,143,580,698,919,763,746.0,784,1175,875.0,1034.0,1261.0,1281.0,1449.0,1668.0
11226,28208,US,92033,45.95,-123.08,,Census,US County,OR,"Columbia County, Oregon",0,0,0,0,0,0,0,532,863,2042,5191,6237,10580,13960,20047.0,20971,22967,22379.0,28790.0,35646.0,37557.0,43560.0,49351.0
11426,16647,US,130974,45.5655555556,-117.921111111,,Census,City,OR,"Elgin, Oregon",0,0,0,0,0,0,0,0,0,0,227,603,1120,1043,728.0,997,1223,1315.0,1375.0,1701.0,1586.0,1654.0,1711.0
11522,9523,US,130968,45.7808333333,-119.217222222,,Census,City,OR,"Stanfield, Oregon",0,0,0,0,0,0,0,0,0,0,0,0,318,278,204.0,241,845,745.0,891.0,1568.0,1568.0,1979.0,2043.0
11624,26756,US,130716,43.1166666667,-124.416666667,,Census,City,OR,"Bandon, Oregon",0,0,0,0,0,0,0,0,0,175,219,645,1803,1140,1516.0,1004,1251,1653.0,1832.0,2311.0,2215.0,2833.0,3066.0
11630,34116,US,91993,,,,Census,US County,OR,"Wallowa County, Oregon",0,0,0,0,0,0,0,0,0,0,3661,5538,8364,9778,7814.0,7623,7264,7102.0,6247.0,7273.0,6911.0,7226.0,7008.0
11637,18292,US,131019,44.5672222222,-120.153611111,,Census,City,OR,"Mitchell, Oregon",0,0,0,0,0,0,0,0,0,0,0,135,210,224,211.0,219,415,236.0,196.0,183.0,163.0,170.0,130.0
11684,12750,US,130743,43.0269444444,-123.282222222,,Census,City,OR,"Myrtle Creek, Oregon",0,0,0,0,0,0,0,0,0,119,0,189,429,385,401.0,441,1781,2231.0,2733.0,3365.0,3063.0,3419.0,3439.0
11694,9762,US,150981,45.3852777778,-122.733888889,,Census,City,OR,"Rivergrove, Oregon",0,0,0,0,0,0,0,0,0,0,0,0,0,0,0.0,0,0,0.0,0.0,314.0,294.0,324.0,370.0
11734,12618,US,130686,44.5405555556,-123.362777778,,Census,City,OR,"Philomath, Oregon",0,0,0,0,0,0,0,0,0,224,0,343,505,591,694.0,856,1289,1359.0,1688.0,2673.0,2983.0,4056.0,4584.0
11755,15572,US,130894,44.7355555556,-122.151388889,,Census,City,OR,"Detroit, Oregon",0,0,0,0,0,0,0,0,0,0,0,0,0,0,0.0,0,0,206.0,328.0,367.0,331.0,262.0,202.0
12006,11277,US,130710,45.7541666667,-122.875277778,,Census,City,OR,"Scappoose, Oregon",0,0,0,0,0,0,0,0,0,0,0,0,0,0,248.0,336,659,923.0,1859.0,3213.0,3529.0,4976.0,6592.0
12013,17747,US,130925,44.9211111111,-123.316388889,,Census,City,OR,"Dallas, Oregon",0,0,0,0,0,0,0,0,0,670,848,1271,2124,2701,2975.0,3579,4793,5072.0,6361.0,8530.0,9422.0,12459.0,14583.0
12044,17149,US,150982,45.3747222222,-122.77,,Census,City,OR,"Tualatin, Oregon",0,0,0,0,0,0,0,0,0,0,0,0,0,234,198.0,180,248,359.0,750.0,7348.0,15013.0,22791.0,26054.0
12387,13936,US,130819,42.24,-122.782222222,,Census,City,OR,"Talent, Oregon",0,0,0,0,0,0,0,0,0,0,0,0,0,278,421.0,381,739,868.0,1411.0,2577.0,3274.0,5589.0,6066.0
12491,18796,US,131015,45.3569444444,-122.843333333,,Census,City,OR,"Sherwood, Oregon",0,0,0,0,0,0,0,0,0,0,0,111,115,320,382.0,447,575,680.0,1396.0,2386.0,3093.0,11791.0,18194.0
12627,18424,US,130905,45.0688888889,-122.796944444,,Census,City,OR,"Mt. Angel, Oregon",0,0,0,0,0,0,0,0,0,0,0,537,545,986,979.0,1032,1315,1428.0,1973.0,2876.0,2778.0,3121.0,3286.0
12662,13505,US,131022,45.2936111111,-123.1775,,Census,City,OR,"Carlton, Oregon",0,0,0,0,0,0,0,0,0,243,0,145,386,552,749.0,864,1081,959.0,1126.0,1302.0,1289.0,1514.0,2007.0
12780,11936,US,130972,45.8141666667,-118.424444444,,Census,Village,OR,"Weston, Oregon",0,0,0,0,0,0,0,0,0,446,568,626,499,595,384.0,498,679,783.0,660.0,719.0,606.0,717.0,667.0
12814,13084,US,130956,45.8141666667,-118.491111111,,Census,City,OR,"Athena, Oregon",0,0,0,0,0,0,0,0,0,0,495,703,586,621,504.0,513,750,950.0,872.0,965.0,997.0,1221.0,1126.0
12860,15223,US,131006,45.4363888889,-123.141388889,,Census,City,OR,"Gaston, Oregon",0,0,0,0,0,0,0,0,0,0,0,0,0,221,227.0,333,368,320.0,429.0,471.0,563.0,600.0,637.0
12991,9465,US,130990,45.1738888889,-121.083055556,,Census,City,OR,"Maupin, Oregon",0,0,0,0,0,0,0,0,0,0,0,0,0,198,240.0,267,312,381.0,428.0,495.0,456.0,411.0,418.0
13009,11946,US,130703,46.0247222222,-123.918055556,,Census,City,OR,"Gearhart, Oregon",0,0,0,0,0,0,0,0,0,0,0,0,75,127,125.0,319,568,725.0,829.0,967.0,1027.0,995.0,1462.0
13135,17614,US,24325307,42.61,-122.815833333,,Census,City,OR,"Shady Cove, Oregon",0,0,0,0,0,0,0,0,0,0,0,0,0,0,0.0,0,0,0.0,0.0,1097.0,1351.0,2307.0,2904.0
13288,35738,US,92006,43.95,-122.88,,Census,US County,OR,"Lane County, Oregon",0,0,0,0,0,0,0,4780,6426,9411,15198,19604,33783,36166,54493.0,69096,125776,162890.0,213358.0,275226.0,282912.0,322959.0,351715.0
13369,11930,US,130863,44.4266666667,-124.068611111,,Census,City,OR,"Waldport, Oregon",0,0,0,0,0,0,0,0,0,0,0,0,0,181,367.0,630,689,667.0,700.0,1274.0,1595.0,2050.0,2033.0
13695,23286,US,130762,45.2355555556,-120.185,,Census,City,OR,"Condon, Oregon",0,0,0,0,0,0,0,0,0,0,60,230,1009,1127,940.0,856,968,1149.0,973.0,783.0,635.0,759.0,682.0
13705,26938,US,92000,45.42,-119.57,,Census,US County,OR,"Morrow County, Oregon",0,0,0,0,0,0,0,0,0,0,4205,4151,4357,5617,4941.0,4337,4783,4871.0,4465.0,7519.0,7625.0,10995.0,11173.0
13731,11233,US,130870,44.675,-123.069444444,,Census,City,OR,"Millersburg, Oregon",0,0,0,0,0,0,0,0,0,0,0,0,0,0,0.0,0,0,0.0,0.0,562.0,715.0,651.0,1329.0
13806,20933,US,130688,45.2661111111,-122.690555556,,Census,City,OR,"Canby, Oregon",0,0,0,0,0,0,0,0,0,29,0,378,587,852,744.0,988,1671,2168.0,3813.0,7659.0,8983.0,12790.0,15829.0
13833,8694,US,130861,44.7216666667,-123.92,,Census,City,OR,"Siletz, Oregon",0,0,0,0,0,0,0,0,0,0,0,0,0,0,0.0,0,570,583.0,596.0,1001.0,926.0,1133.0,1212.0
13908,13327,US,131023,45.2205555556,-123.078055556,,Census,City,OR,"Dayton, Oregon",0,0,0,0,0,0,0,0,0,368,304,293,453,448,375.0,506,719,673.0,949.0,1409.0,1526.0,2119.0,2534.0
14093,10742,US,131024,45.2766666667,-123.011666667,,Census,City,OR,"Dundee, Oregon",0,0,0,0,0,0,0,0,0,0,0,124,196,193,232.0,209,308,318.0,588.0,1223.0,1663.0,2598.0,3162.0
14221,33152,US,130988,45.6011111111,-121.182777778,,Census,City,OR,"The Dalles, Oregon",0,0,0,0,0,0,0,802,942,2232,3239,3542,4880,5807,5833.0,6266,7676,10493.0,10423.0,10820.0,11060.0,12156.0,13620.0
14231,18338,US,130725,44.3038888889,-120.846111111,,Census,City,OR,"Prineville, Oregon",0,0,0,0,0,0,0,0,0,0,460,656,1042,1144,1027.0,2358,3233,3263.0,4101.0,5276.0,5355.0,7563.0,9253.0
14258,12800,US,130980,45.21,-117.864722222,,Census,City,OR,"Union, Oregon",0,0,0,0,0,0,0,0,0,416,604,937,1483,1319,1107.0,1398,1307,1490.0,1531.0,2062.0,1847.0,1926.0,2121.0
14271,9325,US,130817,42.4358333333,-123.171944444,,Census,City,OR,"Rogue River, Oregon",0,0,0,0,0,0,0,0,0,0,0,0,0,211,286.0,383,590,520.0,841.0,1308.0,1759.0,1847.0,2131.0
14393,34068,US,42160,45.4869444444,-122.803611111,,Census,City,OR,"Beaverton, Oregon",0,0,0,0,0,0,0,0,0,0,0,249,386,580,1138.0,1052,2512,5937.0,18577.0,31962.0,53310.0,79277.0,89803.0
14522,17961,US,130761,45.715,-120.199722222,,Census,City,OR,"Arlington, Oregon",0,0,0,0,0,0,0,0,0,0,356,388,317,529,601.0,609,686,643.0,375.0,521.0,425.0,524.0,586.0
14531,14661,US,130766,44.8088888889,-118.420277778,,Census,City,OR,"Granite, Oregon",0,0,0,0,0,0,0,0,448,200,249,245,89,55,45.0,86,40,3.0,4.0,17.0,8.0,24.0,38.0
14747,13965,US,130823,44.5869444444,-121.176944444,,Census,City,OR,"Metolius, Oregon",0,0,0,0,0,0,0,0,0,0,0,0,0,94,38.0,40,157,270.0,270.0,451.0,450.0,635.0,710.0
15048,25580,US,130726,42.0575,-124.286388889,,Census,City,OR,"Brookings, Oregon",0,0,0,0,0,0,0,0,0,0,0,0,0,515,250.0,500,1000,2637.0,2720.0,3384.0,4400.0,5447.0,6336.0
15093,23193,US,37418069,44.0530555556,-122.991111111,,Census,City,OR,"Springfield, Oregon",0,0,0,0,0,0,0,198,200,160,371,353,1838,1855,2364.0,3805,10807,19616.0,27047.0,41624.0,44683.0,52864.0,59403.0
15110,14558,US,130970,45.1336111111,-118.932777778,,Census,City,OR,"Ukiah, Oregon",0,0,0,0,0,0,0,0,0,0,0,0,0,0,0.0,0,0,0.0,0.0,249.0,250.0,255.0,186.0
15136,11747,US,130958,45.7411111111,-119.194722222,,Census,City,OR,"Echo, Oregon",0,0,0,0,0,0,0,0,0,0,0,0,400,501,311.0,280,457,456.0,479.0,624.0,499.0,650.0,699.0
15261,18972,US,130981,45.4241666667,-117.276944444,,Census,City,OR,"Enterprise, Oregon",0,0,0,0,0,0,0,0,0,0,242,396,1242,1895,1379.0,1709,1718,1932.0,1680.0,2003.0,1905.0,1895.0,1940.0
15449,38030,US,92018,43.07,-118.97,,Census,US County,OR,"Harney County, Oregon",0,0,0,0,0,0,0,0,0,0,2559,2598,4059,3992,5920.0,5374,6113,6744.0,7215.0,8314.0,7060.0,7609.0,7422.0
15594,38720,US,48966,,,,Census,US County,OR,"Washington County, Oregon",0,0,0,0,0,0,2652,2801,4261,7082,11972,14467,21522,26376,30275.0,39194,61269,92237.0,157920.0,245808.0,311554.0,445342.0,529710.0
15653,13661,US,130834,42.0255555556,-121.599444444,,Census,City,OR,"Merrill, Oregon",0,0,0,0,0,0,0,0,0,0,0,67,400,237,306.0,648,835,804.0,722.0,809.0,837.0,897.0,844.0
15674,14459,US,130765,44.4666666667,-119.533333333,,Census,City,OR,"Dayville, Oregon",0,0,0,0,0,0,0,0,0,0,120,52,100,117,106.0,136,286,234.0,197.0,199.0,144.0,138.0,149.0
15708,27860,US,130914,45.3561111111,-119.552777778,,Census,City,OR,"Heppner, Oregon",0,0,0,0,0,0,0,0,0,318,675,1146,880,1324,1190.0,1140,1648,1661.0,1429.0,1498.0,1412.0,1395.0,1291.0
15778,32192,US,92035,45.19,-122.21,,Census,US County,OR,"Clackamas County, Oregon",0,0,0,0,0,0,1859,3466,5993,9260,15233,19658,29931,37698,46205.0,57130,86716,113038.0,166088.0,241919.0,278850.0,338391.0,375992.0
15812,11658,US,131021,45.1163888889,-123.205555556,,Census,City,OR,"Amity, Oregon",0,0,0,0,0,0,0,0,0,0,0,292,407,522,438.0,545,672,620.0,708.0,1092.0,1175.0,1478.0,1614.0
15833,12893,US,130920,45.5419444444,-122.438888889,,Census,City,OR,"Fairview, Oregon",0,0,0,0,0,0,0,0,0,0,0,0,204,184,266.0,305,438,578.0,1045.0,1749.0,2391.0,7561.0,8920.0
15882,9464,US,130676,44.9116666667,-117.94,,Census,City,OR,"Haines, Oregon",0,0,0,0,0,0,0,0,0,0,0,0,423,503,431.0,377,321,331.0,314.0,341.0,405.0,426.0,416.0
15897,12609,US,130776,44.4594444444,-118.709166667,,Census,City,OR,"Prairie City, Oregon",0,0,0,0,0,0,0,0,100,235,222,213,348,643,438.0,647,822,801.0,867.0,1106.0,1117.0,1080.0,909.0
15899,10673,US,130682,44.6736111111,-123.217777778,,Census,City,OR,"Adair Village, Oregon",0,0,0,0,0,0,0,0,0,0,0,0,0,0,0.0,0,0,0.0,0.0,589.0,554.0,536.0,840.0
15956,33478,US,92017,45.5175,-121.649444444,,Census,US County,OR,"Hood River County, Oregon",0,0,0,0,0,0,0,0,0,0,0,0,8016,8315,8938.0,11580,12740,13395.0,13187.0,15835.0,16903.0,20411.0,22346.0
16116,9439,US,130760,43.5991666667,-123.285555556,,Census,City,OR,"Yoncalla, Oregon",0,0,0,0,0,0,0,0,0,0,0,0,233,232,252.0,277,626,698.0,675.0,805.0,919.0,1052.0,1047.0
16262,9407,US,130936,45.6944444444,-120.738055556,,Census,City,OR,"Rufus, Oregon",0,0,0,0,0,0,0,0,0,0,0,0,0,0,0.0,0,0,0.0,317.0,352.0,295.0,264.0,249.0
16316,33077,US,130754,43.2180555556,-123.356111111,,Census,City,OR,"Roseburg, Oregon",0,0,0,0,0,0,0,835,600,822,1472,1690,4738,4258,4362.0,4924,8390,11467.0,14461.0,16644.0,17032.0,20017.0,21181.0
16399,10691,US,130978,45.03,-117.920833333,,Census,City,OR,"North Powder, Oregon",0,0,0,0,0,0,0,0,0,0,185,0,455,613,553.0,376,403,399.0,304.0,430.0,448.0,489.0,439.0
16931,9380,US,130899,45.1822222222,-122.807222222,,Census,City,OR,"Hubbard, Oregon",0,0,0,0,0,0,0,0,0,141,117,213,283,320,330.0,387,493,526.0,975.0,1640.0,1881.0,2483.0,3173.0
16968,21779,US,130694,45.15,-122.583333333,,Census,City,OR,"Molalla, Oregon",0,0,0,0,0,0,0,0,0,0,0,0,0,496,655.0,907,1497,1501.0,2005.0,2992.0,3651.0,5666.0,8108.0
17021,24765,US,130733,44.2688888889,-121.183611111,,Census,City,OR,"Redmond, Oregon",0,0,0,0,0,0,0,0,0,0,0,0,216,585,994.0,1876,2956,3340.0,3721.0,6452.0,7163.0,13481.0,26215.0
17159,12913,US,130900,44.7180555556,-123.009444444,,Census,City,OR,"Jefferson, Oregon",0,0,0,0,0,0,0,0,0,0,307,273,415,417,391.0,479,636,716.0,936.0,1702.0,1805.0,2487.0,3098.0
17272,27315,US,92003,44.63,-123.09,,Census,US County,OR,"Linn County, Oregon",0,0,0,0,0,0,994,6772,8717,12676,16265,18603,22662,24550,24700.0,30485,54317,58867.0,71914.0,89465.0,91227.0,103069.0,116672.0
17579,12027,US,130698,45.3975,-122.266388889,,Census,City,OR,"Sandy, Oregon",0,0,0,0,0,0,0,0,0,0,0,96,250,242,284.0,473,1003,1147.0,1544.0,2905.0,4152.0,5385.0,9570.0
18123,27204,US,92004,44.64,-123.91,,Census,US County,OR,"Lincoln County, Oregon",0,0,0,0,0,0,0,0,0,0,0,3575,5587,6084,9903.0,14549,21308,24635.0,25755.0,35264.0,38889.0,44479.0,46034.0
18477,88059,US,130815,42.3319444444,-122.861944444,,Census,City,OR,"Medford, Oregon",0,0,0,0,0,0,0,0,0,0,967,1791,8840,5756,11007.0,11281,17305,24425.0,28973.0,39746.0,46951.0,63154.0,74907.0
18541,51871,US,48969,44.5666666667,-123.283333333,,Census,City,OR,"Corvallis, Oregon",0,0,0,0,0,0,0,0,0,1128,1527,1819,4552,5752,7585.0,8392,16207,20669.0,35056.0,40960.0,44757.0,49322.0,54462.0
18762,12322,US,130985,45.5713888889,-117.531944444,,Census,City,OR,"Wallowa, Oregon",0,0,0,0,0,0,0,0,0,0,0,243,793,894,749.0,838,1055,989.0,811.0,847.0,748.0,869.0,808.0
18984,11932,US,130737,42.9308333333,-123.2775,,Census,City,OR,"Canyonville, Oregon",0,0,0,0,0,0,0,0,0,0,0,0,149,156,167.0,255,861,1089.0,940.0,1288.0,1219.0,1293.0,1884.0
19016,15511,US,130709,46.09,-122.9425,,Census,City,OR,"Rainier, Oregon",0,0,0,0,0,0,0,0,0,0,238,522,1359,1287,1353.0,1183,1285,1152.0,1731.0,1655.0,1674.0,1687.0,1895.0
19043,25922,US,130961,45.8411111111,-119.291666667,,Census,City,OR,"Hermiston, Oregon",0,0,0,0,0,0,0,0,0,0,0,0,647,647,608.0,803,3804,4402.0,4893.0,9408.0,10040.0,13154.0,16745.0
19154,23380,US,130921,45.5036111111,-122.439444444,,Census,City,OR,"Gresham, Oregon",0,0,0,0,0,0,0,0,0,0,0,0,510,1103,1635.0,1951,3049,3944.0,10030.0,33005.0,68235.0,90205.0,105594.0
19165,10227,US,130797,42.5425,-122.5675,,Census,City,OR,"Butte Falls, Oregon",0,0,0,0,0,0,0,0,0,0,0,0,0,166,298.0,339,372,384.0,358.0,428.0,252.0,438.0,423.0
19195,12676,US,131003,45.3944444444,-122.758611111,,Census,City,OR,"Durham, Oregon",0,0,0,0,0,0,0,0,0,0,0,0,0,0,0.0,0,0,0.0,410.0,707.0,748.0,1382.0,1351.0
19243,39976,US,91999,45.54,-122.41,,Census,US County,OR,"Multnomah County, Oregon",0,0,0,0,0,0,0,4150,11510,25203,74884,103167,226261,275898,338241.0,355099,471537,522813.0,556667.0,562640.0,583887.0,660486.0,735334.0
19375,10982,US,2363568,43.3883333333,-123.316111111,,Census,City,OR,"Sutherlin, Oregon",0,0,0,0,0,0,0,0,0,0,0,0,0,515,457.0,525,2230,2452.0,3070.0,4560.0,5020.0,6668.0,7810.0
19743,12178,US,130944,45.7191666667,-123.935833333,,Census,City,OR,"Manzanita, Oregon",0,0,0,0,0,0,0,0,0,0,0,0,0,0,0.0,0,339,363.0,365.0,443.0,513.0,564.0,598.0
19924,14762,US,130763,45.0894444444,-119.884166667,,Census,City,OR,"Lonerock, Oregon",0,0,0,0,0,0,0,0,0,0,0,0,70,73,82.0,46,38,31.0,12.0,26.0,11.0,24.0,21.0
19939,18122,US,130727,42.4022222222,-124.415277778,,Census,City,OR,"Gold Beach, Oregon",0,0,0,0,0,0,0,0,0,0,200,112,125,321,500.0,500,677,1765.0,1554.0,1515.0,1546.0,1897.0,2253.0
20076,13151,US,131025,45.2447222222,-123.113333333,,Census,City,OR,"Lafayette, Oregon",0,0,0,0,0,0,0,0,0,396,365,359,412,410,0.0,409,662,553.0,786.0,1215.0,1292.0,2586.0,3742.0
20198,17015,US,130680,44.7461111111,-118.199166667,,Census,City,OR,"Sumpter, Oregon",0,0,0,0,0,0,0,0,0,261,91,2216,643,219,154.0,420,146,96.0,120.0,133.0,119.0,171.0,204.0
20293,14915,US,130836,42.6933333333,-120.545277778,,Census,City,OR,"Paisley, Oregon",0,0,0,0,0,0,0,0,0,89,69,176,176,257,259.0,237,214,219.0,260.0,343.0,350.0,247.0,243.0
20458,15438,US,130931,44.8491666667,-123.23,,Census,City,OR,"Monmouth, Oregon",0,0,0,0,0,0,0,0,0,267,0,606,493,582,906.0,965,1956,2229.0,5237.0,5594.0,6288.0,7741.0,9534.0
20476,11444,US,130871,44.7036111111,-122.85,,Census,City,OR,"Scio, Oregon",0,0,0,0,0,0,0,0,400,193,253,346,295,300,258.0,351,448,441.0,447.0,579.0,623.0,695.0,838.0
20640,28995,US,91992,45.16,-121.16,,Census,US County,OR,"Wasco County, Oregon",0,0,0,0,0,0,0,1689,2509,11120,9183,13199,16336,13648,12646.0,13069,15552,20205.0,20133.0,21732.0,21683.0,23791.0,25213.0
20750,34674,US,130781,43.5869444444,-119.06,,Census,City,OR,"Burns, Oregon",0,0,0,0,0,0,0,0,0,0,264,547,904,1022,2599.0,2566,3093,3523.0,3293.0,3579.0,2913.0,3064.0,2806.0
20928,10677,US,130938,45.5225,-123.889166667,,Census,City,OR,"Bay City, Oregon",0,0,0,0,0,0,0,0,0,0,0,203,281,511,427.0,379,761,996.0,898.0,986.0,1027.0,1149.0,1286.0
21018,15759,US,130833,42.0127777778,-121.408611111,,Census,City,OR,"Malin, Oregon",0,0,0,0,0,0,0,0,0,0,0,0,0,110,215.0,535,592,568.0,486.0,539.0,725.0,638.0,805.0
21037,34878,US,130965,45.6697222222,-118.791388889,,Census,City,OR,"Pendleton, Oregon",0,0,0,0,0,0,0,0,243,730,2506,4406,4460,6837,6621.0,8847,11774,14434.0,13197.0,14521.0,15126.0,16354.0,16612.0
21055,23383,US,130913,45.8355555556,-119.699166667,,Census,City,OR,"Boardman, Oregon",0,0,0,0,0,0,0,0,0,0,0,0,0,113,100.0,110,120,153.0,192.0,1261.0,1387.0,2855.0,3220.0
21133,10844,US,130691,45.4458333333,-122.533611111,,Census,City,OR,"Happy Valley, Oregon",0,0,0,0,0,0,0,0,0,0,0,0,0,0,0.0,0,0,0.0,1392.0,1499.0,1519.0,4519.0,13903.0
21257,9828,US,130975,45.4602777778,-117.963611111,,Census,City,OR,"Imbler, Oregon",0,0,0,0,0,0,0,0,0,0,0,0,0,206,203.0,182,149,137.0,139.0,292.0,299.0,284.0,306.0
21375,8889,US,130910,44.8297222222,-122.792777778,,Census,City,OR,"Sublimity, Oregon",0,0,0,0,0,0,0,0,0,0,0,0,138,172,214.0,280,367,490.0,634.0,1077.0,1491.0,2148.0,2681.0
21799,47986,US,130864,44.3111111111,-124.104722222,,Census,City,OR,"Yachats, Oregon",0,0,0,0,0,0,0,0,0,0,0,0,0,0,0.0,0,0,0.0,441.0,482.0,533.0,617.0,690.0
21821,31600,US,71015,45.3811111111,-122.593055556,,Census,City,OR,"Gladstone, Oregon",0,0,0,0,0,0,0,0,0,0,0,0,0,1069,1348.0,1629,2434,3854.0,6254.0,9500.0,10152.0,11438.0,11497.0
22116,50746,US,130835,42.1888888889,-120.345833333,,Census,Town,OR,"Lakeview, Oregon",0,0,0,0,0,0,0,0,0,270,770,761,1253,1139,1799.0,2466,2831,3260.0,2705.0,2770.0,2526.0,2474.0,2294.0
22460,9215,US,130911,44.8458333333,-122.952777778,,Census,City,OR,"Turner, Oregon",0,0,0,0,0,0,0,0,0,85,0,0,191,289,283.0,414,610,770.0,846.0,1116.0,1281.0,1199.0,1854.0
22542,22711,US,130700,45.3652777778,-122.641111111,,Census,City,OR,"West Linn, Oregon",0,0,0,0,0,0,0,0,0,0,0,0,0,1628,1956.0,2165,2945,3933.0,7091.0,11358.0,16367.0,22261.0,25109.0
22602,13033,US,130928,44.8661111111,-123.438611111,,Census,City,OR,"Falls City, Oregon",0,0,0,0,0,0,0,0,0,0,0,269,969,994,494.0,715,853,653.0,745.0,804.0,818.0,966.0,947.0
22682,17501,US,130923,45.5294444444,-122.391666667,,Census,City,OR,"Troutdale, Oregon",0,0,0,0,0,0,0,0,0,0,0,0,309,191,227.0,211,514,522.0,1661.0,5831.0,7852.0,13777.0,15962.0
22741,10745,US,130984,45.4888888889,-117.43,,Census,City,OR,"Lostine, Oregon",0,0,0,0,0,0,0,0,0,0,0,0,230,244,176.0,204,178,240.0,196.0,250.0,231.0,263.0,213.0
22888,11192,US,130937,45.5919444444,-120.698333333,,Census,City,OR,"Wasco, Oregon",0,0,0,0,0,0,0,0,0,0,0,322,386,701,400.0,303,305,348.0,412.0,415.0,374.0,381.0,410.0
23004,18633,US,130814,42.3144444444,-122.967222222,,Census,City,OR,"Jacksonville, Oregon",0,0,0,0,0,0,0,0,0,839,743,653,785,489,706.0,761,1193,1172.0,1611.0,2030.0,1896.0,2235.0,2785.0
23021,31881,US,150980,45.4461111111,-122.639166667,,Census,City,OR,"Milwaukie, Oregon",0,0,0,0,0,0,0,0,0,125,489,0,860,1172,1767.0,1871,5253,9099.0,16444.0,17931.0,18692.0,20490.0,20291.0
23118,63548,US,1864,46.1888888889,-123.821111111,,Census,City,OR,"Astoria, Oregon",0,0,0,0,0,0,0,252,639,2803,6184,8351,9599,14027,10349.0,10389,12331,11239.0,10244.0,9998.0,10069.0,9813.0,9477.0
23160,16130,US,130930,44.8530555556,-123.191388889,,Census,City,OR,"Independence, Oregon",0,0,0,0,0,0,0,425,0,691,0,909,1160,1148,1248.0,1372,1987,1930.0,2594.0,4024.0,4425.0,6035.0,8590.0
23496,54964,US,130730,44.05,-121.3,,Census,City,OR,"Bend, Oregon",0,0,0,0,0,0,0,0,0,0,0,0,536,5415,8848.0,10021,11409,11936.0,13710.0,17263.0,20469.0,52029.0,76639.0
23755,14608,US,130720,43.1794444444,-124.1875,,Census,City,OR,"Coquille, Oregon",0,0,0,0,0,0,0,0,100,176,494,728,1398,1642,2732.0,3327,3523,4370.0,4437.0,4481.0,4121.0,4184.0,3866.0
24122,12679,US,130839,43.9180555556,-123.021388889,,Census,City,OR,"Creswell, Oregon",0,0,0,0,0,0,0,0,0,0,0,0,367,273,345.0,497,662,760.0,1199.0,1770.0,2431.0,3579.0,5031.0
24199,10518,US,130773,44.4180555556,-119.112777778,,Census,City,OR,"Mount Vernon, Oregon",0,0,0,0,0,0,0,0,0,0,0,0,0,0,0.0,0,451,502.0,423.0,569.0,538.0,595.0,527.0
24209,12351,US,130681,44.4375,-118.192777778,,Census,City,OR,"Unity, Oregon",0,0,0,0,0,0,0,0,0,0,0,0,0,0,0.0,0,0,0.0,0.0,115.0,87.0,131.0,71.0
24210,30241,US,130826,42.4388888889,-123.328333333,,Census,City,OR,"Grants Pass, Oregon",0,0,0,0,0,0,0,0,0,250,1432,2290,3897,4200,4666.0,6028,8116,10118.0,12455.0,14977.0,17488.0,23003.0,34533.0
24364,13302,US,130768,44.7136111111,-119.104444444,,Census,City,OR,"Long Creek, Oregon",0,0,0,0,0,0,0,0,0,0,60,123,86,148,139.0,238,288,295.0,196.0,252.0,249.0,228.0,197.0
24377,12496,US,131010,45.5972222222,-122.998055556,,Census,City,OR,"North Plains, Oregon",0,0,0,0,0,0,0,0,0,0,0,0,0,0,0.0,0,0,0.0,690.0,715.0,972.0,1605.0,1947.0
24514,11715,US,130878,42.9763888889,-117.055277778,,Census,City,OR,"Jordan Valley, Oregon",0,0,0,0,0,0,0,0,0,0,0,110,200,355,306.0,274,236,204.0,196.0,473.0,364.0,239.0,181.0
24648,17590,US,130690,45.29,-122.334444444,,Census,City,OR,"Estacada, Oregon",0,0,0,0,0,0,0,0,0,0,0,0,405,483,524.0,526,950,957.0,1164.0,1419.0,2016.0,2371.0,2695.0
24744,19838,US,131018,44.9980555556,-120.216111111,,Census,City,OR,"Fossil, Oregon",0,0,0,0,0,0,0,0,0,100,153,288,421,519,538.0,532,645,672.0,511.0,535.0,399.0,469.0,473.0
24780,21401,US,130712,45.8597222222,-123.189166667,,Census,City,OR,"Vernonia, Oregon",0,0,0,0,0,0,0,0,0,0,0,62,69,142,1625.0,1412,1521,1089.0,1643.0,1785.0,1808.0,2228.0,2151.0
24784,12054,US,131029,45.3411111111,-123.184166667,,Census,City,OR,"Yamhill, Oregon",0,0,0,0,0,0,0,0,0,0,0,254,325,365,390.0,418,539,407.0,516.0,690.0,855.0,794.0,1024.0
24845,10421,US,130999,45.6141666667,-123.110833333,,Census,City,OR,"Banks, Oregon",0,0,0,0,0,0,0,0,0,0,0,0,0,0,209.0,247,376,347.0,430.0,489.0,563.0,1286.0,1777.0
25108,36032,US,76868,45.3572222222,-122.607222222,,Census,City,OR,"Oregon City, Oregon",0,0,0,0,0,0,0,1229,1382,1262,3167,3494,4987,5686,5761.0,6124,7082,7996.0,9176.0,14673.0,14698.0,25754.0,31859.0
25602,9608,US,130693,45.4047222222,-122.580833333,,Census,City,OR,"Johnson City, Oregon",0,0,0,0,0,0,0,0,0,0,0,0,0,0,0.0,0,0,0.0,0.0,378.0,586.0,634.0,566.0
25653,28786,US,91994,,,,Census,US County,OR,"Union County, Oregon",0,0,0,0,0,0,0,0,2552,6550,12044,16070,16191,16636,17492.0,17399,17962,18180.0,19377.0,23921.0,23598.0,24530.0,25748.0
25728,17306,US,130831,42.575,-121.864166667,,Census,City,OR,"Chiloquin, Oregon",0,0,0,0,0,0,0,0,0,150,0,0,0,160,481.0,741,688,945.0,826.0,778.0,673.0,716.0,734.0
25865,14098,US,130855,44.8072222222,-124.062222222,,Census,City,OR,"Depoe Bay, Oregon",0,0,0,0,0,0,0,0,0,0,0,0,0,0,0.0,0,0,0.0,0.0,723.0,870.0,1174.0,1398.0
25951,9980,US,130876,44.4944444444,-122.823055556,,Census,City,OR,"Waterloo, Oregon",0,0,0,0,0,0,0,0,0,0,0,59,83,82,0.0,0,0,151.0,186.0,221.0,191.0,239.0,229.0
25968,19282,US,131027,45.305,-122.967222222,,Census,City,OR,"Newberg, Oregon",0,0,0,0,0,0,0,0,0,0,514,945,2260,2566,2951.0,2960,3946,4204.0,6507.0,10394.0,13086.0,18064.0,22068.0
26047,10081,US,130740,42.7369444444,-123.428333333,,Census,City,OR,"Glendale, Oregon",0,0,0,0,0,0,0,0,0,0,0,0,646,548,516.0,557,871,748.0,709.0,712.0,707.0,855.0,874.0
26137,21550,US,130886,44.0269444444,-116.968611111,,Census,City,OR,"Ontario, Oregon",0,0,0,0,0,0,0,0,0,0,200,445,1248,2039,1941.0,3551,4465,5101.0,6523.0,8814.0,9392.0,10985.0,11366.0
26204,9902,US,130840,43.8830555556,-124.115,,Census,City,OR,"Dunes City, Oregon",0,0,0,0,0,0,0,0,0,0,0,0,0,0,0.0,0,0,0.0,976.0,1124.0,1081.0,1241.0,1303.0
26360,28640,US,92002,43.21,-117.63,,Census,US County,OR,"Malheur County, Oregon",0,0,0,0,0,0,0,0,0,0,2601,4203,8601,10907,11269.0,19767,23223,22764.0,23169.0,26896.0,26038.0,31615.0,31313.0
26678,18841,US,130711,45.8594444444,-122.816944444,,Census,City,OR,"St. Helens, Oregon",0,0,0,0,0,0,0,0,0,209,220,258,743,2220,3994.0,4304,4711,5022.0,6212.0,7064.0,7535.0,10019.0,12883.0
26805,13793,US,130989,45.4533333333,-121.127222222,,Census,City,OR,"Dufur, Oregon",0,0,0,0,0,0,0,0,0,0,0,336,523,533,382.0,392,422,488.0,493.0,560.0,527.0,588.0,604.0
26849,10747,US,130821,44.5247222222,-121.212222222,,Census,City,OR,"Culver, Oregon",0,0,0,0,0,0,0,0,0,0,0,0,0,0,62.0,0,301,301.0,407.0,514.0,570.0,802.0,1357.0
26980,13069,US,130917,45.4452777778,-119.688055556,,Census,City,OR,"Lexington, Oregon",0,0,0,0,0,0,0,0,23,0,100,175,185,264,180.0,223,237,240.0,230.0,307.0,286.0,263.0,238.0
27039,13620,US,131020,44.8330555556,-119.794444444,,Census,City,OR,"Spray, Oregon",0,0,0,0,0,0,0,0,0,0,0,0,0,0,0.0,0,0,194.0,161.0,155.0,149.0,140.0,160.0
27073,15556,US,130849,44.2205555556,-123.204166667,,Census,City,OR,"Junction City, Oregon",0,0,0,0,0,0,0,0,0,428,0,506,759,687,922.0,1187,1475,1614.0,2373.0,3320.0,3670.0,5132.0,5392.0
27158,9688,US,130875,44.55,-123.109166667,,Census,City,OR,"Tangent, Oregon",0,0,0,0,0,0,0,0,0,38,0,84,0,0,0.0,0,0,0.0,0.0,478.0,556.0,933.0,1164.0
27230,11770,US,130679,44.7686111111,-117.168611111,,Census,City,OR,"Richland, Oregon",0,0,0,0,0,0,0,0,0,0,0,0,334,244,212.0,254,220,228.0,133.0,181.0,161.0,147.0,156.0
27515,20483,US,130953,45.4552777778,-123.8425,,Census,City,OR,"Tillamook, Oregon",0,0,0,0,0,0,0,0,0,0,0,834,1352,1964,2549.0,2751,3685,4244.0,3968.0,3981.0,4001.0,4356.0,4935.0
27549,11038,US,150987,44.705,-122.090833333,,Census,City,OR,"Idanha, Oregon",0,0,0,0,0,0,0,0,0,0,0,0,0,0,0.0,0,442,295.0,382.0,319.0,289.0,232.0,134.0
27627,10951,US,130897,45.1083333333,-122.8975,,Census,City,OR,"Gervais, Oregon",0,0,0,0,0,0,0,0,0,202,0,224,276,268,254.0,332,457,438.0,746.0,799.0,992.0,2009.0,2464.0
27717,12815,US,130802,42.4677777778,-122.801666667,,Census,City,OR,"Eagle Point, Oregon",0,0,0,0,0,0,0,0,0,0,0,0,0,128,211.0,243,607,752.0,1241.0,2764.0,3008.0,4798.0,8469.0
27773,29674,US,92008,,,,Census,US County,OR,"Klamath County, Oregon",0,0,0,0,0,0,0,0,0,0,2444,3970,8554,11413,32407.0,40497,42150,47475.0,50021.0,59117.0,57702.0,63775.0,66380.0
27788,17586,US,130800,42.3666666667,-122.916666667,,Census,City,OR,"Central Point, Oregon",0,0,0,0,0,0,0,0,0,0,534,322,761,582,821.0,906,1667,2289.0,4004.0,6357.0,7509.0,12493.0,17169.0
27846,41933,US,92019,,,,Census,US County,OR,"Grant County, Oregon",0,0,0,0,0,0,0,0,2251,4303,5080,5948,5607,5496,5940.0,6380,8329,7726.0,6996.0,8210.0,7853.0,7935.0,7445.0
28111,13390,US,130906,45.0411111111,-122.668888889,,Census,City,OR,"Scotts Mills, Oregon",0,0,0,0,0,0,0,0,0,0,0,0,0,208,153.0,227,217,155.0,208.0,249.0,283.0,312.0,357.0
28194,30499,US,91990,45.23,-123.31,,Census,US County,OR,"Yamhill County, Oregon",0,0,0,0,0,0,0,3245,5012,7945,10692,13420,18285,20529,22036.0,26336,33484,32478.0,40213.0,55332.0,65551.0,84992.0,99193.0
28310,11925,US,130739,43.6375,-123.568055556,,Census,City,OR,"Elkton, Oregon",0,0,0,0,0,0,0,0,0,0,0,0,0,0,0.0,0,201,146.0,176.0,155.0,172.0,149.0,195.0
28339,10734,US,130850,43.9213888889,-122.782222222,,Census,City,OR,"Lowell, Oregon",0,0,0,0,0,0,0,0,0,0,0,0,0,0,0.0,0,0,503.0,567.0,661.0,785.0,857.0,1045.0
28554,22250,US,130704,45.9927777778,-123.922222222,,Census,City,OR,"Seaside, Oregon",0,0,0,0,0,0,0,0,0,75,87,191,1121,1802,1565.0,2902,3886,3877.0,4402.0,5193.0,5359.0,5900.0,6457.0
28601,26997,US,130723,43.4063888889,-124.224166667,,Census,City,OR,"North Bend, Oregon",0,0,0,0,0,0,0,0,0,84,0,0,2078,3268,4012.0,4602,6099,7512.0,8553.0,9779.0,9614.0,9544.0,9695.0
28619,12367,US,150985,44.755,-122.419722222,,Census,City,OR,"Gates, Oregon",0,0,0,0,0,0,0,0,0,0,0,0,0,0,0.0,0,0,189.0,250.0,455.0,499.0,471.0,471.0
28967,9077,US,130867,44.2711111111,-123.168611111,,Census,City,OR,"Harrisburg, Oregon",0,0,0,0,0,0,0,0,0,422,413,502,453,573,575.0,622,862,939.0,1311.0,1881.0,1939.0,2795.0,3567.0
29033,21145,US,130701,45.8891666667,-123.960833333,,Census,City,OR,"Cannon Beach, Oregon",0,0,0,0,0,0,0,0,0,0,0,0,0,0,125.0,125,125,495.0,779.0,1187.0,1221.0,1588.0,1690.0
29044,15663,US,130909,44.8,-122.8,,Census,City,OR,"Stayton, Oregon",0,0,0,0,0,0,0,0,0,226,381,324,703,649,797.0,1085,1507,2108.0,3170.0,4396.0,5011.0,6816.0,7644.0
29141,10743,US,130991,45.6836111111,-121.396388889,,Census,City,OR,"Mosier, Oregon",0,0,0,0,0,0,0,0,0,0,0,0,0,259,192.0,216,259,252.0,217.0,340.0,244.0,410.0,433.0
29311,15543,US,130888,43.9822222222,-117.243611111,,Census,City,OR,"Vale, Oregon",0,0,0,0,0,0,0,0,0,0,131,127,992,935,922.0,1083,1518,1491.0,1448.0,1558.0,1491.0,1976.0,1874.0
29384,34449,US,92009,42.36,-123.56,,Census,US County,OR,"Josephine County, Oregon",0,0,0,0,0,0,0,1623,1204,2485,4878,7517,9567,7655,11498.0,16301,26542,29917.0,35746.0,58855.0,62649.0,75726.0,82713.0
29468,33184,US,92011,,,,Census,US County,OR,"Jackson County, Oregon",0,0,0,0,0,0,0,3736,4778,8154,11455,13698,25756,20405,32918.0,36213,58510,73962.0,94533.0,132456.0,146389.0,181269.0,203206.0
29472,21447,US,130851,43.7461111111,-122.463333333,,Census,City,OR,"Oakridge, Oregon",0,0,0,0,0,0,0,0,0,0,0,0,0,0,0.0,520,1562,1973.0,3422.0,3729.0,3063.0,3148.0,3205.0
29558,12349,US,130922,45.5533333333,-122.561944444,,Census,City,OR,"Maywood Park, Oregon",0,0,0,0,0,0,0,0,0,0,0,0,0,0,0.0,0,0,0.0,1305.0,1083.0,781.0,777.0,752.0
29636,39834,US,131028,45.0983333333,-123.397222222,,Census,City,OR,"Sheridan, Oregon",0,0,0,0,0,0,0,0,0,196,299,466,1021,979,1008.0,1294,1922,1763.0,1881.0,2249.0,3979.0,5561.0,6127.0
29793,17358,US,130786,45.6725,-121.873611111,,Census,City,OR,"Cascade Locks, Oregon",0,0,0,0,0,0,0,0,0,0,0,0,0,0,0.0,703,733,660.0,574.0,838.0,930.0,1115.0,1144.0
29835,25460,US,130912,45.1472222222,-122.858333333,,Census,City,OR,"Woodburn, Oregon",0,0,0,0,0,0,0,0,0,0,405,828,1616,1656,1675.0,1982,2395,3120.0,7495.0,11196.0,13404.0,20100.0,24080.0
29907,198620,US,23503,45.52,-122.681944444,,Census,City,OR,"Portland, Oregon",0,0,0,0,0,0,0,2874,8293,17577,46385,90426,207214,258288,301815.0,305394,373628,372676.0,382619.0,366383.0,437319.0,529121.0,583776.0
29938,28992,US,130907,45.0066666667,-122.7825,,Census,City,OR,"Silverton, Oregon",0,0,0,0,0,0,0,0,0,229,511,656,1588,2251,2462.0,2925,3146,3081.0,4301.0,5168.0,5635.0,7433.0,9222.0
29970,33728,US,130675,44.775,-117.834444444,,Census,City,OR,"Baker City, Oregon",0,0,0,0,0,0,0,0,312,1258,2604,6663,6742,7729,7858.0,9342,9471,9986.0,9354.0,9471.0,9140.0,9860.0,9828.0
30006,13444,US,130854,43.7566666667,-122.504722222,,Census,City,OR,"Westfir, Oregon",0,0,0,0,0,0,0,0,0,0,0,0,0,0,0.0,0,0,0.0,0.0,312.0,278.0,276.0,253.0
30102,11566,US,130707,45.8919444444,-122.813333333,,Census,City,OR,"Columbia City, Oregon",0,0,0,0,0,0,0,0,0,0,0,0,0,0,310.0,327,405,423.0,537.0,678.0,1003.0,1571.0,1946.0
30230,53848,US,130825,42.1666666667,-123.646944444,,Census,City,OR,"Cave Junction, Oregon",0,0,0,0,0,0,0,0,0,0,0,0,0,0,0.0,0,283,248.0,415.0,1023.0,1126.0,1360.0,1883.0
30268,18004,US,130678,44.3502777778,-117.265555556,,Census,City,OR,"Huntington, Oregon",0,0,0,0,0,0,0,0,0,200,321,821,680,666,803.0,741,733,689.0,507.0,539.0,522.0,515.0,440.0
30435,10818,US,130955,45.7672222222,-118.563611111,,Census,City,OR,"Adams, Oregon",0,0,0,0,0,0,0,0,0,0,0,268,205,198,178.0,169,154,192.0,219.0,240.0,223.0,297.0,350.0
30488,27486,US,91998,44.91,-123.42,,Census,US County,OR,"Polk County, Oregon",0,0,0,0,0,0,0,3625,4701,6601,7858,9923,13469,14181,16858.0,19989,26317,26523.0,35349.0,45203.0,49541.0,62380.0,75403.0
30595,67545,US,48970,44.9308333333,-123.028888889,,Census,State capital,OR,"Salem, Oregon",0,0,0,0,0,0,0,902,2139,2538,3422,4258,14094,17679,26266.0,30908,43140,49142.0,68296.0,89233.0,107786.0,136924.0,154637.0
30658,112034,US,9623,44.0519444444,-123.086666667,,Census,City,OR,"Eugene, Oregon",0,0,0,0,0,0,0,1183,861,1117,0,3236,9009,10593,18901.0,20838,35879,50977.0,79028.0,105664.0,112669.0,137893.0,156185.0
30694,14451,US,130830,42.1994444444,-121.404722222,,Census,City,OR,"Bonanza, Oregon",0,0,0,0,0,0,0,0,0,100,0,118,250,77,141.0,233,259,297.0,230.0,270.0,323.0,415.0,415.0
30731,11509,US,130966,45.4833333333,-118.830833333,,Census,City,OR,"Pilot Rock, Oregon",0,0,0,0,0,0,0,0,0,0,0,0,197,361,275.0,358,847,1695.0,1612.0,1630.0,1478.0,1533.0,1502.0
30781,63282,US,74286,42.1913888889,-122.700833333,,Census,City,OR,"Ashland, Oregon",0,0,0,0,0,0,0,327,400,842,1784,2634,5020,4283,4544.0,4744,7739,9119.0,12342.0,14943.0,16234.0,19522.0,20078.0
30810,50171,US,92007,42.79,-120.39,,Census,US County,OR,"Lake County, Oregon",0,0,0,0,0,0,0,0,0,2804,2604,2847,4658,3991,4833.0,6293,6649,7158.0,6343.0,7532.0,7186.0,7422.0,7895.0
30972,11940,US,1130403,45.43,-122.446388889,,Census,Unincorporated community,OR,"Damascus, Oregon",0,0,0,0,0,0,0,0,0,0,0,0,0,0,0.0,0,0,0.0,0.0,0.0,0.0,9022.0,10539.0
31027,24864,US,131004,45.5197222222,-123.110555556,,Census,City,OR,"Forest Grove, Oregon",0,0,0,0,0,0,0,0,0,547,668,1096,1772,419,362.0,2449,4343,5628.0,8275.0,11499.0,13559.0,17708.0,21083.0
31071,26854,US,92001,44.91,-122.58,,Census,US County,OR,"Marion County, Oregon",0,0,0,0,0,0,2749,7088,9965,14576,22934,27713,39780,47187,60541.0,75246,101401,120888.0,151309.0,204692.0,228483.0,284834.0,315335.0
31135,9521,US,130708,46.0491666667,-122.8875,,Census,City,OR,"Prescott, Oregon",0,0,0,0,0,0,0,0,0,0,0,0,0,0,0.0,0,119,129.0,105.0,73.0,63.0,72.0,55.0
31487,21015,US,130857,44.9722222222,-124.011111111,,Census,City,OR,"Lincoln City, Oregon",0,0,0,0,0,0,0,0,0,0,0,0,0,0,0.0,0,0,3400.0,4198.0,5469.0,5892.0,7437.0,7930.0
