,article_length,country,id,lat,lon,other_years,poptype,settlement_type,state,title,y1790,y1800,y1810,y1820,y1830,y1840,y1850,y1860,y1870,y1880,y1890,y1900,y1910,y1920,y1930,y1940,y1950,y1960,y1970,y1980,y1990,y2000,y2010
158,73528,US,91295,39.09,-77.64,,Census,US County,VA,"Loudoun County, Virginia",18962,20523,21338,22702,21939,20431,22079,21774,20929,23634,23274,21948,21167,20577,19852.0,20291,21147,24549.0,37150.0,57427.0,86129.0,169599.0,312311.0
188,31814,US,91369,37.76,-75.76,,Census,US County,VA,"Accomack County, Virginia",13959,15693,15743,15966,16656,17096,17890,18586,20409,24408,27277,32570,36650,34795,35854.0,33030,33832,30635.0,29004.0,31268.0,31703.0,38305.0,33164.0
189,22178,US,137559,38.8494444444,-77.1291666667,,Census,Census-designated place (cdp),VA,"Bailey's Crossroads, Virginia",0,0,0,0,0,0,0,0,0,0,0,0,0,0,0.0,0,0,0.0,7295.0,12564.0,19507.0,23166.0,23643.0
473,21990,US,91247,36.72,-77.11,,Census,US County,VA,"Southampton County, Virginia",12864,13925,13497,14170,16074,14525,13521,12915,12285,18012,20078,22848,26302,27555,26870.0,26442,26522,27195.0,18582.0,18731.0,17550.0,17482.0,18570.0
524,10019,US,137576,38.8897222222,-77.2058333333,,Census,Census-designated place,VA,"Idylwood, Virginia",0,0,0,0,0,0,0,0,0,0,0,0,0,0,0.0,0,0,0.0,0.0,11982.0,14710.0,16005.0,17288.0
679,26100,US,91349,37.01,-78.66,,Census,US County,VA,"Charlotte County, Virginia",10078,11912,13161,13290,15252,14595,13955,14471,14513,16653,15077,15343,15785,17540,16061.0,15861,14057,13368.0,11551.0,12266.0,11688.0,12472.0,12586.0
683,18005,US,137564,38.8425,-77.4425,,Census,Census-designated place (cdp),VA,"Centreville, Virginia",0,0,0,0,0,0,0,0,0,0,0,0,0,0,0.0,0,0,0.0,0.0,7473.0,26585.0,49789.0,71135.0
685,10161,US,137515,37.5252777778,-79.6833333333,,Census,Town,VA,"Buchanan, Virginia",0,0,0,0,0,0,0,0,0,414,802,716,792,802,825.0,868,1300,1349.0,1326.0,1205.0,1222.0,1233.0,1178.0
722,22915,US,91275,37.3,-75.93,,Census,US County,VA,"Northampton County, Virginia",6889,6763,7474,7705,8641,7715,7498,7832,8046,9152,10313,13770,16672,17852,18565.0,17597,17300,16966.0,14442.0,14625.0,13061.0,13093.0,12389.0
766,56644,US,91261,38.7,-77.48,,Census,US County,VA,"Prince William County, Virginia",11615,12733,11311,9419,9330,8144,8129,8565,7504,9180,9805,11112,12026,13660,13951.0,17738,22612,50164.0,111102.0,144636.0,215686.0,280813.0,402002.0
769,8540,US,137624,36.7647222222,-78.9280555556,,Census,Town,VA,"Halifax, Virginia",0,0,0,0,0,0,0,0,0,621,1285,687,516,411,473.0,536,791,792.0,899.0,772.0,688.0,1389.0,1309.0
1242,98094,US,18940583,38.8047222222,-77.0472222222,,Census,Independent city,VA,"Alexandria, Virginia",2748,4971,7227,8218,8241,8459,8734,12652,13570,13659,14339,14528,15329,18060,24149.0,33523,61787,91023.0,110927.0,103217.0,111183.0,128283.0,139966.0
1261,30383,US,91336,38.49,-77.96,,Census,US County,VA,"Culpeper County, Virginia",22105,18100,18967,20944,24027,11393,12282,12063,12227,13408,13233,14123,13472,13292,13306.0,13365,13242,15088.0,18218.0,22620.0,27791.0,34262.0,46689.0
1324,7798,US,151265,37.7125,-76.3816666667,,Census,Town,VA,"Kilmarnock, Virginia",0,0,0,0,0,0,0,0,0,59,0,0,0,0,0.0,614,689,927.0,841.0,945.0,1109.0,1244.0,1487.0
1347,8261,US,151255,38.2675,-78.825,,Census,Town,VA,"Grottoes, Virginia",0,0,0,0,0,0,0,0,0,0,0,381,456,492,534.0,759,908,969.0,1166.0,1369.0,1455.0,2114.0,2668.0
1391,16682,US,137528,37.1175,-79.2897222222,,Census,Town,VA,"Altavista, Virginia",0,0,0,0,0,0,0,0,0,0,0,0,0,1206,2367.0,2919,3332,3299.0,2708.0,3849.0,3686.0,3425.0,3450.0
1479,30860,US,91325,38.74,-77.81,,Census,US County,VA,"Fauquier County, Virginia",17892,21329,22689,23103,26086,21897,20868,21706,19690,22993,22590,23374,22526,21869,21071.0,21039,21248,24066.0,26375.0,35889.0,48741.0,55139.0,65203.0
1484,20506,US,81067,38.3,-78.47,,Census,US County,VA,"Greene County, Virginia",0,0,0,0,0,4232,4400,5022,4634,5830,5622,6214,6937,6369,5980.0,5218,4745,4715.0,5248.0,7625.0,10297.0,15244.0,18403.0
1522,8472,US,137597,38.5355555556,-77.8080555556,,Census,Town,VA,"Remington, Virginia",0,0,0,0,0,0,0,0,0,0,0,198,251,267,273.0,226,309,288.0,321.0,425.0,460.0,624.0,598.0
1538,13334,US,137809,36.8816666667,-82.7472222222,,Census,Town,VA,"Big Stone Gap, Virginia",0,0,0,0,0,0,0,0,0,0,0,1617,2590,3009,3908.0,4331,5173,4688.0,4153.0,4748.0,4748.0,4856.0,5643.0
1866,9865,US,137698,37.1872222222,-78.2016666667,,Census,Town,VA,"Burkeville, Virginia",0,0,0,0,0,0,0,0,0,237,404,510,653,514,755.0,658,695,705.0,703.0,606.0,535.0,489.0,432.0
1889,10964,US,137652,38.4119444444,-79.5805555556,,Census,Town,VA,"Monterey, Virginia",0,0,0,0,0,0,0,0,0,154,0,246,240,313,290.0,309,262,270.0,223.0,247.0,222.0,158.0,147.0
2003,61187,US,91265,36.8344444444,-76.3416666667,,Census,Independent city,VA,"Portsmouth, Virginia",0,0,0,0,0,6477,8626,9496,10590,11390,13268,17427,33190,54387,45704.0,50745,80039,114773.0,110963.0,104577.0,103910.0,100565.0,95535.0
2065,19007,US,91257,37.94,-76.72,,Census,US County,VA,"Richmond County, Virginia",6985,13744,6214,5706,6055,5965,6448,6856,6503,7195,7146,7088,7415,7434,6878.0,6634,6189,6375.0,5841.0,6952.0,7273.0,8809.0,9254.0
2167,12408,US,137812,36.9780555556,-82.5769444444,,Census,Town,VA,"Wise, Virginia",0,0,0,0,0,0,0,0,0,128,186,511,806,1071,1112.0,1226,1574,2614.0,2891.0,3894.0,3193.0,3255.0,3286.0
2190,13501,US,137620,36.7155555556,-80.9758333333,,Census,Town,VA,"Fries, Virginia",0,0,0,0,0,0,0,0,0,0,0,0,1775,2029,2205.0,1555,1442,1039.0,885.0,758.0,690.0,614.0,484.0
2196,7820,US,137793,36.9702777778,-76.9883333333,,Census,Town,VA,"Wakefield, Virginia",0,0,0,0,0,0,0,0,0,0,0,0,570,784,881.0,687,949,1015.0,942.0,1355.0,1070.0,1038.0,927.0
2340,6147,US,137625,36.76,-78.7905555556,,Census,Town,VA,"Scottsburg, Virginia",0,0,0,0,0,0,0,0,0,87,297,0,0,0,225.0,239,222,188.0,157.0,335.0,152.0,145.0,119.0
2400,14390,US,137536,36.7588888889,-80.7344444444,,Census,Town,VA,"Hillsville, Virginia",0,0,0,0,0,0,181,0,268,0,0,0,0,0,485.0,656,764,905.0,1149.0,2123.0,2008.0,2607.0,2681.0
2482,12019,US,137774,36.8333333333,-81.5166666667,,Census,Town,VA,"Marion, Virginia",0,0,0,0,0,0,0,445,368,919,1651,2045,2727,3253,4156.0,5177,6982,8385.0,8158.0,7287.0,6858.0,6339.0,5968.0
2485,50770,US,137686,37.23,-80.4177777778,,Census,Town,VA,"Blacksburg, Virginia",0,0,0,0,0,0,0,0,0,688,0,768,875,1095,1406.0,2133,3358,7070.0,9384.0,30638.0,34590.0,39573.0,42620.0
2492,25781,US,91355,37.57,-78.53,,Census,US County,VA,"Buckingham County, Virginia",9779,13389,20059,17569,18351,18786,13837,15212,13371,15540,14383,15266,15204,14885,13315.0,13398,12288,10877.0,10597.0,11751.0,12873.0,15623.0,17146.0
2526,8699,US,137622,36.7008333333,-81.4447222222,,Census,Town,VA,"Troutdale, Virginia",0,0,0,0,0,0,0,0,0,0,0,0,431,636,357.0,334,250,273.0,209.0,248.0,196.0,1230.0,178.0
2652,39204,US,91245,38.41,-77.45,,Census,US County,VA,"Stafford County, Virginia",9588,9971,9830,9517,9362,8454,8044,8555,6420,7211,7362,8097,8070,8104,8050.0,9548,11902,16876.0,24587.0,40470.0,61236.0,92446.0,128961.0
2927,9454,US,137790,37.0444444444,-76.9347222222,,Census,Town,VA,"Dendron, Virginia",0,0,0,0,0,0,0,0,0,0,0,0,1653,1705,671.0,465,476,403.0,336.0,307.0,305.0,297.0,272.0
3148,10004,US,137776,36.5805555556,-77.2,,Census,Town,VA,"Boykins, Virginia",0,0,0,0,0,0,0,0,0,0,173,224,505,637,636.0,699,811,710.0,742.0,791.0,658.0,620.0,564.0
3306,11724,US,137808,36.9063888889,-82.7855555556,,Census,Town,VA,"Appalachia, Virginia",0,0,0,0,0,0,0,0,0,0,0,0,1090,2036,3595.0,3010,2915,2456.0,2161.0,2418.0,1994.0,1839.0,1754.0
3383,18432,US,137700,38.2458333333,-78.1097222222,,Census,Town,VA,"Orange, Virginia",0,0,0,0,0,0,0,0,731,547,571,536,674,1078,1381.0,1980,2571,2955.0,2768.0,2631.0,2582.0,4123.0,4721.0
3428,40577,US,91246,,,,Census,US County,VA,"Spotsylvania County, Virginia",11252,13002,13296,14254,15134,15161,14911,16076,11728,14828,14233,9239,9935,10571,10056.0,9905,11920,13819.0,16424.0,34435.0,57403.0,90395.0,122397.0
3720,7722,US,137751,38.6341666667,-78.7763888889,,Census,Town,VA,"Timberville, Virginia",0,0,0,0,0,0,0,0,0,112,0,173,240,277,302.0,253,271,412.0,959.0,1510.0,1596.0,1739.0,2522.0
3733,7126,US,137680,38.3808333333,-78.2580555556,,Census,Town,VA,"Madison, Virginia",0,0,0,0,0,0,0,0,0,461,353,0,0,0,0.0,281,308,301.0,299.0,267.0,307.0,210.0,229.0
3750,9827,US,137693,37.3508333333,-75.94,,Census,Town,VA,"Eastville, Virginia",0,0,0,0,0,0,0,0,0,0,0,313,322,332,351.0,316,311,261.0,203.0,238.0,185.0,203.0,305.0
3796,11932,US,137684,36.7266666667,-78.1305555556,,Census,Town,VA,"South Hill, Virginia",0,0,0,0,0,0,0,0,0,0,0,0,732,1074,1405.0,1739,2153,2569.0,3858.0,4347.0,4217.0,4403.0,4650.0
3827,35858,US,91362,38.2,-79.1166666667,,Census,US County,VA,"Augusta County, Virginia",10886,11712,14308,16742,19926,19628,24610,27749,28763,35710,37005,32370,32445,34671,38163.0,42772,34154,37363.0,44220.0,53732.0,54677.0,65615.0,73750.0
3940,12653,US,137658,37.5436111111,-76.8052777778,,Census,Town,VA,"West Point, Virginia",0,0,0,0,0,0,0,0,0,557,2018,1307,1397,1635,1844.0,1947,1919,1678.0,2600.0,2726.0,2938.0,2866.0,3306.0
3988,22985,US,91255,37.27,-80.08,,Census,US County,VA,"Roanoke County, Virginia",0,0,0,0,0,5499,8477,8048,9350,13105,30101,15837,19623,22395,35289.0,42897,41486,61693.0,67339.0,72945.0,79332.0,85778.0,92376.0
4045,40644,US,137488,37.8258333333,-75.9922222222,,Census,Town,VA,"Tangier, Virginia",0,0,0,0,0,0,0,0,0,0,0,0,698,962,1120.0,1020,915,876.0,814.0,771.0,659.0,604.0,727.0
4123,21301,US,91338,37.7861111111,-79.9888888889,,Census,Independent city,VA,"Covington, Virginia",0,0,0,0,0,0,0,0,0,436,704,2950,4234,5623,6538.0,6300,5860,11062.0,10060.0,9063.0,6991.0,6303.0,5961.0
4153,8764,US,137665,36.7566666667,-83.0294444444,,Census,Town,VA,"Pennington Gap, Virginia",0,0,0,0,0,0,0,0,0,0,0,399,792,940,1553.0,1990,2090,1799.0,1886.0,1716.0,1922.0,1781.0,1781.0
4271,38107,US,91259,37.1275,-80.5694444444,,Census,Independent city,VA,"Radford, Virginia",0,0,0,0,0,0,0,0,0,0,2060,3344,4202,4627,6227.0,6990,9026,9371.0,11596.0,13225.0,15940.0,15859.0,16408.0
4448,94431,US,91290,37.4036111111,-79.17,,Census,Independent city,VA,"Lynchburg, Virginia",0,0,0,0,4630,6395,8071,6853,6825,15959,19709,18891,29494,30070,40661.0,44541,47727,54790.0,54083.0,66743.0,66049.0,65269.0,75568.0
4494,8377,US,137556,36.9833333333,-77.7188888889,,Census,Town,VA,"McKenney, Virginia",0,0,0,0,0,0,0,0,0,0,0,0,0,0,341.0,453,476,519.0,489.0,473.0,386.0,441.0,483.0
4738,14896,US,1429102,,,,Census,Unknown,VA,"Princess Anne County, Virginia",7793,8859,9498,8768,9102,7285,7669,7714,8273,9394,9510,11192,11526,13626,16282.0,19984,42277,77127.0,0.0,0.0,0.0,0.0,0.0
4801,80766,US,91305,38.35,-79.56,,Census,US County,VA,"Highland County, Virginia",0,0,0,0,0,0,4227,4319,4151,5164,5352,5647,5317,4931,4525.0,4875,4069,3221.0,2529.0,2937.0,2635.0,2536.0,2321.0
4825,7885,US,137764,38.75,-78.6375,,Census,Town,VA,"Mount Jackson, Virginia",0,0,0,0,0,0,0,560,270,494,0,472,479,500,575.0,562,732,722.0,681.0,1419.0,1583.0,1664.0,1994.0
4903,24844,US,91228,36.97,-82.62,,Census,US County,VA,"Wise County, Virginia",0,0,0,0,0,0,0,4508,4785,7772,9345,19653,34162,46500,51167.0,52458,56336,43579.0,35947.0,43863.0,39573.0,40123.0,41452.0
4963,9532,US,137744,38.3866666667,-78.9697222222,,Census,Town,VA,"Bridgewater, Virginia",0,0,0,0,0,0,0,0,0,390,0,384,859,914,951.0,993,1537,1815.0,2828.0,3289.0,3918.0,5203.0,5644.0
5288,27233,US,137801,38.9333333333,-78.2,,Census,Town,VA,"Front Royal, Virginia",0,0,0,0,0,0,504,807,705,829,868,1005,1133,1404,2424.0,3831,8115,7949.0,8211.0,11126.0,11880.0,13589.0,14440.0
5385,6889,US,137678,36.9627777778,-78.1269444444,,Census,Town,VA,"Kenbridge, Virginia",0,0,0,0,0,0,0,0,0,0,0,0,196,543,753.0,847,1176,1188.0,1223.0,1352.0,1264.0,1253.0,1257.0
5450,20694,US,91252,36.94,-82.1,,Census,US County,VA,"Russell County, Virginia",3338,4808,6319,5536,6714,7878,11919,10280,11103,13906,16126,18031,23474,26786,25957.0,26627,26818,26290.0,24533.0,31761.0,28667.0,30308.0,28897.0
5632,6597,US,137781,36.6277777778,-77.1266666667,,Census,Town,VA,"Newsoms, Virginia",0,0,0,0,0,0,0,0,0,0,0,0,0,0,0.0,0,392,423.0,389.0,368.0,337.0,282.0,321.0
5658,30351,US,91264,,,,Census,US County,VA,"Powhatan County, Virginia",6822,7769,8073,8292,8517,7924,8178,8392,7667,7817,6791,6824,6099,6552,6143.0,5671,5556,6747.0,7696.0,13062.0,15328.0,22377.0,28046.0
5726,49713,US,91326,38.8858333333,-77.1722222222,,Census,Independent city,VA,"Falls Church, Virginia",0,0,0,0,0,0,0,0,0,660,792,1007,1128,1659,2019.0,2576,7535,10192.0,10772.0,9515.0,9578.0,10377.0,12332.0
5756,18151,US,137679,36.9933333333,-78.225,,Census,Town,VA,"Victoria, Virginia",0,0,0,0,0,0,0,0,0,0,0,0,682,1445,1568.0,1555,1607,1737.0,1408.0,2004.0,1830.0,1821.0,1725.0
5763,29466,US,91306,,,,Census,US County,VA,"Henry County, Virginia",8479,5259,5611,5624,7100,7335,8872,12105,12303,16009,18208,19265,18459,20238,20088.0,26481,31219,40335.0,50901.0,57654.0,56942.0,57930.0,54151.0
5769,14673,US,91251,37.2866666667,-80.0558333333,,Census,Independent city,VA,"Salem, Virginia",0,0,0,0,0,0,0,612,1355,1759,3279,3412,3849,4159,4833.0,5737,6823,16058.0,21982.0,23958.0,23756.0,24747.0,24802.0
5828,164107,US,53274,37.5333333333,-77.4666666667,,Census,State capital and independent city,VA,"Richmond, Virginia",3761,5737,9735,12067,16060,20153,27570,37910,51038,63600,81388,85050,127628,171667,182929.0,193042,230310,219958.0,249621.0,219214.0,203056.0,197790.0,204214.0
5889,11258,US,137738,38.7127777778,-78.1594444444,,Census,Town,VA,"Washington, Virginia",0,0,0,0,0,0,0,0,0,254,252,300,235,233,250.0,245,249,255.0,189.0,247.0,198.0,183.0,135.0
5913,111559,US,91327,,,,Census,US County,VA,"Fairfax County, Virginia",12320,13317,13111,11404,9204,9370,10682,11834,12952,16025,16655,18580,20536,21943,25264.0,40929,98557,275002.0,455021.0,596901.0,818584.0,969749.0,1081726.0
6067,7347,US,152232,37.55,-75.8244444444,,Census,Town,VA,"Belle Haven, Accomack County, Virginia",0,0,0,0,0,0,0,0,0,0,0,331,296,311,372.0,277,453,371.0,504.0,589.0,526.0,480.0,532.0
6128,23790,US,91316,37.32,-80.7,,Census,US County,VA,"Giles County, Virginia",0,0,3745,4521,5274,5307,6570,6883,5875,8794,9090,10793,11623,11901,12804.0,14635,18956,17219.0,16741.0,17810.0,16366.0,16657.0,17286.0
6157,14911,US,137748,38.4083333333,-78.6202777778,,Census,Town,VA,"Elkton, Virginia",0,0,0,0,0,0,0,0,0,0,0,0,873,905,965.0,1050,1361,1506.0,1511.0,1520.0,1935.0,2042.0,2726.0
6222,16174,US,137654,36.9788888889,-76.6186111111,,Census,Town,VA,"Smithfield, Virginia",0,0,0,0,0,0,733,777,652,814,891,1225,1278,1181,1179.0,1178,1180,917.0,2713.0,3718.0,4686.0,6324.0,8089.0
6404,9212,US,137524,36.7583333333,-77.8505555556,,Census,Town,VA,"Lawrenceville, Virginia",0,0,0,0,0,0,0,0,0,238,305,760,1733,1439,1629.0,1703,2239,1941.0,1636.0,1484.0,1486.0,1275.0,1438.0
6408,6361,US,137777,36.5691666667,-77.2488888889,,Census,Town,VA,"Branchville, Virginia",0,0,0,0,0,0,0,0,0,0,0,0,239,148,161.0,153,169,158.0,189.0,174.0,55.0,123.0,114.0
6430,7482,US,137714,36.9530555556,-79.3627777778,,Census,Town,VA,"Gretna, Virginia",0,0,0,0,0,0,0,0,0,0,0,0,330,470,637.0,619,803,900.0,986.0,1255.0,1339.0,1257.0,1267.0
6443,90113,US,91277,37.0708333333,-76.4844444444,,Census,Independent city,VA,"Newport News, Virginia",0,0,0,0,0,0,0,0,0,0,4449,19635,20205,35596,34417.0,37067,42358,113662.0,138177.0,144903.0,170045.0,180150.0,180719.0
6470,11118,US,137799,37.0944444444,-81.8061111111,,Census,Town,VA,"Richlands, Virginia",0,0,0,0,0,0,0,0,0,0,0,475,743,1171,1355.0,2203,4648,4963.0,4843.0,5796.0,4456.0,4144.0,5823.0
6490,6340,US,137753,36.9436111111,-82.1522222222,,Census,Town,VA,"Cleveland, Virginia",0,0,0,0,0,0,0,0,0,0,0,0,252,0,0.0,0,388,415.0,357.0,360.0,214.0,148.0,202.0
6636,6663,US,137541,37.0808333333,-78.7472222222,,Census,Town,VA,"Phenix, Virginia",0,0,0,0,0,0,0,0,0,0,0,0,0,0,0.0,340,290,259.0,260.0,250.0,260.0,200.0,226.0
6651,33569,US,45451,39.21,-78.26,,Census,US County,VA,"Frederick County, Virginia",19681,24744,22574,24706,26046,14242,15975,16546,16596,17553,17880,13239,12787,12461,13167.0,14008,17537,21941.0,28893.0,34150.0,45723.0,59209.0,78305.0
6687,55917,US,91310,37.0347222222,-76.36,,Census,Independent city,VA,"Hampton, Virginia",0,0,0,0,0,0,787,1848,2300,2684,2513,2764,5505,6138,6382.0,5898,5966,89258.0,120779.0,122617.0,133811.0,146437.0,137436.0
6706,14746,US,73303,37.3344444444,-79.5230555556,,Census,Incorporated town,VA,"Bedford, Virginia",0,0,0,0,0,0,0,722,1208,2191,2897,2416,2508,3243,3713.0,3973,4061,5921.0,6011.0,5991.0,6073.0,6299.0,6222.0
6708,8000,US,137540,37.04,-78.4836111111,,Census,Town,VA,"Keysville, Virginia",0,0,0,0,0,0,0,0,0,115,126,82,482,493,589.0,607,690,733.0,818.0,704.0,606.0,817.0,832.0
6895,7172,US,137551,37.5008333333,-80.1108333333,,Census,Town,VA,"New Castle, Virginia",0,0,0,0,0,0,0,225,199,182,214,299,0,702,259.0,253,239,200.0,225.0,213.0,152.0,179.0,153.0
6970,11572,US,137533,38.1697222222,-77.1908333333,,Census,Town,VA,"Port Royal, Virginia",0,0,0,0,0,0,470,323,435,347,236,193,194,155,157.0,123,139,128.0,199.0,147.0,204.0,170.0,126.0
7067,31767,US,91344,37.7322222222,-79.3533333333,,Census,Independent city,VA,"Buena Vista, Virginia",0,0,0,0,0,0,0,0,0,0,1044,2388,3245,3911,4002.0,4335,5214,6300.0,6425.0,6717.0,6406.0,6349.0,6650.0
7071,8958,US,137765,38.6444444444,-78.6733333333,,Census,Town,VA,"New Market, Virginia",0,0,0,0,0,0,0,747,600,662,607,684,638,577,640.0,629,701,783.0,718.0,1118.0,1435.0,1637.0,2146.0
7098,7807,US,137617,37.3838888889,-80.8219444444,,Census,Town,VA,"Rich Creek, Virginia",0,0,0,0,0,0,0,0,0,0,0,0,0,0,0.0,0,740,748.0,729.0,746.0,670.0,665.0,774.0
7217,18394,US,137550,39.0930555556,-78.0591666667,,Census,Town,VA,"Boyce, Virginia",0,0,0,0,0,0,0,0,0,0,0,0,0,301,325.0,342,372,384.0,378.0,401.0,520.0,426.0,589.0
7234,8639,US,137685,37.6377777778,-76.5730555556,,Census,Town,VA,"Urbanna, Virginia",0,0,0,0,0,0,0,0,0,163,0,0,475,387,432.0,482,505,512.0,475.0,518.0,529.0,543.0,476.0
7403,76138,US,91318,38.3018055556,-77.4708333333,,Census,Independent city,VA,"Fredericksburg, Virginia",0,0,0,0,3308,3974,4061,5022,4046,5010,4528,5068,5874,5882,6819.0,10066,12158,13639.0,14450.0,15322.0,19027.0,19279.0,24286.0
7459,33822,US,91263,37.22,-78.44,,Census,US County,VA,"Prince Edward County, Virginia",8100,10962,12409,12577,14107,14069,11857,11844,12004,14668,14694,15045,14266,14767,14520.0,14922,15398,14121.0,14379.0,16456.0,17320.0,19720.0,23368.0
7552,7406,US,137539,36.9930555556,-78.6016666667,,Census,Town,VA,"Drakes Branch, Virginia",0,0,0,0,0,0,0,0,0,87,0,0,703,660,583.0,438,410,759.0,702.0,617.0,565.0,504.0,530.0
7666,42892,US,91352,38.03,-77.35,,Census,US County,VA,"Caroline County, Virginia",17489,17438,17544,18008,17760,17813,18456,18464,15128,17243,16681,16709,16596,15954,15263.0,13945,12471,12725.0,13925.0,17904.0,19217.0,22121.0,28545.0
7780,6854,US,137815,36.8933333333,-81.2761111111,,Census,Town,VA,"Rural Retreat, Virginia",0,0,0,0,0,0,0,0,0,286,0,0,0,463,436.0,440,478,413.0,872.0,1083.0,972.0,1350.0,1483.0
8010,27870,US,91340,37.2438888889,-77.4105555556,,Census,Independent city,VA,"Colonial Heights, Virginia",0,0,0,0,0,0,0,0,0,0,0,0,0,0,2331.0,3194,6077,9587.0,15097.0,16509.0,16064.0,16897.0,17411.0
8017,12503,US,137628,37.7594444444,-77.4772222222,,Census,Town,VA,"Ashland, Virginia",0,0,0,0,0,0,0,148,491,764,948,1147,1324,1290,1297.0,1718,2610,2773.0,2934.0,4640.0,5864.0,6619.0,7225.0
8060,16275,US,137549,39.1511111111,-77.9825,,Census,Town,VA,"Berryville, Virginia",0,0,0,0,0,0,0,356,580,0,0,938,876,1138,1094.0,1262,1401,1645.0,1569.0,1752.0,3097.0,2963.0,4185.0
8099,40516,US,91342,36.7141666667,-76.2383333333,,Census,Independent city,VA,"Chesapeake, Virginia",14524,19419,22872,23936,24806,27569,33036,36227,46702,58657,77038,50780,52744,57358,30082.0,35828,99537,51612.0,0.0,0.0,0.0,0.0,0.0
8117,28403,US,91289,38.41,-78.28,,Census,US County,VA,"Madison County, Virginia",0,8322,8381,8490,9236,8107,9331,8854,8670,10562,10225,10216,10055,9595,8952.0,8465,8273,8187.0,8638.0,10232.0,11949.0,12520.0,13308.0
8125,23352,US,91270,38.61,-78.48,,Census,US County,VA,"Page County, Virginia",0,0,0,0,0,6194,7600,8109,8462,9965,13092,13794,14147,14770,14852.0,14863,15152,15572.0,16581.0,19401.0,21690.0,23177.0,24042.0
8181,10701,US,137675,39.1336111111,-77.7702777778,,Census,Town,VA,"Round Hill, Loudoun County, Virginia",0,0,0,0,0,0,0,0,0,0,207,318,379,359,359.0,337,403,430.0,581.0,510.0,514.0,500.0,539.0
8222,6984,US,137477,37.8286111111,-75.6222222222,,Census,Town,VA,"Bloxom, Virginia",0,0,0,0,0,0,0,0,0,0,0,0,0,0,0.0,0,0,349.0,391.0,407.0,357.0,395.0,387.0
8272,26489,US,91297,36.71,-83.13,,Census,US County,VA,"Lee County, Virginia",0,3538,4694,4256,6461,8441,10267,11032,13268,15116,18216,19856,23840,25293,30419.0,39296,36106,25824.0,20321.0,25956.0,24496.0,23589.0,25587.0
8323,13127,US,137759,36.6383333333,-82.5805555556,,Census,Town,VA,"Gate City, Virginia",0,0,0,0,0,0,0,0,0,0,0,521,599,684,1216.0,1565,2126,2142.0,1914.0,2494.0,2214.0,2159.0,2034.0
8458,30861,US,137544,37.52,-77.5688888889,,Census,Census-designated place (cdp),VA,"Bon Air, Virginia",0,0,0,0,0,0,0,0,0,0,0,0,0,0,0.0,0,0,0.0,10771.0,16224.0,16423.0,16213.0,16366.0
8477,20705,US,91332,,,,Census,US County,VA,"Dickenson County, Virginia",0,0,0,0,0,0,0,0,0,0,5077,7747,9199,13542,16163.0,21266,23393,20211.0,16077.0,19806.0,17620.0,16395.0,15903.0
8488,19816,US,91337,37.49,-80.22,,Census,US County,VA,"Craig County, Virginia",0,0,0,0,0,0,0,3553,2942,3794,3835,4293,4711,4100,3562.0,3769,3452,3356.0,3524.0,3948.0,4372.0,5091.0,5190.0
8573,21436,US,91359,37.13,-81.13,,Census,US County,VA,"Bland County, Virginia",0,0,0,0,0,0,0,0,4000,5004,5129,5497,5154,5593,6031.0,6731,6436,5982.0,5423.0,6349.0,6514.0,6871.0,6824.0
8670,8462,US,137579,38.8180555556,-77.1430555556,,Census,Census-designated place,VA,"Lincolnia, Virginia",0,0,0,0,0,0,0,0,0,0,0,0,0,0,0.0,0,0,0.0,10761.0,10350.0,13041.0,15788.0,22828.0
8711,60923,US,137612,39.0831805556,-78.2183222222,,Census,Incorporated town,VA,"Stephens City, Virginia",0,0,0,0,0,0,0,0,0,479,443,490,483,481,606.0,600,676,876.0,802.0,1179.0,1186.0,1146.0,1829.0
8801,6455,US,137791,37.1358333333,-76.8352777778,,Census,Town,VA,"Surry, Virginia",0,0,0,0,0,0,0,0,0,0,0,0,0,0,243.0,254,248,288.0,269.0,237.0,192.0,262.0,244.0
8816,119480,US,91363,,,,Census,US County,VA,"Arlington County, Virginia",0,5949,8552,9703,9573,9967,10008,12652,16755,17546,18597,6430,10231,16040,26615.0,57040,135449,163401.0,174284.0,152599.0,170936.0,189453.0,207627.0
8834,10429,US,137747,38.4163888889,-78.9394444444,,Census,Town,VA,"Dayton, Virginia",0,0,0,0,0,0,0,0,0,258,0,425,516,482,537.0,632,788,930.0,978.0,1017.0,921.0,1344.0,1530.0
8870,10768,US,137575,38.7469444444,-77.0769444444,,Census,Census-designated place,VA,"Hybla Valley, Virginia",0,0,0,0,0,0,0,0,0,0,0,0,0,0,0.0,0,0,0.0,0.0,15533.0,15491.0,16721.0,15801.0
9104,125865,US,57898,36.9166666667,-76.2,,Census,Independent city,VA,"Norfolk, Virginia",2959,6926,9193,8478,9814,10929,14326,14620,19229,21966,34871,46624,67452,115777,129710.0,144335,213513,305872.0,307951.0,266979.0,261229.0,234403.0,242803.0
9238,14583,US,137478,37.9347222222,-75.3677777778,,Census,Town,VA,"Chincoteague, Virginia",0,0,0,0,0,0,0,0,0,0,0,0,1419,1418,2130.0,2142,2724,2131.0,1867.0,1607.0,3572.0,4317.0,2941.0
9288,6405,US,137778,36.7108333333,-77.2016666667,,Census,Town,VA,"Capron, Virginia",0,0,0,0,0,0,0,0,0,0,0,0,0,0,337.0,291,281,327.0,314.0,238.0,144.0,167.0,166.0
9423,17970,US,137691,37.2675,-76.0141666667,,Census,Town,VA,"Cape Charles, Virginia",0,0,0,0,0,0,0,0,0,0,0,1040,1948,2517,2527.0,2299,2427,2041.0,1689.0,1512.0,1398.0,1134.0,1009.0
9433,20304,US,91260,37.06,-80.71,,Census,US County,VA,"Pulaski County, Virginia",0,0,0,0,0,3739,5118,5416,6538,8755,12790,14609,17246,17111,20566.0,22767,27758,27258.0,29564.0,35229.0,34496.0,35127.0,34872.0
9566,115588,US,75796,37.2708333333,-79.9416666667,,Census,Independent city,VA,"Roanoke, Virginia",0,0,0,0,0,0,0,0,0,669,16159,21495,34874,50842,69206.0,69287,91921,97110.0,92115.0,100220.0,96397.0,94911.0,97032.0
9590,16120,US,151271,36.8736111111,-81.7608333333,,Census,Town,VA,"Saltville, Virginia",0,0,0,0,0,0,0,0,0,185,0,1051,1628,2248,2964.0,2650,2678,2844.0,2527.0,2376.0,2300.0,2204.0,2077.0
9867,8830,US,137779,36.7158333333,-77.0661111111,,Census,Town,VA,"Courtland, Virginia",0,0,0,0,0,0,0,0,0,0,0,288,283,379,355.0,459,443,855.0,899.0,976.0,819.0,1270.0,1284.0
9910,6416,US,137627,36.5452777778,-78.7736111111,,Census,Town,VA,"Virgilina, Virginia",0,0,0,0,0,0,0,0,0,0,0,200,270,350,338.0,358,323,286.0,249.0,212.0,161.0,207.0,234.0
10007,24009,US,91227,36.92,-81.09,,Census,US County,VA,"Wythe County, Virginia",0,6380,8356,9692,12163,9375,12024,12305,11611,14318,18019,20437,20372,20217,20704.0,22721,23327,21975.0,22139.0,25522.0,25466.0,27599.0,29235.0
10122,10360,US,137518,37.4994444444,-79.8766666667,,Census,Town,VA,"Fincastle, Virginia",0,0,0,0,0,0,0,896,0,675,0,652,479,457,517.0,442,405,403.0,397.0,282.0,236.0,359.0,353.0
10248,18256,US,91341,37.8197222222,-79.8236111111,,Census,Town,VA,"Clifton Forge, Virginia",0,0,0,0,0,0,0,0,0,0,1792,3579,5748,6164,6839.0,6461,5795,5268.0,5501.0,5046.0,4679.0,4289.0,3884.0
10287,22234,US,91230,36.72,-81.96,,Census,US County,VA,"Washington County, Virginia",5625,9536,12156,12444,15614,13001,14612,16892,16816,25203,29020,28995,32830,32376,33850.0,38197,37536,38076.0,40835.0,46487.0,45887.0,51103.0,54876.0
10509,13314,US,137591,38.8652777778,-77.1444444444,,Census,Census-designated place (cdp),VA,"Seven Corners, Virginia",0,0,0,0,0,0,0,0,0,0,0,0,0,0,0.0,0,0,0.0,5590.0,6058.0,7280.0,8701.0,9255.0
10636,24331,US,91267,36.82,-79.4,,Census,US County,VA,"Pittsylvania County, Virginia",11579,12697,17172,21323,26034,26398,28796,32104,31343,52589,59941,46894,50709,56493,61424.0,61697,66096,58296.0,58789.0,66147.0,55655.0,61745.0,63506.0
10674,22824,US,137687,37.1411111111,-80.4077777778,,Census,Town,VA,"Christiansburg, Virginia",0,0,0,0,0,0,532,739,864,766,0,659,1568,1641,1970.0,2299,2967,3653.0,7857.0,10345.0,15004.0,16947.0,21041.0
10746,21486,US,91298,37.71,-76.41,,Census,US County,VA,"Lancaster County, Virginia",5638,5375,5592,5517,4801,4628,4708,5151,5355,6160,7191,8949,9752,9757,8896.0,8786,8640,9174.0,9126.0,10129.0,10896.0,11567.0,11391.0
10802,23482,US,91229,38.11,-76.8,,Census,US County,VA,"Westmoreland County, Virginia",0,0,0,6901,8396,8019,8080,8282,7682,8846,8399,9243,9313,10240,8497.0,9512,10148,11042.0,12142.0,14041.0,15480.0,16718.0,17454.0
10816,27204,US,91314,36.65,-81.23,,Census,US County,VA,"Grayson County, Virginia",0,3912,4941,5598,7675,9087,6677,8252,9587,13068,14394,16853,19856,19816,20017.0,21916,21379,17930.0,15439.0,16579.0,16278.0,17917.0,15533.0
10828,24030,US,137565,38.875,-77.4025,,Census,Cdp,VA,"Chantilly, Virginia",0,0,0,0,0,0,0,0,0,0,0,0,0,0,0.0,0,0,0.0,0.0,12259.0,29337.0,41041.0,23039.0
10863,23055,US,16083197,37.7,-77.1,,Census,US County,VA,"King William County, Virginia",8128,9055,9285,9697,9812,9258,8779,8530,7515,8751,9605,8380,8547,8739,7929.0,7855,7589,7563.0,7497.0,9334.0,10913.0,13146.0,15935.0
10875,35978,US,137670,39.1166666667,-77.55,,Census,Town,VA,"Leesburg, Virginia",0,0,0,0,0,0,1691,1130,1144,1726,1650,1513,1597,1545,1640.0,1698,1703,2869.0,4821.0,8357.0,16202.0,28311.0,42616.0
10878,9388,US,137588,38.9116666667,-77.2013888889,,Census,Census-designated place (cdp),VA,"Pimmit Hills, Virginia",0,0,0,0,0,0,0,0,0,0,0,0,0,0,0.0,0,0,0.0,0.0,0.0,0.0,6152.0,6094.0
10934,9042,US,137663,36.6880555556,-83.1163888889,,Census,Town,VA,"Jonesville, Virginia",0,0,0,0,0,0,0,0,274,0,0,0,383,328,384.0,588,597,711.0,700.0,874.0,927.0,995.0,1034.0
11119,24716,US,137582,38.9341666667,-77.1775,,Census,Census-designated place,VA,"McLean, Virginia",0,0,0,0,0,0,0,0,0,0,0,0,0,0,0.0,0,0,0.0,17698.0,35664.0,38168.0,38929.0,48115.0
11373,32363,US,137566,38.78,-77.3863888889,,Census,Town,VA,"Clifton, Virginia",0,0,0,0,0,0,0,0,0,94,0,0,204,200,181.0,194,262,230.0,178.0,170.0,176.0,185.0,282.0
11519,28632,US,91320,36.99,-79.88,,Census,US County,VA,"Franklin County, Virginia",6842,9302,10724,12017,14911,15832,17430,20098,18264,25084,24985,25953,26480,26283,24337.0,25864,24560,25925.0,26858.0,35740.0,39549.0,47286.0,56159.0
11542,11772,US,137713,36.8255555556,-79.3975,,Census,Town,VA,"Chatham, Virginia",0,0,0,0,0,0,0,0,0,543,757,918,1113,1171,1143.0,1230,1456,1822.0,1801.0,1390.0,1354.0,1338.0,1269.0
11556,27172,US,137573,38.9713888889,-77.3886111111,,Census,Town,VA,"Herndon, Virginia",0,0,0,0,0,0,0,0,0,422,795,692,802,953,887.0,1046,1461,1960.0,4301.0,11449.0,16139.0,21655.0,23292.0
11572,25458,US,91282,36.68,-78.37,,Census,US County,VA,"Mecklenburg County, Virginia",14733,17008,18453,19786,20477,20724,20630,20096,21318,24610,25359,26551,28956,31208,32622.0,31933,33497,31428.0,29426.0,29444.0,29241.0,32280.0,32727.0
11594,22728,US,137766,38.9905555556,-78.3586111111,,Census,Town,VA,"Strasburg, Virginia",0,0,0,0,0,0,0,624,580,647,646,690,762,650,1901.0,1968,2022,2428.0,2431.0,2311.0,3762.0,4017.0,6398.0
11702,26068,US,91278,,,,Census,US County,VA,"New Kent County, Virginia",6239,6363,6478,6630,6458,6230,6064,5884,4381,5515,5511,4865,4682,4541,4300.0,4092,3995,4504.0,5300.0,8781.0,10445.0,13462.0,18429.0
11967,6909,US,137491,37.7986111111,-79.7911111111,,Census,Town,VA,"Iron Gate, Virginia",0,0,0,0,0,0,0,0,0,0,199,392,600,699,777.0,719,725,716.0,692.0,620.0,417.0,404.0,388.0
12021,24669,US,91249,,,,Census,US County,VA,"Shenandoah County, Virginia",10510,13823,13646,18926,19750,11618,13768,13896,14936,18204,19671,20253,20942,20808,20655.0,20898,21169,21825.0,22852.0,27559.0,31636.0,35075.0,41993.0
12029,7284,US,137667,36.8038888889,-83.0572222222,,Census,Town,VA,"St. Charles, Virginia",0,0,0,0,0,0,0,0,0,0,0,0,0,400,457.0,482,550,368.0,368.0,241.0,206.0,159.0,128.0
12047,9397,US,137743,37.9891666667,-79.4986111111,,Census,Town,VA,"Goshen, Virginia",0,0,0,0,0,0,0,0,0,0,0,253,165,154,124.0,187,124,99.0,121.0,134.0,366.0,406.0,361.0
12058,73019,US,91268,37.2127777778,-77.4002777778,,Census,Independent city,VA,"Petersburg, Virginia",2828,3521,5668,6690,8322,11136,14010,18266,18950,21656,22680,21810,24127,31012,28564.0,30631,35054,36750.0,36103.0,41055.0,38386.0,33740.0,32420.0
12181,29146,US,91283,37.42,-76.28,,Census,US County,VA,"Mathews County, Virginia",0,5806,4227,6920,7664,7442,6714,7091,6200,7501,7584,8239,8922,8447,7884.0,7149,7148,7121.0,7168.0,7995.0,8348.0,9207.0,8978.0
12204,12771,US,137584,38.7352777778,-77.0952777778,,Census,Census-designated place,VA,"Mount Vernon, Virginia",0,0,0,0,0,0,0,0,0,0,0,0,0,0,0.0,0,0,0.0,0.0,24058.0,27485.0,28582.0,12416.0
12256,23734,US,91296,37.7838888889,-79.4427777778,,Census,Independent city,VA,"Lexington, Virginia",0,0,0,0,0,0,1743,2135,2873,2771,3059,3203,2931,2870,3752.0,3914,5976,7537.0,7597.0,7292.0,6959.0,6867.0,7042.0
12390,64223,US,91233,39.1833333333,-78.1666666667,,Census,Independent city,VA,"Winchester, Virginia",0,0,0,0,0,3454,3857,4392,4477,4958,5196,5161,5864,6883,10855.0,12095,13841,15110.0,14643.0,20217.0,21947.0,23585.0,26203.0
12431,7671,US,137757,36.7197222222,-82.7975,,Census,Town,VA,"Duffield, Virginia",0,0,0,0,0,0,0,0,0,0,0,98,122,120,170.0,83,176,97.0,63.0,148.0,54.0,62.0,91.0
12463,7232,US,137750,38.3569444444,-78.9419444444,,Census,Town,VA,"Mount Crawford, Virginia",0,0,0,0,0,0,0,0,901,392,0,330,228,263,272.0,290,303,247.0,276.0,315.0,228.0,254.0,433.0
12530,48456,US,91308,38.4494444444,-78.8688888889,,Census,Independent city,VA,"Harrisonburg, Virginia",0,0,0,0,0,0,0,1023,2036,2831,2792,3521,4879,5875,7232.0,8768,10810,11916.0,14605.0,19671.0,30707.0,40468.0,48914.0
12782,15444,US,137709,38.4883333333,-78.6211111111,,Census,Town,VA,"Shenandoah, Virginia",0,0,0,0,0,0,0,0,0,197,751,1220,1431,1895,1980.0,1829,1903,1839.0,1714.0,1861.0,2213.0,1878.0,2373.0
12908,7168,US,137763,38.8225,-78.5652777778,,Census,Town,VA,"Edinburg, Virginia",0,0,0,0,0,0,0,514,452,478,512,512,574,568,498.0,565,533,517.0,766.0,752.0,860.0,813.0,1041.0
13052,57679,US,91303,37.31,-76.77,,Census,US County,VA,"James City County, Virginia",4070,3931,4094,4563,3838,3779,4020,5798,4425,5422,5643,3688,3624,3676,3879.0,4907,6317,11539.0,17853.0,22763.0,34859.0,48102.0,67009.0
13069,24419,US,91254,37.81,-79.45,,Census,US County,VA,"Rockbridge County, Virginia",6548,8945,10318,11945,14244,14284,16045,17248,16058,20003,23062,21799,21171,20626,20902.0,22384,23359,24039.0,16637.0,17911.0,18350.0,20808.0,22307.0
13116,10268,US,151262,38.6827777778,-77.2608333333,,Census,Town,VA,"Occoquan, Virginia",0,0,0,0,0,0,0,273,228,306,297,297,246,231,221.0,213,317,301.0,975.0,241.0,361.0,759.0,934.0
13121,8864,US,137677,38.0061111111,-77.9094444444,,Census,Town,VA,"Mineral, Virginia",0,0,0,0,0,0,0,0,0,0,0,0,260,408,416.0,427,414,366.0,397.0,399.0,471.0,424.0,467.0
13251,21107,US,91250,36.72,-82.6,,Census,US County,VA,"Scott County, Virginia",0,0,0,4263,5724,7303,9829,12072,13036,17233,21694,22694,23814,24776,24181.0,26989,27640,25813.0,24376.0,25068.0,23204.0,23403.0,23177.0
13319,7117,US,137756,36.6741666667,-82.7472222222,,Census,Town,VA,"Clinchport, Virginia",0,0,0,0,0,0,0,0,0,0,0,183,252,226,338.0,346,359,302.0,286.0,89.0,67.0,77.0,70.0
13459,12221,US,25348,38.5219444444,-77.2897222222,,Census,Town,VA,"Quantico, Virginia",0,0,0,0,0,0,0,0,0,0,0,0,0,0,538.0,1139,1240,1015.0,719.0,621.0,670.0,561.0,480.0
13462,51570,US,89905,37.4,-76.52,,Census,US County,VA,"Gloucester County, Virginia",13498,8181,10427,9678,10608,10715,10527,10956,10211,11876,11653,12832,12477,11894,11019.0,9548,10343,11919.0,14059.0,20107.0,30131.0,34780.0,36858.0
13681,8023,US,151254,37.2636111111,-78.6811111111,,Census,Town,VA,"Pamplin City, Virginia",0,0,0,0,0,0,0,0,0,117,294,0,210,262,323.0,273,370,312.0,394.0,273.0,208.0,199.0,219.0
13935,12870,US,137598,38.8627777778,-77.7755555556,,Census,Town,VA,"The Plains, Virginia",0,0,0,0,0,0,0,0,0,0,0,0,0,275,414.0,372,405,484.0,418.0,382.0,219.0,266.0,217.0
13953,7060,US,137754,37.0169444444,-81.9736111111,,Census,Town,VA,"Honaker, Virginia",0,0,0,0,0,0,0,0,0,0,0,295,369,755,710.0,851,847,851.0,911.0,1475.0,950.0,945.0,1449.0
14051,13852,US,137532,38.0533333333,-77.3475,,Census,Town,VA,"Bowling Green, Virginia",0,0,0,0,0,0,377,237,395,426,511,458,433,463,422.0,541,616,528.0,528.0,665.0,727.0,936.0,1111.0
14244,10889,US,137737,37.05,-80.7722222222,,Census,Town,VA,"Pulaski, Virginia",0,0,0,0,0,0,0,0,0,0,2112,2813,4807,5282,7168.0,8792,9202,10469.0,10279.0,10106.0,9985.0,9473.0,9086.0
14365,12499,US,137577,38.8655555556,-77.1877777778,,Census,Census-designated place (cdp),VA,"West Falls Church, Virginia",0,0,0,0,0,0,0,0,0,0,0,0,0,0,0.0,0,0,0.0,25432.0,24342.0,25782.0,27422.0,29207.0
14368,25510,US,22344155,36.73,-80.73,,Census,US County,VA,"Carroll County, Virginia",0,0,0,0,0,0,5909,8012,9147,13323,15497,19303,21116,21283,22141.0,25904,26695,23178.0,23092.0,27270.0,26594.0,29245.0,30042.0
14379,23557,US,91331,37.08,-77.63,,Census,US County,VA,"Dinwiddie County, Virginia",13934,15374,18190,20482,21901,22558,25118,30198,30702,32870,13515,15374,15442,17949,18492.0,18166,18839,22183.0,25046.0,22602.0,20960.0,24533.0,28001.0
14428,9197,US,137603,37.1155555556,-79.9538888889,,Census,Town,VA,"Boones Mill, Virginia",0,0,0,0,0,0,0,0,0,0,0,0,0,0,352.0,377,335,371.0,363.0,344.0,239.0,285.0,239.0
14586,32731,US,91280,37.79,-78.88,,Census,US County,VA,"Nelson County, Virginia",0,0,9684,10137,11254,12287,12758,13015,13898,16536,15336,16075,16821,17277,16345.0,16241,14042,12752.0,11702.0,12204.0,12778.0,14445.0,15020.0
14650,55647,US,137589,38.9544444444,-77.3463888889,,Census,"Planned community,",VA,"Reston, Virginia",0,0,0,0,0,0,0,0,0,0,0,0,0,0,0.0,0,0,0.0,5722.0,36407.0,48556.0,56407.0,58404.0
14898,27705,US,91317,36.6647222222,-80.9202777778,,Census,Independent city,VA,"Galax, Virginia",0,0,0,0,0,0,0,0,0,0,0,0,755,1250,2544.0,3195,5248,5254.0,6278.0,6524.0,6670.0,6837.0,7042.0
15212,8010,US,137761,36.6233333333,-82.5611111111,,Census,Town,VA,"Weber City, Virginia",0,0,0,0,0,0,0,0,0,0,0,0,0,0,0.0,0,0,1274.0,1676.0,1543.0,1377.0,1333.0,1327.0
15252,8635,US,137771,36.8,-81.6811111111,,Census,Town,VA,"Chilhowie, Virginia",0,0,0,0,0,0,0,0,0,0,0,0,0,572,712.0,889,1022,1169.0,1317.0,1265.0,1960.0,1827.0,1781.0
15268,43751,US,77669,37.2902777778,-77.305,,Census,Independent city,VA,"Hopewell, Virginia",0,0,0,0,0,0,0,0,0,0,0,0,0,1397,11327.0,8679,10219,17895.0,23471.0,23397.0,23101.0,22354.0,22591.0
15371,9967,US,137486,37.785,-75.6541666667,,Census,Town,VA,"Parksley, Virginia",0,0,0,0,0,0,0,0,0,0,0,0,0,601,697.0,701,883,850.0,903.0,979.0,779.0,837.0,842.0
15401,7830,US,137648,36.5791666667,-79.86,,Census,Town,VA,"Ridgeway, Virginia",0,0,0,0,0,0,0,0,0,0,236,332,393,320,359.0,422,440,524.0,624.0,858.0,752.0,775.0,742.0
15472,8128,US,137590,38.7891666667,-77.1088888889,,Census,Census-designated place,VA,"Rose Hill, Fairfax County, Virginia",0,0,0,0,0,0,0,0,0,0,0,0,0,0,0.0,0,0,0.0,14692.0,11962.0,12675.0,15058.0,20226.0
15490,23564,US,91356,37.27,-82.04,,Census,US County,VA,"Buchanan County, Virginia",0,0,0,0,0,0,0,2793,3777,5694,5867,9692,12334,15441,16740.0,31477,35748,36724.0,32071.0,37989.0,31333.0,26978.0,24098.0
15552,9987,US,137553,37.1625,-82.36,,Census,Town,VA,"Clinchco, Virginia",0,0,0,0,0,0,0,0,0,0,0,0,0,0,0.0,0,0,0.0,0.0,0.0,0.0,424.0,337.0
15689,25810,US,137558,38.8341666667,-77.2113888889,,Census,Census-designated place,VA,"Annandale, Virginia",0,0,0,0,0,0,0,0,0,0,0,0,0,0,0.0,0,0,0.0,27405.0,49524.0,50975.0,54994.0,41008.0
15762,9177,US,137623,38.2969444444,-78.4394444444,,Census,Town,VA,"Stanardsville, Virginia",0,0,0,0,0,0,0,0,0,0,0,0,0,0,229.0,212,182,283.0,296.0,284.0,257.0,476.0,367.0
15965,15140,US,137672,38.9683333333,-77.7375,,Census,Town,VA,"Middleburg, Virginia",0,0,0,0,0,0,0,0,0,419,429,296,263,283,298.0,629,663,761.0,833.0,619.0,549.0,632.0,673.0
16020,44312,US,708257,36.7411111111,-76.6097222222,,Census,Independent city,VA,"Suffolk, Virginia",0,0,0,0,0,0,0,1395,930,1963,3354,3827,7008,9123,10271.0,11343,12339,12609.0,9858.0,47621.0,52141.0,63677.0,84585.0
16098,32428,US,91284,36.6861111111,-79.8691666667,,Census,Independent city,VA,"Martinsville, Virginia",0,0,0,0,0,0,0,0,0,289,0,2384,3368,4075,7705.0,10080,17251,18798.0,19653.0,18149.0,16162.0,15416.0,13821.0
16122,28390,US,91293,,,,Census,US County,VA,"Louisa County, Virginia",8467,11892,11900,13746,16151,15433,16691,16701,16332,18942,16997,16517,16578,17089,14309.0,13665,12826,12959.0,14004.0,17825.0,20325.0,25627.0,33153.0
16252,11046,US,137668,39.1338888889,-77.6641666667,,Census,Town,VA,"Hamilton, Virginia",0,0,0,0,0,0,0,0,0,248,407,364,315,287,295.0,409,351,403.0,502.0,598.0,700.0,562.0,506.0
16260,26348,US,91367,37.78,-80.01,,Census,US County,VA,"Alleghany County, Virginia",0,0,0,0,2816,2749,3515,6765,3674,5586,9283,16330,14173,15332,20188.0,22688,23139,12128.0,12461.0,14333.0,13176.0,12926.0,16250.0
16349,12386,US,151264,36.6222222222,-78.5622222222,,Census,Town,VA,"Clarksville, Virginia",0,0,0,0,0,0,0,0,0,582,656,723,794,726,781.0,826,1035,1530.0,1641.0,1468.0,1243.0,1329.0,1139.0
16467,27838,US,91238,38.91,-78.21,,Census,US County,VA,"Warren County, Virginia",0,0,0,0,0,5627,6607,6442,5716,7399,8280,8837,8589,8852,8340.0,11352,14801,14655.0,15301.0,21200.0,26142.0,31584.0,37575.0
16542,21862,US,91329,37.94,-76.95,,Census,US County,VA,"Essex County, Virginia",9122,9508,9376,9909,10521,11309,10206,10469,9927,11032,10047,9701,9105,8542,6976.0,7006,6530,6690.0,7099.0,8864.0,8689.0,9989.0,11151.0
16725,24537,US,91274,37.86,-76.38,,Census,US County,VA,"Northumberland County, Virginia",9163,7803,8308,8016,7953,7924,7346,7531,6863,7929,7885,9486,10777,11518,11081.0,10463,10012,10185.0,9239.0,9828.0,10524.0,12259.0,12330.0
16742,22690,US,91272,37.14,-78.05,,Census,US County,VA,"Nottoway County, Virginia",0,9401,9278,9658,10130,9719,8437,8836,9291,11156,11582,12366,13462,14161,14866.0,15556,15479,15141.0,14260.0,14666.0,14993.0,15725.0,15853.0
16821,8205,US,137785,37.2272222222,-76.9655555556,,Census,Town,VA,"Claremont, Virginia",0,0,0,0,0,0,0,0,0,0,189,565,630,572,434.0,380,374,377.0,383.0,380.0,358.0,343.0,378.0
16831,6535,US,137482,37.6497222222,-75.7413888889,,Census,Town,VA,"Melfa, Virginia",0,0,0,0,0,0,0,0,0,0,0,0,0,0,0.0,0,0,409.0,459.0,391.0,428.0,450.0,408.0
16976,8671,US,137735,37.1030555556,-80.6847222222,,Census,Town,VA,"Dublin, Virginia",0,0,0,0,0,0,0,0,0,285,0,0,350,395,443.0,576,1313,1427.0,1653.0,2368.0,2012.0,2288.0,2534.0
16979,9527,US,137699,37.1794444444,-78.1275,,Census,Town,VA,"Crewe, Virginia",0,0,0,0,0,0,0,0,0,0,887,1329,1802,2097,2152.0,2048,2030,2012.0,1797.0,2325.0,2276.0,2378.0,2326.0
16985,6720,US,137614,37.3319444444,-80.8086111111,,Census,Town,VA,"Narrows, Virginia",0,0,0,0,0,0,0,0,0,0,0,0,975,1141,1345.0,1489,2520,2508.0,2421.0,2516.0,2082.0,2111.0,2029.0
17276,12396,US,137498,37.3588888889,-78.8263888889,,Census,Town,VA,"Appomattox, Virginia",0,0,0,0,0,0,0,0,0,0,0,0,0,0,704.0,992,1094,1184.0,1400.0,1345.0,1707.0,1761.0,1733.0
17503,30411,US,91262,,,,Census,US County,VA,"Prince George County, Virginia",8173,7425,8050,8030,8367,7175,7596,8411,7820,10054,7872,7752,7848,12915,10311.0,12226,19679,20270.0,29092.0,25733.0,27394.0,33047.0,35725.0
17725,23775,US,91366,37.34,-77.98,,Census,US County,VA,"Amelia County, Virginia",18097,9432,10594,11104,11036,10320,9770,10741,9878,10377,9068,9037,8720,9800,8799.0,8495,7908,7815.0,7592.0,8405.0,8787.0,11400.0,12690.0
17734,21516,US,91258,38.69,-78.17,,Census,US County,VA,"Rappahannock County, Virginia",0,0,0,0,0,9257,9782,8850,8261,9291,8678,8843,8044,8070,7717.0,7208,6112,5368.0,5199.0,6093.0,6622.0,6983.0,7373.0
17761,47743,US,91368,,,,Census,US County,VA,"Albemarle County, Virginia",12585,16439,18268,19750,22618,22294,25800,26625,27544,32618,32379,28473,29871,26005,26981.0,24652,26662,30969.0,37780.0,55783.0,68040.0,79236.0,98970.0
17763,8002,US,137527,37.5416666667,-78.4588888889,,Census,Town,VA,"Dillwyn, Virginia",0,0,0,0,0,0,0,0,0,0,0,0,0,405,442.0,436,556,515.0,497.0,596.0,458.0,447.0,447.0
17781,10733,US,137587,38.8830555556,-77.29,,Census,Census-designated place,VA,"Oakton, Virginia",0,0,0,0,0,0,0,0,0,0,0,0,0,0,0.0,0,0,0.0,0.0,0.0,24610.0,29348.0,34166.0
17825,30408,US,91253,38.52,-78.88,,Census,US County,VA,"Rockingham County, Virginia",7449,10374,12753,14784,20683,17344,20294,23408,23668,29567,31299,33527,34903,30047,29709.0,31289,35079,40485.0,47890.0,57038.0,57482.0,67725.0,76314.0
17839,6832,US,137796,37.0880555556,-81.7647222222,,Census,Town,VA,"Cedar Bluff, Virginia",0,0,0,0,0,0,0,0,0,0,0,0,0,533,590.0,823,1083,995.0,1050.0,1550.0,1290.0,1085.0,1137.0
17960,7864,US,137742,37.6330555556,-79.4516666667,,Census,Town,VA,"Glasgow, Virginia",0,0,0,0,0,0,0,0,0,0,0,0,407,376,507.0,938,810,1091.0,1304.0,1259.0,1140.0,1046.0,1133.0
17994,6470,US,137780,36.9066666667,-76.8977777778,,Census,Town,VA,"Ivor, Virginia",0,0,0,0,0,0,0,0,0,0,0,0,297,443,309.0,339,377,398.0,444.0,403.0,324.0,320.0,339.0
18070,23694,US,137552,38.4719444444,-77.9991666667,,Census,Town,VA,"Culpeper, Virginia",0,0,0,0,0,0,0,1056,1800,1613,1620,1618,1796,1819,2379.0,2316,2527,2412.0,6056.0,6621.0,8581.0,9664.0,16379.0
18133,9161,US,137739,37.9575,-76.7583333333,,Census,Town,VA,"Warsaw, Virginia",0,0,0,0,0,0,0,0,0,115,0,0,0,0,0.0,0,435,549.0,511.0,771.0,961.0,1375.0,1512.0
18295,28872,US,91287,38.7513888889,-77.4763888889,,Census,Independent city,VA,"Manassas, Virginia",0,0,0,0,0,0,0,0,0,361,530,817,1217,1305,1215.0,1302,1804,3555.0,9164.0,15438.0,27957.0,35135.0,37821.0
18320,18868,US,91248,36.84,-81.53,,Census,US County,VA,"Smyth County, Virginia",0,0,0,0,0,6522,8162,8952,8898,12160,13360,17121,20326,22125,25125.0,28861,30187,31066.0,31349.0,33366.0,32370.0,33081.0,32208.0
18357,21607,US,91334,37.51,-78.24,,Census,US County,VA,"Cumberland County, Virginia",8153,9839,9992,11023,11690,10399,9751,9961,8142,10540,9482,8996,9195,9111,7535.0,7505,7252,6360.0,6179.0,7881.0,7825.0,9017.0,10052.0
18516,28950,US,91324,36.94,-80.36,,Census,US County,VA,"Floyd County, Virginia",0,0,0,0,0,4453,6458,8236,9824,13255,14405,15388,14092,13115,11698.0,11967,11351,10462.0,9775.0,11563.0,12005.0,13874.0,15279.0
18579,24786,US,91292,36.95,-78.24,,Census,US County,VA,"Lunenburg County, Virginia",8959,10381,12265,10662,11957,11055,11692,11983,10403,11535,11372,11705,12780,15260,14058.0,13844,14116,12523.0,11687.0,12124.0,11419.0,13146.0,12914.0
18611,66127,US,91328,38.8525,-77.3041666667,,Census,Independent city,VA,"Fairfax, Virginia",0,0,0,0,0,0,0,0,0,376,376,373,413,516,640.0,979,1946,13585.0,21970.0,20537.0,19622.0,21498.0,22565.0
18648,72586,US,91343,38.03,-78.4788888889,,Census,Independent city}},VA,"Charlottesville, Virginia",0,0,0,0,0,0,0,0,2838,2676,5591,6449,6765,10688,15245.0,19400,25969,29427.0,38880.0,39916.0,40341.0,40099.0,43475.0
18678,10808,US,137696,37.0766666667,-78.0013888889,,Census,Town,VA,"Blackstone, Virginia",0,0,0,0,0,0,0,0,0,0,580,585,1486,1497,1772.0,2699,3536,3659.0,3412.0,3624.0,3497.0,3675.0,3621.0
18728,7105,US,137616,37.3219444444,-80.6363888889,,Census,Town,VA,"Pembroke, Virginia",0,0,0,0,0,0,0,0,0,0,0,0,0,0,0.0,0,1010,1038.0,1095.0,1302.0,1064.0,1134.0,1128.0
18823,6935,US,137804,36.7719444444,-81.8372222222,,Census,Former cdp,VA,"Emory-Meadowview, Virginia",0,0,0,0,0,0,0,0,0,0,0,0,0,0,0.0,0,0,0.0,0.0,0.0,2248.0,2266.0,0.0
18855,44056,US,91350,,,,Census,US County,VA,"Charles City County, Virginia",5588,5365,5186,5255,5500,4774,5200,5609,4975,5512,5066,5040,5253,4793,4881.0,4275,4676,5492.0,6158.0,6692.0,6282.0,6926.0,7256.0
18898,7852,US,137767,38.9472222222,-78.4397222222,,Census,Town,VA,"Toms Brook, Virginia",0,0,0,0,0,0,0,598,0,0,0,0,0,0,240.0,219,256,244.0,258.0,226.0,227.0,255.0,258.0
19013,7397,US,137521,37.4152777778,-79.8769444444,,Census,Town,VA,"Troutville, Virginia",0,0,0,0,0,0,0,0,0,0,0,0,0,0,0.0,0,0,524.0,522.0,496.0,455.0,432.0,431.0
19025,8214,US,137613,37.3730555556,-80.8608333333,,Census,Town,VA,"Glen Lyn, Virginia",0,0,0,0,0,0,0,0,0,0,0,0,0,0,274.0,259,240,222.0,191.0,235.0,170.0,151.0,115.0
19037,12077,US,137795,37.2441666667,-81.275,,Census,Town,VA,"Bluefield, Virginia",0,0,0,0,0,0,0,0,0,0,1021,1554,1917,2752,3906.0,3921,4212,4235.0,5286.0,5946.0,5363.0,5078.0,5444.0
19092,27666,US,91357,36.7838888889,-77.8530555556,,Census,US County,VA,"Brunswick County, Virginia",12827,16339,15411,16687,15767,14346,13894,14809,13427,16707,17245,18217,19244,21025,20486.0,19575,20136,17779.0,16172.0,15632.0,15987.0,18419.0,17434.0
19113,7719,US,137596,38.9336111111,-77.2763888889,,Census,Census-designated place,VA,"Wolf Trap, Virginia",0,0,0,0,0,0,0,0,0,0,0,0,0,0,0.0,0,0,0.0,0.0,9875.0,13133.0,14001.0,16131.0
19213,7974,US,137695,37.4741666667,-75.8580555556,,Census,Town,VA,"Nassawadox, Virginia",0,0,0,0,0,0,0,0,0,0,0,0,0,0,0.0,0,0,650.0,591.0,630.0,564.0,572.0,499.0
19306,6665,US,137481,37.62,-75.7644444444,,Census,Town,VA,"Keller, Virginia",0,0,0,0,0,0,0,0,0,0,0,0,0,0,0.0,0,0,263.0,235.0,236.0,235.0,173.0,178.0
19340,8877,US,137676,38.0241666667,-78.0016666667,,Census,Town,VA,"Louisa, Virginia",0,0,0,0,0,0,0,0,0,315,0,261,318,289,301.0,365,344,576.0,633.0,932.0,1088.0,1401.0,1555.0
19361,18820,US,137494,37.5769444444,-79.0505555556,,Census,Town,VA,"Amherst, Virginia",0,0,0,0,0,0,0,0,0,0,590,0,618,559,876.0,930,1038,1200.0,1108.0,1135.0,1060.0,2251.0,2231.0
19365,99343,US,91239,36.8506,-75.9779,,Census,Independent city,VA,"Virginia Beach, Virginia",7793,8859,9498,8768,9102,7285,7669,7714,8273,9394,9510,11192,11526,13626,16282.0,19984,42277,77127.0,0.0,0.0,0.0,0.0,0.0
19398,6973,US,137760,36.7519444444,-82.4169444444,,Census,Town,VA,"Nickelsville, Virginia",0,0,0,0,0,0,0,0,0,0,0,0,0,214,263.0,256,268,291.0,338.0,464.0,411.0,448.0,383.0
19420,55968,US,91348,,,,Census,US County,VA,"Chesterfield County, Virginia",14214,14488,9979,18003,18637,17148,17489,19016,18470,25085,26211,18804,21299,20496,26049.0,31183,40400,71197.0,76855.0,141372.0,209274.0,259903.0,316236.0
19450,44878,US,91307,,,,Census,US County,VA,"Henrico County, Virginia",12000,14886,19680,23667,28797,33076,43572,61616,66179,82703,103394,30062,23437,18972,30310.0,41960,57340,117339.0,154364.0,180735.0,217881.0,262300.0,306935.0
19529,13396,US,137626,36.7077777778,-78.9033333333,,Census,Town,VA,"South Boston, Virginia",0,0,0,0,0,0,0,0,0,328,1789,1851,3516,4338,4841.0,5252,6057,5974.0,6889.0,7093.0,6997.0,8491.0,8142.0
19647,8948,US,137639,37.5958333333,-77.5758333333,,Census,Census-designated place,VA,"Tuckahoe, Virginia",0,0,0,0,0,0,0,0,0,0,0,0,0,0,0.0,0,0,0.0,0.0,39868.0,42629.0,43242.0,44990.0
19672,6375,US,137741,37.2780555556,-79.8952777778,,Census,Town,VA,"Vinton, Virginia",0,0,0,0,0,0,0,0,0,0,1057,1438,1928,2779,3610.0,3455,3629,3432.0,6347.0,8027.0,7665.0,7782.0,8098.0
19755,14201,US,137476,37.7186111111,-75.6672222222,,Census,Town,VA,"Accomac, Virginia",0,0,0,0,0,0,0,0,0,0,0,0,0,0,0.0,0,500,414.0,373.0,522.0,466.0,547.0,519.0
20012,7289,US,137480,37.8775,-75.5905555556,,Census,Town,VA,"Hallwood, Virginia",0,0,0,0,0,0,0,0,0,0,0,0,0,0,0.0,0,0,269.0,254.0,243.0,228.0,290.0,206.0
20027,6994,US,137715,37.095,-79.2983333333,,Census,Town,VA,"Hurt, Virginia",0,0,0,0,0,0,0,0,0,0,0,0,0,0,0.0,0,0,0.0,1434.0,1481.0,1294.0,1276.0,1304.0
20083,11149,US,137547,37.2427777778,-77.4255555556,,Census,Cdp,VA,"Ettrick, Virginia",0,0,0,0,0,0,0,0,0,0,0,0,0,0,0.0,0,0,0.0,0.0,4890.0,5290.0,5627.0,6682.0
20150,8798,US,137621,36.6227777778,-81.1516666667,,Census,Town,VA,"Independence, Virginia",0,0,0,0,0,0,0,0,0,0,0,0,0,0,0.0,429,486,679.0,673.0,1112.0,988.0,971.0,947.0
20318,13184,US,137557,37.9222222222,-76.8630555556,,Census,Town,VA,"Tappahannock, Virginia",0,0,0,0,0,0,0,0,0,574,452,554,478,422,427.0,783,1011,1086.0,1111.0,1821.0,1550.0,2068.0,2375.0
20372,25983,US,91347,39.12,-78.0,,Census,US County,VA,"Clarke County, Virginia",0,0,0,0,0,6353,7352,7146,6670,7682,8071,7927,7468,7165,7167.0,7159,7074,7942.0,8102.0,9965.0,12101.0,12652.0,14034.0
20545,24516,US,91281,37.61,-76.51,,Census,US County,VA,"Middlesex County, Virginia",4140,4203,4414,4057,4122,4392,4394,4364,4981,6252,7458,8220,8852,8157,7273.0,6673,6715,6319.0,6295.0,7719.0,8653.0,9932.0,10959.0
20576,7786,US,137484,37.6902777778,-75.7166666667,,Census,Town,VA,"Onley, Virginia",0,0,0,0,0,0,0,0,0,0,0,0,0,0,0.0,0,0,415.0,464.0,526.0,532.0,496.0,516.0
20578,8229,US,151263,36.8158333333,-77.4697222222,,Census,Town,VA,"Jarratt, Virginia",0,0,0,0,0,0,0,0,0,0,0,0,0,0,0.0,458,574,608.0,591.0,614.0,556.0,589.0,638.0
20652,27575,US,137594,38.9,-77.2666666667,,Census,Town,VA,"Vienna, Virginia",0,0,0,0,0,0,0,0,0,136,0,317,578,773,903.0,1237,2029,11440.0,17146.0,15469.0,14852.0,14453.0,15687.0
20919,18118,US,137673,39.1344444444,-77.7111111111,,Census,Town,VA,"Purcellville, Virginia",0,0,0,0,0,0,0,0,0,98,0,0,388,549,747.0,787,945,1419.0,1775.0,1567.0,1744.0,3584.0,7727.0
20998,12270,US,137671,39.2733333333,-77.64,,Census,Town,VA,"Lovettsville, Virginia",0,0,0,0,0,0,0,0,155,92,0,97,192,167,239.0,248,341,217.0,185.0,613.0,749.0,853.0,1613.0
21268,15122,US,137798,37.305,-81.3397222222,,Census,Town,VA,"Pocahontas, Virginia",0,0,0,0,0,0,0,0,0,0,2953,2789,3561,3775,2293.0,2673,2410,1313.0,891.0,703.0,513.0,441.0,389.0
21273,24515,US,91301,,,,Census,US County,VA,"King George County, Virginia",7366,6749,6454,6116,6397,5927,5971,6571,5742,6397,6641,6918,6378,5762,5297.0,5431,6710,7243.0,8039.0,10543.0,13527.0,16803.0,23584.0
21292,37394,US,91346,36.6,-82.1833333333,,Census,Independent city,VA,"Bristol, Virginia",0,0,0,0,0,0,0,0,0,1562,2902,4579,6247,6729,8840.0,9768,15954,17144.0,14857.0,19042.0,18426.0,17367.0,17835.0
22190,8210,US,137682,36.7994444444,-78.4611111111,,Census,Town,VA,"Chase City, Virginia",0,0,0,0,0,0,0,0,0,251,618,542,1662,1646,1590.0,1896,2519,3207.0,2909.0,2749.0,2442.0,2457.0,2351.0
22213,8694,US,137810,36.9438888889,-82.4661111111,,Census,Town,VA,"Coeburn, Virginia",0,0,0,0,0,0,0,0,0,0,0,295,645,884,784.0,764,760,2471.0,2362.0,2625.0,2165.0,1996.0,2139.0
22241,24821,US,91361,38.06,-79.74,,Census,US County,VA,"Bath County, Virginia",0,5508,4837,5237,4002,4300,3486,3676,3795,4482,4587,5595,6538,6389,8137.0,7191,6296,5335.0,5192.0,5860.0,4799.0,5048.0,4731.0
22348,19870,US,91330,36.6927777778,-77.5380555556,,Census,Independent city,VA,"Emporia, Virginia",0,0,0,0,0,0,0,0,0,0,1088,1027,2018,1869,2144.0,2735,5664,5535.0,5300.0,4840.0,5306.0,5665.0,5927.0
22689,21185,US,58117,37.17,-80.39,,Census,US County,VA,"Montgomery County, Virginia",13228,9044,8409,8733,12306,7405,8359,10617,12556,16693,17742,15852,17268,18595,19605.0,21206,29780,32923.0,47157.0,63516.0,73913.0,83629.0,94392.0
22724,7922,US,137483,37.7105555556,-75.7463888889,,Census,Town,VA,"Onancock, Virginia",0,0,0,0,0,0,0,0,0,0,0,938,1001,1074,1245.0,1283,1353,1759.0,1614.0,1461.0,1434.0,1525.0,1263.0
22725,13532,US,137805,36.7902777778,-81.7733333333,,Census,Town,VA,"Glade Spring, Virginia",0,0,0,0,0,0,0,0,0,262,500,304,324,281,669.0,686,827,1407.0,1615.0,1722.0,1435.0,1374.0,1456.0
22755,25398,US,91304,36.91,-76.71,,Census,US County,VA,"Isle of Wight County, Virginia",9028,9342,9186,10139,10517,9972,9353,9977,8320,10572,11313,13102,14929,14433,13409.0,13381,14906,17164.0,18285.0,21603.0,25503.0,29728.0,35270.0
22956,8833,US,137538,37.0569444444,-78.6341666667,,Census,Town,VA,"Charlotte Court House, Virginia",0,0,0,0,0,0,0,0,0,0,0,96,329,318,366.0,399,397,555.0,539.0,568.0,531.0,404.0,543.0
22974,8262,US,137611,39.0280555556,-78.2791666667,,Census,Town,VA,"Middletown, Virginia",0,0,0,0,0,0,0,0,0,372,410,423,363,354,416.0,361,386,378.0,507.0,841.0,1061.0,1015.0,1265.0
23142,9923,US,137807,38.0938888889,-76.8261111111,,Census,Town,VA,"Montross, Virginia",0,0,0,0,0,0,0,0,0,0,0,0,0,0,0.0,0,331,394.0,419.0,456.0,359.0,315.0,384.0
23502,19165,US,137708,38.6641666667,-78.4544444444,,Census,Town,VA,"Luray, Virginia",0,0,0,0,0,0,0,0,0,632,1386,1147,1218,1381,1459.0,1511,2731,3014.0,3612.0,3584.0,4587.0,4871.0,4895.0
23549,20366,US,91311,36.77,-78.94,,Census,US County,VA,"Halifax County, Virginia",14722,19377,22133,19060,28034,25936,25962,26520,27828,33588,34424,37197,40044,41374,41283.0,41271,41442,33637.0,30076.0,30599.0,29033.0,37355.0,36241.0
23608,13225,US,137487,37.9258333333,-75.7230555556,,Census,Town,VA,"Saxis, Virginia",0,0,0,0,0,0,0,0,0,0,0,0,0,0,0.0,0,0,577.0,451.0,415.0,367.0,337.0,241.0
23856,6706,US,137660,37.6452777778,-76.3911111111,,Census,Town,VA,"White Stone, Virginia",0,0,0,0,0,0,0,0,0,0,0,0,0,0,0.0,0,0,395.0,381.0,409.0,372.0,358.0,352.0
24063,25415,US,91360,37.31,-79.53,,Census,US County,VA,"Bedford County, Virginia",10531,14125,16148,19305,20246,20203,24080,25068,25327,31205,31213,30356,29549,30669,29091.0,29687,29627,31028.0,26728.0,34927.0,45656.0,60371.0,68676.0
24354,35856,US,137593,38.9186111111,-77.2297222222,,Census,Census-designated place,VA,"Tysons, Virginia",0,0,0,0,0,0,0,0,0,0,0,0,0,0,0.0,0,0,0.0,0.0,10065.0,13124.0,18540.0,19627.0
24360,15602,US,137724,38.8127777778,-77.635,,Census,Town,VA,"Haymarket, Virginia",0,0,0,0,0,0,0,0,0,107,0,0,162,133,167.0,156,213,257.0,288.0,230.0,483.0,879.0,1782.0
24436,7469,US,137489,37.6063888889,-75.6905555556,,Census,Town,VA,"Wachapreague, Virginia",0,0,0,0,0,0,0,0,0,0,0,0,485,498,585.0,548,551,507.0,399.0,404.0,291.0,236.0,232.0
24482,22730,US,708253,36.93,-77.26,,Census,US County,VA,"Sussex County, Virginia",10549,11062,11362,11884,12720,11229,9820,10175,7885,10062,11100,12082,13664,12834,12100.0,12485,12785,12411.0,11464.0,10874.0,10248.0,12504.0,12087.0
24509,9338,US,137629,37.6191666667,-77.355,,Census,Cdp,VA,"Mechanicsville, Virginia",0,0,0,0,0,0,0,0,0,0,0,0,0,0,0.0,0,0,0.0,5189.0,9269.0,22027.0,30464.0,36348.0
24619,9115,US,137803,36.6338888889,-81.7869444444,,Census,Town,VA,"Damascus, Virginia",0,0,0,0,0,0,0,0,0,0,0,0,1299,1599,1610.0,1441,1726,1485.0,1230.0,1330.0,918.0,981.0,814.0
24779,30406,US,91269,36.68,-80.29,,Census,US County,VA,"Patrick County, Virginia",0,4331,4695,5089,7395,8032,9609,9359,10161,12833,14147,15403,17195,16850,15787.0,16613,15642,15282.0,15282.0,17647.0,17473.0,19407.0,18490.0
24889,11850,US,137794,37.0338888889,-77.0952777778,,Census,Town,VA,"Waverly, Virginia",0,0,0,0,0,0,0,0,0,170,0,493,1064,1306,1355.0,1288,1502,1601.0,1717.0,2284.0,2223.0,2309.0,2149.0
25244,8215,US,137692,37.2894444444,-75.9683333333,,Census,Town,VA,"Cheriton, Virginia",0,0,0,0,0,0,0,0,0,0,0,0,0,0,0.0,0,0,761.0,655.0,695.0,515.0,499.0,487.0
25278,25613,US,91365,37.61,-79.14,,Census,US County,VA,"Amherst County, Virginia",13703,16801,10548,10423,12071,12576,12699,13742,14900,18709,17551,17864,18932,19771,19020.0,20273,20332,22953.0,26072.0,29122.0,28578.0,31894.0,32353.0
25295,6957,US,137683,36.6972222222,-78.0922222222,,Census,Town,VA,"La Crosse, Virginia",0,0,0,0,0,0,0,0,0,0,0,0,281,320,427.0,524,675,726.0,674.0,734.0,549.0,618.0,604.0
25544,29540,US,91309,37.76,-77.49,,Census,US County,VA,"Hanover County, Virginia",14754,14403,15082,15267,16253,14968,15153,17222,16455,18588,17402,17618,17200,18088,17009.0,18500,21985,27550.0,37479.0,50398.0,63306.0,86320.0,99863.0
25569,7776,US,137655,36.8111111111,-76.7436111111,,Census,Town,VA,"Windsor, Virginia",0,0,0,0,0,0,0,0,0,266,0,0,328,326,371.0,411,451,579.0,685.0,985.0,1025.0,916.0,2626.0
25879,8994,US,137485,37.5855555556,-75.7833333333,,Census,Town,VA,"Painter, Virginia",0,0,0,0,0,0,0,0,0,0,0,0,0,0,0.0,0,0,349.0,363.0,321.0,259.0,246.0,229.0
26023,10458,US,137669,39.1983333333,-77.7244444444,,Census,Town,VA,"Hillsboro, Loudoun County, Virginia",0,0,0,0,0,0,0,0,246,137,156,131,138,131,119.0,115,129,124.0,135.0,115.0,72.0,96.0,80.0
26245,39720,US,91266,37.1330555556,-76.3736111111,,Census,Independent city,VA,"Poquoson, Virginia",0,0,0,0,0,0,0,0,0,0,0,0,0,0,0.0,0,0,4278.0,5441.0,8726.0,11005.0,11566.0,12150.0
26252,6721,US,137710,38.5777777778,-78.5088888889,,Census,Town,VA,"Stanley, Virginia",0,0,0,0,0,0,0,0,0,0,0,0,218,449,259.0,317,399,1039.0,1208.0,1204.0,1186.0,1326.0,1689.0
26369,18216,US,137816,36.9477777778,-81.0869444444,,Census,Town,VA,"Wytheville, Virginia",0,0,0,0,0,0,0,1111,1671,1885,2570,3003,3054,2947,3327.0,4653,5513,5634.0,6069.0,7135.0,8038.0,7804.0,8211.0
26660,19487,US,137608,36.9955555556,-79.8888888889,,Census,Town,VA,"Rocky Mount, Virginia",0,0,0,0,0,0,0,0,0,315,628,612,967,1076,1339.0,1366,1432,1412.0,4002.0,4198.0,4098.0,4066.0,4799.0
26908,27461,US,91322,36.6747222222,-76.9305555556,,Census,Independent city,VA,"Franklin, Virginia",0,0,0,0,0,0,0,0,0,477,875,1143,2271,2363,2930.0,3466,4670,7264.0,6880.0,7308.0,7864.0,8346.0,8582.0
26932,24511,US,708254,37.12,-76.89,,Census,US County,VA,"Surry County, Virginia",6227,6535,6855,6594,7109,6480,5679,6133,5585,7391,8256,8469,9715,9305,7096.0,6193,6220,6220.0,5882.0,6046.0,6145.0,6829.0,7058.0
27004,13975,US,137571,38.9980555556,-77.2883333333,,Census,Census-designated place (cdp),VA,"Great Falls, Virginia",0,0,0,0,0,0,0,0,0,0,0,0,0,0,0.0,0,0,0.0,0.0,0.0,6945.0,8549.0,15427.0
27113,24875,US,91237,38.07,-78.8944444444,,Census,Independent city,VA,"Waynesboro, Virginia",0,0,0,0,0,0,0,457,536,484,646,856,1389,1594,6226.0,7373,12357,15694.0,16707.0,15329.0,18549.0,19520.0,21006.0
27118,59255,US,708259,38.1580555556,-79.0763888889,,Census,Independent city,VA,"Staunton, Virginia",0,0,0,0,0,0,0,3875,5120,6664,6975,7289,10604,10623,11990.0,13337,19927,22232.0,24504.0,21857.0,24461.0,23853.0,23746.0
27167,10822,US,151253,37.8,-78.5,,Census,Town,VA,"Scottsville, Virginia",0,0,0,0,0,0,0,0,388,465,362,384,283,329,341.0,368,396,353.0,290.0,250.0,239.0,555.0,566.0
27439,12358,US,137554,37.15,-82.4566666667,,Census,Town,VA,"Clintwood, Virginia",0,0,0,0,0,0,0,0,0,0,0,255,342,400,729.0,1106,1366,1400.0,1320.0,1369.0,1542.0,1549.0,1414.0
27542,19098,US,137712,36.6402777778,-80.2738888889,,Census,Town,VA,"Stuart, Virginia",0,0,0,0,0,0,0,0,0,0,332,371,388,401,588.0,720,849,974.0,947.0,1131.0,965.0,961.0,1408.0
27589,8159,US,137800,37.1269444444,-81.5194444444,,Census,Town,VA,"Tazewell, Virginia",0,0,0,0,0,0,0,0,0,508,604,1096,1230,1261,1211.0,1374,1347,3000.0,4168.0,4468.0,4176.0,4206.0,4627.0
27659,8570,US,137694,37.5330555556,-75.8244444444,,Census,Town,VA,"Exmore, Virginia",0,0,0,0,0,0,0,0,0,0,0,0,0,0,0.0,0,1362,1566.0,1421.0,1300.0,1115.0,1136.0,1460.0
28082,9128,US,137615,37.3291666667,-80.7325,,Census,Town,VA,"Pearisburg, Virginia",0,0,0,0,0,0,0,0,0,285,341,464,470,537,668.0,987,2005,2268.0,2169.0,2128.0,2064.0,2729.0,2786.0
28124,200101,US,32432,,,,Census,US State,VA,Virginia,691737,807557,877683,938261,1044054,1025227,1119348,1596318,1225163,1512565,1655980,1854184,2061612,2309187,2421851.0,2677773,3318680,3966949.0,4648494.0,5346818.0,6187358.0,7078515.0,8001024.0
28126,12841,US,137722,38.5677777778,-77.3247222222,,Census,Town,VA,"Dumfries, Virginia",0,0,0,0,0,0,0,171,167,132,0,160,158,182,157.0,480,0,1368.0,1890.0,3214.0,4282.0,4937.0,4961.0
28180,21853,US,91302,37.72,-76.9,,Census,US County,VA,"King and Queen County, Virginia",9377,9879,10988,11798,11644,10862,10319,10328,9709,10502,9669,9265,9576,9161,7618.0,6954,6299,5889.0,5491.0,5968.0,6289.0,6630.0,6945.0
28237,15211,US,91273,36.9366666667,-82.625,,Census,Independent city,VA,"Norton, Virginia",0,0,0,0,0,0,0,0,0,0,0,654,1866,3068,3077.0,4006,4315,4996.0,4001.0,4757.0,4247.0,3904.0,3958.0
28296,21681,US,137733,38.6436111111,-77.2608333333,,Census,Census-designated place,VA,"Woodbridge, Virginia",0,0,0,0,0,0,0,0,0,0,0,0,0,0,0.0,0,0,0.0,25412.0,24004.0,26401.0,31941.0,52754.0
28480,14084,US,91286,38.7719444444,-77.4525,,Census,Independent city,VA,"Manassas Park, Virginia",0,0,0,0,0,0,0,0,0,0,0,0,0,0,0.0,0,0,5342.0,6844.0,6524.0,6734.0,10290.0,14273.0
28555,25293,US,91358,37.55,-79.8,,Census,US County,VA,"Botetourt County, Virginia",10524,10427,13301,13589,16354,11679,14908,11516,11329,14809,14854,17161,17727,16557,15457.0,16447,15766,16715.0,18193.0,23270.0,24992.0,30496.0,33148.0
28668,8090,US,151270,36.9055555556,-82.3102777778,,Census,Town,VA,"St. Paul, Virginia",0,0,0,0,0,0,0,0,0,0,0,0,0,574,716.0,746,1014,1156.0,948.0,973.0,1007.0,1000.0,970.0
28721,21959,US,137599,38.7183333333,-77.7972222222,,Census,Town,VA,"Warrenton, Virginia",0,0,0,0,0,0,0,604,1256,1464,1346,1627,1427,1545,1450.0,1651,1797,3522.0,4027.0,3907.0,4830.0,6670.0,9611.0
28781,7232,US,137758,36.8277777778,-82.4688888889,,Census,Town,VA,"Dungannon, Virginia",0,0,0,0,0,0,0,0,0,0,0,0,0,255,282.0,333,431,444.0,282.0,339.0,250.0,317.0,332.0
28891,21891,US,91364,,,,Census,US County,VA,"Appomattox County, Virginia",0,0,0,0,0,0,9193,8889,8950,10080,9589,9662,8904,9255,8402.0,9020,8764,9148.0,9784.0,11971.0,12298.0,13705.0,14973.0
28913,12603,US,137681,36.6680555556,-78.3888888889,,Census,Town,VA,"Boydton, Virginia",0,0,0,0,0,0,0,0,261,382,0,527,421,457,492.0,424,501,449.0,541.0,486.0,453.0,454.0,431.0
28933,30004,US,91323,,,,Census,US County,VA,"Fluvanna County, Virginia",3921,4623,4775,6704,8221,8812,9487,10353,9875,10802,9508,9050,8323,8547,7466.0,7088,7121,7227.0,7621.0,10244.0,12429.0,20047.0,25691.0
29090,8521,US,137602,37.9183333333,-78.3266666667,,Census,Census-designated place,VA,"Lake Monticello, Virginia",0,0,0,0,0,0,0,0,0,0,0,0,0,0,0.0,0,0,0.0,0.0,0.0,0.0,6852.0,9920.0
29223,8118,US,137811,37.1238888889,-82.6077777778,,Census,Town,VA,"Pound, Virginia",0,0,0,0,0,0,0,0,0,0,0,0,0,0,0.0,0,1193,1135.0,995.0,1086.0,995.0,1089.0,1037.0
29297,7503,US,137595,38.7883333333,-77.2327777778,,Census,Census-designated place,VA,"West Springfield, Virginia",0,0,0,0,0,0,0,0,0,0,0,0,0,0,0.0,0,0,0.0,14143.0,25012.0,28126.0,28378.0,22460.0
29459,13867,US,137555,37.2055555556,-82.2947222222,,Census,Town,VA,"Haysi, Virginia",0,0,0,0,0,0,0,0,0,0,0,0,0,0,0.0,623,476,485.0,428.0,371.0,222.0,186.0,498.0
29592,18400,US,137601,37.7522222222,-78.1622222222,,Census,Unincorporated community,VA,"Columbia, Virginia",0,0,0,0,0,0,0,263,311,239,239,216,157,185,154.0,144,119,86.0,125.0,111.0,58.0,49.0,83.0
29728,37697,US,91315,37.72,-77.93,,Census,US County,VA,"Goochland County, Virginia",9053,9696,10203,10007,10369,9760,10352,10656,10313,10292,9958,9519,9237,8863,7953.0,8454,8934,9206.0,10069.0,11761.0,14163.0,16863.0,21717.0
29745,11093,US,137600,36.9111111111,-80.32,,Census,Town,VA,"Floyd, Virginia",0,0,0,0,0,0,0,0,0,0,0,402,369,390,450.0,479,493,487.0,474.0,411.0,396.0,432.0,425.0
29794,22608,US,91353,37.21,-79.09,,Census,US County,VA,"Campbell County, Virginia",7685,9866,11001,16569,20350,21030,23245,26197,28384,36250,41087,23256,23043,26716,22885.0,26048,28877,32958.0,43319.0,45424.0,47572.0,51078.0,54842.0
29862,21931,US,137802,36.7097222222,-81.9755555556,,Census,Town,VA,"Abingdon, Virginia",0,0,0,0,0,0,0,0,715,1064,1674,1306,1757,2532,2877.0,3158,4709,4758.0,4376.0,4318.0,7003.0,7780.0,8191.0
29874,8138,US,137745,38.6119444444,-78.7991666667,,Census,Town,VA,"Broadway, Virginia",0,0,0,0,0,0,0,0,0,323,497,400,416,412,498.0,506,561,646.0,887.0,1234.0,1209.0,2192.0,3691.0
29893,37294,US,151260,37.2977777778,-78.3958333333,,Census,Town,VA,"Farmville, Virginia",0,0,0,0,0,0,0,1536,1543,2058,2404,2471,2971,2586,3133.0,3475,4375,4293.0,4331.0,6067.0,6046.0,6845.0,8216.0
29920,13360,US,137806,38.25,-76.9666666667,,Census,Town,VA,"Colonial Beach, Virginia",0,0,0,0,0,0,0,0,0,0,0,453,721,1093,928.0,1105,1464,1769.0,2058.0,2474.0,3132.0,3228.0,3542.0
29983,7480,US,137522,36.8636111111,-77.8813888889,,Census,Town,VA,"Alberta, Virginia",0,0,0,0,0,0,0,0,0,0,0,0,0,0,328.0,416,430,430.0,466.0,394.0,337.0,306.0,298.0
30058,7488,US,137755,36.9008333333,-82.0769444444,,Census,Town,VA,"Lebanon, Virginia",0,0,0,0,0,0,0,264,209,244,310,325,366,469,560.0,622,672,2085.0,2272.0,3206.0,3386.0,3273.0,3424.0
30209,49542,US,91333,36.5872222222,-79.4044444444,,Census,Independent city,VA,"Danville, Virginia",0,0,0,0,0,0,1514,0,3463,7426,10305,16520,19020,21539,22247.0,32749,35066,46577.0,46391.0,45642.0,53056.0,48411.0,43055.0
30242,7051,US,137792,36.9463888889,-77.3997222222,,Census,Town,VA,"Stony Creek, Virginia",0,0,0,0,0,0,0,0,0,0,0,0,0,345,465.0,493,482,437.0,430.0,329.0,271.0,202.0,198.0
30270,7465,US,151259,36.7033333333,-78.0316666667,,Census,Town,VA,"Brodnax, Virginia",0,0,0,0,0,0,0,0,0,0,0,0,0,235,365.0,536,499,561.0,569.0,492.0,388.0,317.0,298.0
30429,64655,US,91271,,,,Census,US County,VA,"Orange County, Virginia",9921,11449,12323,12913,14637,9125,10067,10851,10396,13052,12814,12571,13486,13320,12070.0,12649,12755,12900.0,13792.0,18063.0,21421.0,25881.0,33481.0
30449,10901,US,137768,38.8769444444,-78.5113888889,,Census,Town,VA,"Woodstock, Virginia",0,0,0,0,0,0,0,998,859,1000,1068,1069,1314,1580,1552.0,1546,1816,2083.0,2338.0,2627.0,3182.0,3952.0,5097.0
30470,79134,US,91234,37.2708333333,-76.7069444444,,Census,Independent city,VA,"Williamsburg, Virginia",0,0,0,1402,0,0,877,1113,1392,1480,1831,2044,2714,2462,3778.0,3942,6735,6832.0,9069.0,9870.0,11530.0,11998.0,14068.0
30537,21317,US,137563,38.7813888889,-77.2708333333,,Census,Census-designated place,VA,"Burke, Virginia",0,0,0,0,0,0,0,0,0,0,0,0,0,0,0.0,0,0,0.0,0.0,33835.0,57734.0,57737.0,41055.0
30745,9715,US,137659,37.6611111111,-76.4194444444,,Census,Town,VA,"Irvington, Virginia",0,0,0,0,0,0,0,0,0,0,0,0,0,0,0.0,0,0,570.0,504.0,567.0,496.0,673.0,432.0
30775,16727,US,137529,37.0519444444,-78.945,,Census,Town,VA,"Brookneal, Virginia",0,0,0,0,0,0,0,0,0,0,0,0,504,583,692.0,736,883,1070.0,1037.0,1454.0,1344.0,1259.0,1112.0
30907,7893,US,137500,38.0794444444,-79.3811111111,,Census,Town,VA,"Craigsville, Virginia",0,0,0,0,0,0,0,0,0,117,0,0,0,0,0.0,0,0,978.0,988.0,845.0,812.0,979.0,923.0
31215,19371,US,137525,37.2785416667,-82.0999722222,,Census,Town,VA,"Grundy, Virginia",0,0,0,0,0,0,0,0,0,123,0,200,264,394,815.0,1476,1947,2287.0,2054.0,1699.0,1305.0,1105.0,1021.0
31284,39261,US,91226,37.22,-76.44,,Census,US County,VA,"York County, Virginia",5233,3231,5187,4384,5354,4720,4460,4949,7198,7349,7596,7482,7757,8046,7615.0,8857,11750,21583.0,33203.0,35463.0,42422.0,56297.0,65464.0
31315,21757,US,91312,36.7213888889,-77.5322222222,,Census,US County,VA,"Greensville County, Virginia",6362,6727,6853,6858,7117,6366,5639,6374,6362,8407,8230,9758,11890,11606,13388.0,14866,16319,16155.0,9604.0,10903.0,8853.0,11560.0,12243.0
31319,23126,US,708251,37.13,-81.56,,Census,US County,VA,"Tazewell County, Virginia",0,2127,3007,3916,5749,6290,9942,9920,10791,12861,19899,23384,24946,27840,32477.0,41607,47512,44791.0,39816.0,50511.0,45960.0,44598.0,45078.0
31358,17331,US,151266,38.1347222222,-78.1869444444,,Census,Town,VA,"Gordonsville, Virginia",0,0,0,0,0,0,0,0,0,919,962,603,564,594,462.0,508,1118,1109.0,1244.0,1421.0,1351.0,1498.0,1496.0
