,article_length,country,id,lat,lon,poptype,settlement_type,state,title,y1790,y1800,y1810,y1820,y1830,y1840,y1850,y1860,y1870,y1880,y1890,y1900,y1910,y1920,y1930,y1940,y1950,y1960,y1970,y1980,y1990,y2000,y2010
88,9125,US,112801,42.86,-94.9816666667, USA,City,IA,"Marathon, Iowa",0,0,0,0,0,0,0,0,0,0,0,659,532,520,573.0,597,565,516.0,447.0,442,320,302.0,237.0
135,136772,US,26810748,,,Census,US State,IA,Iowa,0,0,0,0,0,43112,192214,674913,1194020,1624615,1912297,2231853,2224771,2404021,2470939.0,2538268,2621073,2757537.0,2824376.0,2913808,2776755,2926324.0,3046355.0
152,13012,US,114208,41.6969444444,-90.585, USA,City,IA,"Long Grove, Iowa",0,0,0,0,0,0,0,0,0,0,0,0,0,158,134.0,139,156,182.0,269.0,596,605,597.0,808.0
154,14209,US,112961,41.6088888889,-93.8652777778,Census,City,IA,"Waukee, Iowa",0,0,0,0,0,0,0,0,0,245,240,292,340,375,445.0,473,501,687.0,1577.0,2227,2512,5126.0,13790.0
170,15788,US,114337,42.3572222222,-94.0513888889, USA,City,IA,"Lehigh, Iowa",0,0,0,0,0,0,0,0,0,0,870,806,928,1090,996.0,1004,881,846.0,739.0,654,536,497.0,416.0
191,10129,US,150408,42.9116666667,-94.0836111111, USA,City,IA,"Lu Verne, Iowa",0,0,0,0,0,0,0,0,0,0,0,534,501,610,570.0,576,553,468.0,380.0,418,328,299.0,261.0
232,9526,US,112866,42.9847222222,-93.19, USA,City,IA,"Rockwell, Iowa",0,0,0,0,0,0,0,0,0,249,381,830,700,800,750.0,779,753,772.0,923.0,1039,1008,989.0,1039.0
370,10745,US,112746,41.6283333333,-95.0744444444, USA,City,IA,"Kimballton, Iowa",0,0,0,0,0,0,0,0,0,0,0,0,271,382,378.0,349,428,380.0,343.0,362,289,342.0,322.0
371,11167,US,114351,43.1441666667,-91.9347222222, USA,City,IA,"Fort Atkinson, Iowa",0,0,0,0,0,0,0,0,0,435,480,264,289,315,305.0,261,273,353.0,339.0,374,367,389.0,349.0
378,9308,US,114159,41.5125,-93.3569444444, USA,City,IA,"Runnells, Iowa",0,0,0,0,0,0,0,0,0,0,0,0,428,369,367.0,388,307,322.0,354.0,377,306,352.0,507.0
382,10963,US,95908,40.7380555556,-93.3266666667,Census,US County,IA,"Wayne County, Iowa",0,0,0,0,0,0,340,6409,11287,16127,15670,17491,16184,15378,13787.0,13308,11737,9800.0,8405.0,8199,7067,6730.0,6403.0
402,8586,US,114274,40.9488888889,-94.2188888889, USA,City,IA,"Arispe, Iowa",0,0,0,0,0,0,0,0,0,0,0,0,155,156,133.0,149,110,125.0,93.0,89,92,89.0,100.0
404,11165,US,114158,41.7705555556,-93.7158333333,Census,City,IA,"Polk City, Iowa",0,0,0,0,0,0,0,0,0,443,446,438,310,277,295.0,343,336,567.0,715.0,1658,1908,2344.0,3418.0
426,9197,US,113892,42.5061111111,-95.4180555556, USA,City,IA,"Galva, Iowa",0,0,0,0,0,0,0,0,0,0,0,456,357,539,530.0,496,492,469.0,412.0,420,398,368.0,434.0
434,10311,US,112738,40.8013888889,-92.8883333333, USA,City,IA,"Rathbun, Iowa",0,0,0,0,0,0,0,0,0,0,0,270,382,630,299.0,352,229,203.0,113.0,93,89,88.0,89.0
441,9224,US,112920,41.9788888889,-90.2516666667, USA,City,IA,"Andover, Iowa",0,0,0,0,0,0,0,0,0,0,0,0,51,83,76.0,72,80,91.0,90.0,107,99,87.0,103.0
449,10980,US,114289,40.6180555556,-91.9338888889, USA,Census-designated place,IA,"Mount Sterling, Iowa",0,0,0,0,0,0,0,0,0,0,0,0,232,179,165.0,134,144,86.0,87.0,96,53,40.0,36.0
522,11776,US,150406,43.3625,-92.5533333333, USA,City,IA,"Riceville, Iowa",0,0,0,0,0,0,0,0,0,0,0,804,844,960,807.0,910,942,898.0,877.0,919,827,740.0,502.0
523,9431,US,113903,42.295,-90.6205555556, USA,City,IA,"La Motte, Iowa",0,0,0,0,0,0,0,0,0,161,154,272,288,327,275.0,272,280,323.0,326.0,322,260,272.0,260.0
540,10330,US,113992,41.8755555556,-91.5830555556, USA,City,IA,"Ely, Iowa",0,0,0,0,0,0,0,0,0,0,0,0,161,174,172.0,170,155,226.0,275.0,425,517,1149.0,1776.0
589,11946,US,150426,41.5011111111,-93.4902777778, USA,City,IA,"Carlisle, Iowa",0,0,0,0,0,0,0,138,200,395,0,553,592,640,663.0,690,903,1317.0,2246.0,3073,3241,3497.0,3876.0
616,57160,US,150425,42.4980555556,-96.3955555556,Census,City,IA,"Sioux City, Iowa",0,0,0,0,0,0,0,0,3401,7366,37806,33111,47828,71227,79183.0,82364,83991,89159.0,85925.0,82003,80505,85013.0,82684.0
618,12782,US,112813,42.8975,-92.8033333333, USA,City,IA,"Greene, Iowa",0,0,0,0,0,0,0,0,0,711,845,1192,1150,1375,1268.0,1303,1347,1427.0,1363.0,1332,1142,1099.0,1130.0
626,11970,US,96001,42.0352777778,-94.3955555556,Census,US County,IA,"Greene County, Iowa",0,0,0,0,0,0,0,1374,4627,12727,15797,17820,16023,16467,16528.0,16599,15544,14379.0,12716.0,12119,10045,10366.0,9336.0
633,8359,US,113760,42.5827777778,-90.8805555556, USA,City,IA,"Rickardsville, Iowa",0,0,0,0,0,0,0,0,0,0,0,0,0,0,0.0,0,0,0.0,193.0,215,193,191.0,182.0
665,17263,US,112908,42.7861111111,-91.1013888889, USA,City,IA,"Guttenberg, Iowa",0,0,0,0,0,0,0,1104,1040,1076,1160,1620,1873,1666,1918.0,1860,1912,2087.0,2177.0,2428,2257,1987.0,1914.0
673,15055,US,114106,43.0877777778,-95.6277777778,Census,City,IA,"Primghar, Iowa",0,0,0,0,0,0,0,0,0,143,519,814,733,921,962.0,1081,1152,1131.0,995.0,1050,950,891.0,909.0
679,12200,US,113871,40.8530555556,-91.6208333333, USA,City,IA,"Salem, Iowa",0,0,0,0,0,0,0,0,0,524,551,548,501,494,460.0,457,473,442.0,458.0,463,453,464.0,383.0
689,10605,US,114370,43.2647222222,-93.4211111111, USA,City,IA,"Fertile, Iowa",0,0,0,0,0,0,0,0,0,0,0,0,207,223,238.0,276,397,386.0,394.0,372,382,360.0,370.0
734,16509,US,112972,40.6225,-93.9336111111, USA,City,IA,"Lamoni, Iowa",0,0,0,0,0,0,0,0,0,0,0,1540,1541,1787,1739.0,1567,2196,2173.0,2540.0,2705,2319,2444.0,2324.0
760,11660,US,95974,41.3338888889,-92.6455555556,Census,US County,IA,"Mahaska County, Iowa",0,0,0,0,0,0,5989,14816,22508,25202,28805,34273,29860,26270,25804.0,26485,24672,23602.0,22177.0,22867,21532,22335.0,22381.0
772,9192,US,113786,43.1275,-92.7397222222, USA,City,IA,"Floyd, Iowa",0,0,0,0,0,0,0,0,0,279,0,353,332,308,350.0,352,440,401.0,380.0,408,359,361.0,335.0
793,9900,US,112968,40.6394444444,-93.8122222222, USA,City,IA,"Davis City, Iowa",0,0,0,0,0,0,0,0,0,348,594,617,489,476,548.0,556,432,346.0,301.0,327,257,275.0,204.0
794,9695,US,113957,41.4538888889,-92.2388888889, USA,City,IA,"Keswick, Iowa",0,0,0,0,0,0,0,0,0,59,0,0,0,354,358.0,307,276,265.0,257.0,300,284,295.0,246.0
801,9881,US,114310,41.2902777778,-91.5541666667, USA,"Ainsworth, IA",IA,"Ainsworth, Iowa",0,0,0,0,0,0,0,0,0,318,0,404,408,391,359.0,415,396,371.0,455.0,547,506,524.0,567.0
871,12454,US,112718,41.5036111111,-94.3205555556, USA,City,IA,"Stuart, Iowa",0,0,0,0,0,0,0,0,0,1994,2052,2079,1826,1716,1626.0,1611,1500,1486.0,1354.0,1650,1522,1712.0,1648.0
881,8405,US,112869,43.1266666667,-93.4733333333, USA,City,IA,"Ventura, Iowa",0,0,0,0,0,0,0,0,0,0,0,0,0,0,0.0,0,0,0.0,543.0,614,590,670.0,717.0
885,9914,US,113912,41.8244444444,-93.1508333333, USA,City,IA,"Baxter, Iowa",0,0,0,0,0,0,0,0,0,0,0,427,527,571,569.0,623,618,681.0,788.0,951,938,1052.0,1101.0
900,8892,US,114182,41.5794444444,-92.7036111111, USA,Unincorporated community,IA,"Searsboro, Iowa",0,0,0,0,0,0,0,0,0,225,153,263,226,204,171.0,195,183,165.0,140.0,134,164,155.0,148.0
906,11548,US,114316,41.3,-91.6891666667, USA,City,IA,"Washington, Iowa",0,0,0,0,0,0,0,0,2575,2949,3235,4255,4380,4697,4814.0,5227,5902,6037.0,6317.0,6584,7074,7047.0,7266.0
1056,12775,US,114231,43.0711111111,-95.9047222222, USA,City,IA,"Hospers, Iowa",0,0,0,0,0,0,0,0,0,51,0,415,581,570,548.0,592,604,600.0,646.0,655,643,672.0,698.0
1076,9159,US,114146,42.6308333333,-94.6, USA,City,IA,"Palmer, Iowa",0,0,0,0,0,0,0,0,0,0,0,0,177,282,297.0,305,296,271.0,264.0,288,230,214.0,165.0
1077,9853,US,114270,40.7591666667,-94.7441666667, USA,City,IA,"Gravity, Iowa",0,0,0,0,0,0,0,0,0,0,210,549,475,464,465.0,514,369,275.0,286.0,245,218,218.0,188.0
1086,10408,US,113841,42.9366666667,-93.7941666667, USA,City,IA,"Kanawha, Iowa",0,0,0,0,0,0,0,0,0,0,0,0,398,659,609.0,767,747,735.0,822.0,756,763,739.0,652.0
1103,10904,US,95973,41.3311111111,-93.1022222222,Census,US County,IA,"Marion County, Iowa",0,0,0,0,0,0,5482,16813,24436,25111,23058,24159,22995,24957,25727.0,27019,25930,25886.0,26352.0,29669,30001,32052.0,33309.0
1107,19676,US,96046,41.3305555556,-94.4711111111,Census,US County,IA,"Adair County, Iowa",0,0,0,0,0,0,0,984,3982,11667,14534,16192,14420,14259,13891.0,13196,12292,10893.0,9487.0,9509,8409,8243.0,7682.0
1111,9503,US,114079,41.9230555556,-95.8505555556, USA,City,IA,"Moorhead, Iowa",0,0,0,0,0,0,0,0,0,0,0,200,366,381,372.0,421,392,313.0,271.0,264,259,232.0,226.0
1136,8817,US,113801,40.8730555556,-95.5666666667, USA,City,IA,"Randolph, Iowa",0,0,0,0,0,0,0,0,0,213,276,373,304,404,344.0,379,295,257.0,214.0,223,243,209.0,168.0
1158,8545,US,114272,40.8022222222,-94.6402777778, USA,City,IA,"Sharpsburg, Iowa",0,0,0,0,0,0,0,0,0,0,0,0,181,188,182.0,173,147,130.0,106.0,114,116,98.0,89.0
1208,8641,US,112981,42.5788888889,-91.5472222222, USA,City,IA,"Dundee, Iowa",0,0,0,0,0,0,0,0,0,0,0,0,0,195,190.0,193,176,185.0,166.0,164,174,179.0,174.0
1214,13753,US,114104,43.1819444444,-95.4763888889,Census,City,IA,"Hartley, Iowa",0,0,0,0,0,0,0,0,0,0,519,1006,1106,1306,1272.0,1503,1611,1738.0,1694.0,1700,1632,1733.0,1672.0
1228,12190,US,95971,42.0341666667,-93.0011111111,Census,US County,IA,"Marshall County, Iowa",0,0,0,0,0,0,338,6015,17576,23752,25842,29991,30279,32630,33727.0,35406,35611,37984.0,41076.0,41652,38276,39311.0,40648.0
1232,10808,US,112880,42.9647222222,-92.1983333333, USA,City,IA,"Fredericksburg, Iowa",0,0,0,0,0,0,0,0,0,203,321,565,558,624,567.0,649,701,797.0,912.0,1075,1011,984.0,931.0
1251,8996,US,113806,42.1066666667,-94.2402777778, USA,City,IA,"Dana, Iowa",0,0,0,0,0,0,0,0,0,0,0,0,183,163,195.0,153,184,123.0,118.0,110,71,84.0,71.0
1288,9465,US,114170,41.4508333333,-95.6175, USA,City,IA,"Neola, Iowa",0,0,0,0,0,0,0,0,0,286,917,921,926,896,944.0,841,839,870.0,968.0,839,909,845.0,842.0
1351,13984,US,113812,42.22,-92.8230555556, USA,City,IA,"Beaman, Iowa",0,0,0,0,0,0,0,0,0,201,262,266,220,214,183.0,167,191,247.0,222.0,219,183,210.0,191.0
1374,9476,US,113981,40.7830555556,-91.6125, USA,City,IA,"Houghton, Iowa",0,0,0,0,0,0,0,0,0,0,0,0,0,0,0.0,0,0,0.0,119.0,124,127,130.0,146.0
1382,18337,US,112805,42.6436111111,-95.2019444444, USA,City,IA,"Storm Lake, Iowa",0,0,0,0,0,0,0,0,0,1034,1682,2169,2428,3658,4157.0,5274,6954,7728.0,8591.0,8814,8769,10076.0,10600.0
1388,11355,US,114088,40.9752777778,-93.05, USA,City,IA,"Melrose, Iowa",0,0,0,0,0,0,0,0,0,378,0,400,459,450,417.0,451,310,214.0,192.0,218,150,130.0,112.0
1445,17686,US,112871,42.75,-95.55,Census,City,IA,"Cherokee, Iowa",0,0,0,0,0,0,0,0,438,1523,3441,3865,4884,5824,6443.0,7469,7705,7724.0,7272.0,7004,6026,5369.0,5253.0
1483,9106,US,113960,41.1977777778,-92.0941666667, USA,City,IA,"Ollie, Iowa",0,0,0,0,0,0,0,0,0,0,0,238,289,385,294.0,294,298,291.0,268.0,232,207,224.0,215.0
1498,14029,US,114263,41.9933333333,-92.5791666667, USA,City,IA,"Toledo, Iowa",0,0,0,0,0,0,0,0,888,1026,1836,1941,1626,1604,1825.0,2073,2106,2417.0,2361.0,2455,2380,2539.0,2341.0
1531,9264,US,114001,42.0569444444,-91.4441666667, USA,City,IA,"Springville, Iowa",0,0,0,0,0,0,0,0,0,365,518,599,588,597,598.0,608,680,785.0,970.0,1165,1068,1091.0,1074.0
1551,9229,US,112979,42.4738888889,-91.3422222222, USA,City,IA,"Delaware, Iowa",0,0,0,0,0,0,0,0,0,0,0,0,0,194,165.0,198,192,167.0,153.0,170,176,188.0,159.0
1574,11627,US,114218,41.5927777778,-95.0597222222, USA,City,IA,"Elk Horn, Iowa",0,0,0,0,0,0,0,0,0,0,0,0,0,589,513.0,486,566,679.0,667.0,746,672,649.0,662.0
1615,13235,US,114175,41.7322222222,-92.4436111111, USA,City,IA,"Brooklyn, Iowa",0,0,0,0,0,0,0,184,971,1234,1202,1188,1233,1533,1345.0,1408,1323,1415.0,1410.0,1509,1439,1367.0,1468.0
1670,9275,US,112802,42.6061111111,-95.0022222222, USA,City,IA,"Newell, Iowa",0,0,0,0,0,0,0,0,0,348,540,762,728,809,812.0,854,884,893.0,877.0,913,1089,887.0,876.0
1675,21339,US,112859,43.1363888889,-93.38,Census,City,IA,"Clear Lake, Iowa",0,0,0,0,0,0,0,0,775,1095,1130,1706,2014,2804,3066.0,3764,4977,6158.0,6430.0,7458,8183,8161.0,7777.0
1690,11167,US,112798,42.6719444444,-95.3047222222, USA,City,IA,"Alta, Iowa",0,0,0,0,0,0,0,0,0,423,768,861,959,1290,1297.0,1269,1348,1393.0,1717.0,1720,1820,1865.0,1883.0
1714,10978,US,114020,43.3088888889,-96.4325, USA,City,IA,"Inwood, Iowa",0,0,0,0,0,0,0,0,0,0,0,477,595,746,670.0,634,644,638.0,644.0,755,824,875.0,814.0
1733,9403,US,96019,41.0227777778,-93.7863888889,Census,US County,IA,"Clarke County, Iowa",0,0,0,0,0,0,79,5427,8735,11513,11332,12440,10736,10506,10384.0,10233,9369,8222.0,7581.0,8612,8287,9133.0,9286.0
1772,10707,US,114078,42.1641666667,-95.7911111111, USA,City,IA,"Mapleton, Iowa",0,0,0,0,0,0,0,0,0,379,782,1099,1100,1367,1622.0,1824,1857,1686.0,1647.0,1495,1294,1416.0,1224.0
1780,14384,US,96023,43.0794444444,-93.2669444444,Census,US County,IA,"Cerro Gordo County, Iowa",0,0,0,0,0,0,0,940,4722,11461,14864,20672,25011,34675,38476.0,43845,46053,49894.0,49223.0,48458,46733,46447.0,44151.0
1864,10956,US,57956,41.0291666667,-95.1513888889,Census,US County,IA,"Montgomery County, Iowa",0,0,0,0,0,0,0,1256,5934,15895,15848,17803,16604,17048,16752.0,15697,15685,14467.0,12781.0,13413,12076,11771.0,10740.0
1930,7883,US,114280,41.0291666667,-94.0497222222, USA,City,IA,"Thayer, Iowa",0,0,0,0,0,0,0,0,0,0,0,394,198,260,164.0,157,152,101.0,100.0,87,79,66.0,59.0
1933,14447,US,112955,41.6436111111,-94.2702777778, USA,City,IA,"Linden, Iowa",0,0,0,0,0,0,0,0,0,0,0,314,315,267,314.0,298,290,258.0,278.0,264,201,226.0,199.0
1996,9099,US,114123,40.7338888889,-95.1547222222, USA,City,IA,"Yorktown, Iowa",0,0,0,0,0,0,0,0,0,0,0,170,228,193,217.0,197,146,150.0,105.0,123,100,82.0,85.0
2002,9328,US,114369,42.2291666667,-95.9319444444, USA,City,IA,"Smithland, Iowa",0,0,0,0,0,0,0,0,0,0,369,435,334,321,389.0,389,373,349.0,293.0,282,252,221.0,224.0
2031,8072,US,113817,42.3433333333,-92.6744444444, USA,City,IA,"Morrison, Iowa",0,0,0,0,0,0,0,0,0,116,165,176,173,207,173.0,161,169,139.0,136.0,146,125,97.0,94.0
2049,13042,US,150412,42.9591666667,-94.4458333333, USA,City,IA,"West Bend, Iowa",0,0,0,0,0,0,0,0,0,0,325,538,679,969,634.0,737,772,910.0,865.0,941,862,834.0,785.0
2056,12279,US,112804,42.8927777778,-95.1472222222, USA,City,IA,"Sioux Rapids, Iowa",0,0,0,0,0,0,0,0,61,181,650,1005,868,1080,958.0,1056,1010,962.0,813.0,897,792,720.0,775.0
2064,8390,US,114134,42.8963888889,-96.3102777778, USA,City,IA,"Craig, Iowa",0,0,0,0,0,0,0,0,0,0,0,0,0,156,155.0,165,142,117.0,98.0,105,116,102.0,89.0
2126,9920,US,112940,41.9283333333,-95.4944444444, USA,City,IA,"Dow City, Iowa",0,0,0,0,0,0,0,0,0,291,451,462,462,572,588.0,642,524,531.0,571.0,616,439,503.0,510.0
2139,9149,US,112919,42.8025,-91.5405555556, USA,City,IA,"Volga, Iowa",0,0,0,0,0,0,0,0,0,344,0,444,416,415,417.0,429,423,361.0,305.0,310,306,247.0,208.0
2149,16771,US,150404,43.2619444444,-93.6402777778,Census,City,IA,"Forest City, Iowa",0,0,0,0,0,0,0,0,155,688,895,1758,1691,2145,2016.0,2545,2766,2930.0,3841.0,4270,4430,4362.0,4151.0
2190,14059,US,114190,40.7141666667,-94.2369444444, USA,City,IA,"Mount Ayr, Iowa",0,0,0,0,0,0,0,0,422,1275,1265,1729,1646,1738,1704.0,1930,1793,1738.0,1762.0,1938,1796,1822.0,1691.0
2201,13815,US,95975,41.33,-94.01,Census,US County,IA,"Madison County, Iowa",0,0,0,0,0,0,1179,7339,13884,17224,15977,17710,15621,15020,14331.0,14525,13131,12295.0,11558.0,12597,12483,14019.0,15679.0
2208,9211,US,112956,41.7561111111,-94.0283333333, USA,City,IA,"Minburn, Iowa",0,0,0,0,0,0,0,0,0,0,0,317,388,418,328.0,335,353,357.0,378.0,390,346,391.0,365.0
2229,16287,US,114014,41.0297222222,-93.4616666667, USA,City,IA,"Lucas, Iowa",0,0,0,0,0,0,0,0,0,981,1320,1132,666,614,514.0,534,420,357.0,247.0,292,224,243.0,216.0
2239,9110,US,112819,42.4552777778,-94.4563888889, USA,City,IA,"Knierim, Iowa",0,0,0,0,0,0,0,0,0,0,0,0,220,173,121.0,159,133,153.0,131.0,125,71,70.0,60.0
2242,9106,US,112724,43.2016666667,-91.1508333333, USA,City,IA,"Harpers Ferry, Iowa",0,0,0,0,0,0,0,0,0,0,0,0,297,328,289.0,361,252,211.0,227.0,258,284,330.0,328.0
2247,9952,US,114045,41.2266666667,-93.2397222222, USA,City,IA,"Melcher-Dallas, Iowa",0,0,0,0,0,0,0,0,0,0,0,0,0,0,0.0,1290,898,867.0,0.0,0,1302,1298.0,1288.0
2250,13115,US,114161,41.6047222222,-93.7111111111, USA,City,IA,"Windsor Heights, Iowa",0,0,0,0,0,0,0,0,0,0,0,0,0,0,0.0,0,1414,4715.0,6303.0,5474,5190,4805.0,4860.0
2267,15101,US,113793,42.7430555556,-93.2077777778, USA,City,IA,"Hampton, Iowa",0,0,0,0,0,0,0,0,588,1598,2067,2727,2617,2992,3473.0,4006,4432,4501.0,4376.0,4630,4133,4218.0,4461.0
2278,10679,US,113833,42.2894444444,-93.7952777778, USA,City,IA,"Stanhope, Iowa",0,0,0,0,0,0,0,0,0,0,0,297,281,400,425.0,425,420,461.0,482.0,492,447,488.0,422.0
2283,29615,US,112730,40.729836,-92.872012, USA,City,IA,"Centerville, Iowa",0,0,0,0,0,0,1137,509,1037,2475,3668,5256,6936,8486,8147.0,8413,7625,6629.0,6531.0,6558,5936,5924.0,5528.0
2288,15031,US,112954,41.6830555556,-93.7844444444, USA,City,IA,"Grimes, Iowa",0,0,0,0,0,0,0,0,0,0,0,186,733,524,468.0,489,582,697.0,834.0,1973,2653,5098.0,8246.0
2303,9866,US,112907,42.8669444444,-91.2361111111, USA,City,IA,"Garnavillo, Iowa",0,0,0,0,0,0,0,0,0,345,0,0,342,314,365.0,461,581,662.0,634.0,723,727,754.0,745.0
2310,9129,US,113890,42.3352777778,-95.3466666667, USA,City,IA,"Arthur, Iowa",0,0,0,0,0,0,0,0,0,0,0,162,215,290,249.0,254,243,265.0,273.0,288,272,245.0,206.0
2344,9050,US,113840,42.9236111111,-93.6141666667, USA,City,IA,"Goodell, Iowa",0,0,0,0,0,0,0,0,0,0,0,254,240,245,210.0,236,242,231.0,218.0,220,201,174.0,139.0
2378,10752,US,112928,41.8241666667,-90.6469444444, USA,City,IA,"Grand Mound, Iowa",0,0,0,0,0,0,0,0,0,234,247,355,428,463,438.0,526,526,565.0,627.0,674,619,676.0,642.0
2383,10726,US,95964,43.3777777778,-95.6277777778,Census,US County,IA,"Osceola County, Iowa",0,0,0,0,0,0,0,0,0,2219,5574,8725,8956,10223,10182.0,10607,10181,10064.0,8555.0,8371,7267,7003.0,6462.0
2400,14259,US,112727,43.085,-91.5694444444, USA,City,IA,"Postville, Iowa",0,0,0,0,0,0,0,0,0,732,884,984,952,1039,1060.0,1194,1343,1554.0,1546.0,1475,1472,2273.0,2227.0
2443,8861,US,112873,42.8613888889,-95.545,Census,City,IA,"Larrabee, Iowa",0,0,0,0,0,0,0,0,0,0,0,125,158,206,189.0,189,158,167.0,167.0,169,175,149.0,132.0
2464,15531,US,113766,43.4044444444,-94.8336111111, USA,City,IA,"Estherville, Iowa",0,0,0,0,0,0,0,0,168,138,1475,3237,3404,4699,4940.0,5651,6719,7927.0,8108.0,7518,6720,6656.0,6360.0
2503,10699,US,112870,42.7141666667,-95.4347222222,Census,City,IA,"Aurelia, Iowa",0,0,0,0,0,0,0,0,0,225,663,621,625,708,723.0,752,807,904.0,1065.0,1143,1034,1062.0,1036.0
2531,19360,US,95959,41.685,-93.5702777778,Census,US County,IA,"Polk County, Iowa",0,0,0,0,0,0,4513,11625,27857,42395,65410,82624,110438,154029,172837.0,195835,226010,266315.0,286101.0,303170,327140,374601.0,430640.0
2537,10580,US,95933,41.0294444444,-92.4088888889,Census,US County,IA,"Wapello County, Iowa",0,0,0,0,0,0,8471,14518,22346,25285,30426,35426,37743,37937,40480.0,44280,47397,46126.0,42149.0,40241,35696,36051.0,35625.0
2556,9818,US,95977,41.0261111111,-93.3283333333,Census,US County,IA,"Lucas County, Iowa",0,0,0,0,0,0,471,5766,10388,14530,14563,16126,13462,15686,15114.0,14571,12069,10923.0,10163.0,10313,9070,9422.0,8898.0
2609,22135,US,150400,42.6569444444,-93.5022222222, USA,City,IA,"Dows, Iowa",0,0,0,0,0,0,0,0,0,0,0,818,892,1145,926.0,945,948,882.0,777.0,771,660,675.0,538.0
2631,12678,US,114004,41.2783333333,-91.3625, USA,City,IA,"Columbus Junction, Iowa",0,0,0,0,0,0,0,519,850,793,953,1099,1185,988,867.0,975,1123,1016.0,1205.0,1429,1616,1900.0,1899.0
2636,8638,US,112816,42.7111111111,-92.5833333333, USA,City,IA,"Shell Rock, Iowa",0,0,0,0,0,0,0,0,0,719,733,839,741,815,806.0,925,1013,1112.0,1159.0,1478,1385,1298.0,1296.0
2638,12547,US,96027,42.3861111111,-94.6472222222,Census,US County,IA,"Calhoun County, Iowa",0,0,0,0,0,0,0,147,1602,5595,13107,18569,17090,17783,17605.0,17584,16925,15923.0,14287.0,13542,11508,11115.0,9670.0
2649,9232,US,113002,43.3719444444,-95.1738888889, USA,City,IA,"Wahpeton, Iowa",0,0,0,0,0,0,0,0,0,0,0,0,0,0,0.0,73,127,117.0,149.0,372,484,462.0,341.0
2770,11633,US,96011,42.4694444444,-91.3702777778,Census,US County,IA,"Delaware County, Iowa",0,0,0,0,0,0,1759,11024,17432,17950,17349,19185,17888,18183,18122.0,18487,17734,18483.0,18770.0,18933,18035,18404.0,17764.0
2797,13323,US,113770,42.7480555556,-91.6716666667,Census,City,IA,"Arlington, Iowa",0,0,0,0,0,0,0,0,0,0,593,863,678,729,706.0,675,661,614.0,481.0,498,465,490.0,429.0
2801,8865,US,114338,42.4422222222,-94.2936111111, USA,City,IA,"Moorland, Iowa",0,0,0,0,0,0,0,0,0,0,0,0,137,181,179.0,215,248,281.0,269.0,257,209,197.0,169.0
2812,10495,US,114311,41.1733333333,-91.8208333333, USA,City,IA,"Brighton, Iowa",0,0,0,0,0,0,0,0,785,836,861,807,776,1014,800.0,791,705,724.0,632.0,804,684,687.0,652.0
2828,10939,US,10742818,42.5169444444,-93.3758333333, USA,City,IA,"Alden, Iowa",0,0,0,0,0,0,0,0,0,495,512,709,699,840,793.0,682,829,838.0,876.0,953,855,904.0,787.0
2837,13720,US,74357,42.4688888889,-92.3052777778,Census,US County,IA,"Black Hawk County, Iowa",0,0,0,0,0,0,135,8244,21706,23913,24219,32399,44865,56570,69146.0,79946,100448,122482.0,132916.0,137961,123798,128012.0,131090.0
2842,9465,US,113795,42.7627777778,-93.3688888889, USA,City,IA,"Latimer, Iowa",0,0,0,0,0,0,0,0,0,0,0,0,378,359,352.0,416,434,445.0,393.0,441,430,535.0,507.0
2865,12591,US,114024,43.4280555556,-96.1686111111,Census,City,IA,"Rock Rapids, Iowa",0,0,0,0,0,0,0,0,0,0,1394,1766,2005,2172,2221.0,2556,2640,2780.0,2632.0,2693,2601,2573.0,2549.0
2870,12692,US,113908,42.0677777778,-90.1741666667, USA,City,IA,"Sabula, Iowa",0,0,0,0,0,0,168,406,920,1223,918,1029,918,865,759.0,771,888,894.0,845.0,824,710,670.0,576.0
2897,8345,US,112879,43.0622222222,-92.5158333333, USA,City,IA,"Bassett, Iowa",0,0,0,0,0,0,0,0,0,0,0,149,130,135,149.0,147,125,130.0,152.0,128,74,74.0,66.0
2899,10463,US,95963,40.7380555556,-95.1480555556,Census,US County,IA,"Page County, Iowa",0,0,0,0,0,0,551,4419,9975,19667,21341,24187,24002,24137,25904.0,24887,23921,21023.0,18537.0,19063,16870,16976.0,15932.0
2904,8523,US,112864,43.2452777778,-93.1225, USA,City,IA,"Plymouth, Iowa",0,0,0,0,0,0,0,0,0,239,0,0,358,366,388.0,427,395,422.0,461.0,463,453,429.0,382.0
2905,17114,US,112858,41.5894444444,-91.0175, USA,City,IA,"Wilton, Iowa",0,0,0,0,0,0,0,0,1317,1431,1212,1233,1157,1178,1104.0,1146,1446,1750.0,1873.0,2502,2577,2829.0,2802.0
2917,12458,US,114306,41.4833333333,-93.6786111111, USA,City,IA,"Norwalk, Iowa",0,0,0,0,0,0,0,0,0,0,0,287,315,331,336.0,377,435,1328.0,1745.0,2676,5726,6884.0,8945.0
2941,12118,US,112793,42.3947222222,-91.7591666667, USA,City,IA,"Quasqueton, Iowa",0,0,0,0,0,0,0,0,0,529,0,0,394,453,342.0,400,374,373.0,464.0,599,579,574.0,554.0
2974,9578,US,114115,40.5786111111,-95.0297222222, USA,City,IA,"Braddyville, Iowa",0,0,0,0,0,0,0,0,0,214,175,236,283,294,267.0,242,249,176.0,207.0,199,219,176.0,159.0
2991,10342,US,113993,41.9197222222,-91.7802777778, USA,City,IA,"Fairfax, Iowa",0,0,0,0,0,0,0,0,0,0,0,0,0,0,0.0,262,335,528.0,635.0,683,780,889.0,2123.0
3034,24119,US,114379,42.7311111111,-93.7311111111, USA,City,IA,"Clarion, Iowa",0,0,0,0,0,0,0,0,37,147,744,1475,2065,2826,2578.0,2971,3150,3232.0,2972.0,3060,2703,2968.0,2850.0
3053,7697,US,114324,40.8491666667,-93.3055555556, USA,City,IA,"Millerton, Iowa",0,0,0,0,0,0,0,0,0,0,0,0,0,159,162.0,163,140,90.0,82.0,72,44,48.0,45.0
3106,8749,US,112987,42.4797222222,-91.5905555556, USA,City,IA,"Masonville, Iowa",0,0,0,0,0,0,0,0,0,193,0,0,282,250,207.0,176,133,168.0,147.0,150,129,104.0,127.0
3136,9898,US,114361,42.2308333333,-96.0966666667, USA,City,IA,"Hornick, Iowa",0,0,0,0,0,0,0,0,0,0,0,284,245,296,309.0,291,310,275.0,250.0,239,222,253.0,225.0
3147,9692,US,113973,43.2213888889,-94.325, USA,City,IA,"Lone Rock, Iowa",0,0,0,0,0,0,0,0,0,0,0,0,0,193,159.0,170,188,185.0,166.0,169,185,157.0,146.0
3159,9523,US,114365,42.5447222222,-95.8686111111, USA,City,IA,"Pierson, Iowa",0,0,0,0,0,0,0,0,0,0,0,358,416,554,551.0,531,453,425.0,421.0,408,341,371.0,366.0
3169,28329,US,114201,41.55,-90.4936111111,Census,City,IA,"Bettendorf, Iowa",0,0,0,0,0,0,0,0,0,0,0,0,909,2178,2768.0,3143,5132,11534.0,22126.0,27381,28139,31275.0,33217.0
3173,9505,US,114010,41.0977777778,-91.0436111111, USA,City,IA,"Oakville, Iowa",0,0,0,0,0,0,0,0,0,0,0,0,389,466,389.0,391,360,346.0,369.0,470,442,439.0,173.0
3196,8114,US,114192,40.8527777778,-94.1958333333, USA,City,IA,"Tingley, Iowa",0,0,0,0,0,0,0,0,0,0,295,488,380,391,358.0,390,333,278.0,244.0,210,179,171.0,184.0
3226,10655,US,113773,42.8425,-91.8030555556, USA,City,IA,"Fayette, Iowa",0,0,0,0,0,0,0,0,0,995,1062,1315,1112,1085,1083.0,1162,1469,1597.0,1947.0,1515,1317,1300.0,1338.0
3323,14411,US,96025,41.3294444444,-94.9291666667,Census,US County,IA,"Cass County, Iowa",0,0,0,0,0,0,0,1612,5464,16943,19642,21274,19047,19421,19422.0,18647,18532,17919.0,17007.0,16932,15128,14684.0,13956.0
3342,15231,US,114127,43.1111111111,-94.6819444444, USA,City,IA,"Emmetsburg, Iowa",0,0,0,0,0,0,0,0,44,879,1584,2361,2325,2762,2865.0,3374,3760,3887.0,4150.0,4621,3940,3958.0,3904.0
3346,10805,US,113874,41.1269444444,-91.4375, USA,City,IA,"Winfield, Iowa",0,0,0,0,0,0,0,0,0,0,461,820,934,1027,933.0,864,888,862.0,897.0,1042,1051,1131.0,1134.0
3347,8886,US,112844,41.2736111111,-94.8711111111, USA,City,IA,"Cumberland, Iowa",0,0,0,0,0,0,0,0,0,0,0,591,552,561,595.0,578,493,425.0,385.0,351,295,281.0,262.0
3351,10433,US,96022,42.7347222222,-95.6241666667,Census,US County,IA,"Cherokee County, Iowa",0,0,0,0,0,0,0,58,1967,8240,15659,16570,16741,17760,18737.0,19258,19052,18598.0,17269.0,16238,14098,13035.0,12072.0
3361,8959,US,112888,41.0433333333,-93.95, USA,City,IA,"Murray, Iowa",0,0,0,0,0,0,0,0,0,491,666,949,796,847,828.0,857,767,613.0,620.0,703,731,766.0,756.0
3376,9812,US,112950,41.8436111111,-94.2213888889, USA,City,IA,"Dawson, Iowa",0,0,0,0,0,0,0,0,0,0,0,0,275,300,262.0,289,286,257.0,232.0,229,174,155.0,131.0
3387,10766,US,114205,41.6952777778,-90.6747222222, USA,City,IA,"Donahue, Iowa",0,0,0,0,0,0,0,0,0,0,0,0,64,101,98.0,89,105,133.0,216.0,289,316,293.0,346.0
3393,11858,US,113827,41.7752777778,-94.3555555556,Census,City,IA,"Yale, Iowa",0,0,0,0,0,0,0,0,0,0,0,0,273,276,304.0,287,293,260.0,301.0,299,220,287.0,246.0
3416,10852,US,112914,43.0513888889,-91.3905555556, USA,City,IA,"Monona, Iowa",0,0,0,0,0,0,0,0,0,420,460,674,792,1049,1163.0,1191,1346,1346.0,1395.0,1530,1520,1550.0,1549.0
3436,8784,US,113003,43.35,-95.1588888889, USA,City,IA,"West Okoboji, Iowa",0,0,0,0,0,0,0,0,0,0,0,0,0,0,112.0,117,158,171.0,210.0,435,263,432.0,289.0
3468,11128,US,113813,42.225,-92.8722222222, USA,City,IA,"Conrad, Iowa",0,0,0,0,0,0,0,0,0,0,157,483,549,560,536.0,591,649,799.0,932.0,1133,964,1055.0,1108.0
3499,11028,US,112895,43.0161111111,-95.1455555556,Census,City,IA,"Greenville, Iowa",0,0,0,0,0,0,0,0,0,0,0,0,0,167,168.0,169,173,173.0,117.0,122,84,93.0,75.0
3505,10420,US,114126,43.0891666667,-94.55, USA,City,IA,"Cylinder, Iowa",0,0,0,0,0,0,0,0,0,0,0,118,129,174,157.0,175,143,161.0,133.0,119,112,110.0,88.0
3506,9888,US,112814,42.5672222222,-92.6213888889, USA,City,IA,"New Hartford, Iowa",0,0,0,0,0,0,0,0,0,0,0,570,482,454,500.0,548,584,649.0,690.0,764,683,659.0,516.0
3513,8620,US,114180,41.7075,-92.5552777778, USA,City,IA,"Malcom, Iowa",0,0,0,0,0,0,0,0,0,416,372,404,377,413,381.0,447,406,416.0,388.0,418,447,352.0,287.0
3536,8682,US,114290,40.8569444444,-91.8333333333, USA,City,IA,"Stockport, Iowa",0,0,0,0,0,0,0,0,0,0,0,0,265,385,322.0,338,346,342.0,334.0,272,260,284.0,296.0
3537,12172,US,21311493,42.2388888889,-91.1891666667, USA,City,IA,"Monticello, Iowa",0,0,0,0,0,0,0,0,1337,1877,1938,2104,2043,2257,2259.0,2546,2888,3190.0,3509.0,3641,3522,3607.0,3796.0
3546,8920,US,113917,41.7677777778,-93.2838888889, USA,City,IA,"Mingo, Iowa",0,0,0,0,0,0,0,0,0,0,0,0,246,324,313.0,290,227,260.0,260.0,303,252,269.0,302.0
3560,8353,US,114111,43.2866666667,-95.6075,Census,City,IA,"Melvin, Iowa",0,0,0,0,0,0,0,0,0,0,0,0,195,282,301.0,328,325,364.0,325.0,277,250,243.0,214.0
3600,9335,US,114000,42.0727777778,-91.6686111111, USA,City,IA,"Robins, Iowa",0,0,0,0,0,0,0,0,0,0,0,0,0,110,190.0,205,272,426.0,663.0,726,875,1806.0,3142.0
3646,8913,US,112734,40.6852777778,-92.6777777778, USA,City,IA,"Moulton, Iowa",0,0,0,0,0,0,0,0,678,681,769,1420,1233,1387,1476.0,1181,985,773.0,763.0,762,613,658.0,605.0
3701,16506,US,112946,41.6166666667,-94.0216666667, USA,City,IA,"Adel, Iowa",0,0,0,0,0,0,0,466,711,989,995,1213,1289,1455,1669.0,1740,1799,2060.0,2419.0,2846,3304,3435.0,3682.0
3724,8611,US,113843,43.2305555556,-93.9094444444, USA,City,IA,"Woden, Iowa",0,0,0,0,0,0,0,0,0,0,0,0,162,188,258.0,305,272,283.0,265.0,287,259,243.0,229.0
3778,8472,US,113751,42.56,-90.7758333333, USA,City,IA,"Durango, Iowa",0,0,0,0,0,0,0,0,0,0,0,0,0,0,0.0,42,71,37.0,55.0,41,34,24.0,22.0
3879,23585,US,112786,42.7266666667,-92.4752777778, USA,City,IA,"Waverly, Iowa",0,0,0,0,0,0,0,0,2291,2345,2346,3177,3205,3352,3652.0,4156,5124,6357.0,7205.0,8444,8539,8968.0,9874.0
3900,10672,US,113847,42.305,-93.3008333333, USA,City,IA,"Hubbard, Iowa",0,0,0,0,0,0,0,0,0,0,452,676,568,681,795.0,779,836,806.0,846.0,852,814,885.0,845.0
3952,8788,US,114178,41.65,-92.3444444444, USA,City,IA,"Guernsey, Iowa",0,0,0,0,0,0,0,0,0,0,0,0,143,167,177.0,121,113,108.0,94.0,83,70,70.0,63.0
3970,8847,US,114029,41.2877777778,-93.8080555556, USA,City,IA,"St. Charles, Iowa",0,0,0,0,0,0,0,0,0,183,387,412,399,430,400.0,331,319,355.0,443.0,507,537,619.0,653.0
3993,10252,US,112984,42.585,-91.3416666667, USA,City,IA,"Greeley, Iowa",0,0,0,0,0,0,0,0,0,0,0,488,383,410,343.0,403,360,369.0,323.0,313,284,276.0,256.0
3998,10582,US,113872,41.1475,-91.6597222222, USA,City,IA,"Wayland, Iowa",0,0,0,0,0,0,0,0,0,171,0,394,550,637,625.0,576,600,597.0,702.0,720,838,945.0,966.0
4054,12498,US,112863,43.1438888889,-93.0088888889, USA,City,IA,"Nora Springs, Iowa",0,0,0,0,0,0,0,0,0,617,846,1209,985,1055,1070.0,1198,1257,1275.0,1337.0,1572,1505,1532.0,1431.0
4067,8841,US,114352,43.1069444444,-92.0466666667, USA,City,IA,"Jackson Junction, Iowa",0,0,0,0,0,0,0,0,0,0,0,171,160,130,126.0,122,107,89.0,106.0,94,87,60.0,58.0
4069,9697,US,112876,42.6297222222,-95.6427777778,Census,City,IA,"Quimby, Iowa",0,0,0,0,0,0,0,0,0,0,0,0,268,363,318.0,363,398,369.0,395.0,424,334,368.0,319.0
4080,8609,US,113959,41.1783333333,-92.2513888889, USA,City,IA,"Martinsburg, Iowa",0,0,0,0,0,0,0,0,0,154,322,332,285,278,223.0,218,219,172.0,140.0,174,157,126.0,112.0
4081,18333,US,112720,40.9913888889,-94.7369444444, USA,City,IA,"Corning, Iowa",0,0,0,0,0,0,0,0,0,1526,1682,2145,1702,1840,2026.0,2162,2104,2041.0,2095.0,1939,1806,1783.0,1635.0
4120,9098,US,95967,41.0283333333,-92.87,Census,US County,IA,"Monroe County, Iowa",0,0,0,0,0,0,2884,8612,12724,13719,13666,17985,25429,23467,15010.0,14553,11814,10463.0,9357.0,9209,8114,8016.0,7970.0
4135,9620,US,113768,43.295,-94.5088888889, USA,City,IA,"Ringsted, Iowa",0,0,0,0,0,0,0,0,0,0,0,0,313,599,486.0,508,578,559.0,509.0,557,481,436.0,422.0
4141,9683,US,112932,41.9122222222,-90.6011111111, USA,City,IA,"Welton, Iowa",0,0,0,0,0,0,0,0,0,79,0,0,69,69,80.0,100,93,88.0,104.0,119,184,159.0,165.0
4144,11829,US,112725,43.3613888889,-91.2233333333, USA,City,IA,"Lansing, Iowa",0,0,0,0,0,0,0,0,1755,1811,1668,1438,1542,1447,1321.0,1388,1536,1325.0,1227.0,1181,1007,1012.0,999.0
4162,9323,US,113831,42.3919444444,-93.7286111111, USA,City,IA,"Kamrar, Iowa",0,0,0,0,0,0,0,0,0,0,0,223,262,256,286.0,288,261,268.0,243.0,225,203,229.0,199.0
4163,12895,US,112735,40.7786111111,-92.945,Census,City,IA,"Mystic, Iowa",0,0,0,0,0,0,0,0,0,0,875,1758,2663,2796,1953.0,1822,1233,761.0,696.0,665,545,588.0,425.0
4166,8306,US,113963,41.4522222222,-92.0897222222, USA,City,IA,"South English, Iowa",0,0,0,0,0,0,0,0,0,360,0,319,338,355,296.0,288,248,217.0,218.0,211,224,213.0,212.0
4186,10154,US,114220,41.7905555556,-95.2072222222, USA,City,IA,"Irwin, Iowa",0,0,0,0,0,0,0,0,0,0,0,295,278,311,357.0,345,381,425.0,446.0,427,394,372.0,341.0
4263,10241,US,113807,42.0311111111,-94.2352777778, USA,City,IA,"Grand Junction, Iowa",0,0,0,0,0,0,0,0,444,752,932,1113,1012,1010,1025.0,1125,1036,949.0,967.0,970,808,964.0,824.0
4319,19803,US,113880,42.8033333333,-94.4202777778,Census,City,IA,"Bradgate, Iowa",0,0,0,0,0,0,0,0,0,0,0,223,175,230,223.0,261,188,166.0,130.0,151,124,101.0,86.0
4344,11723,US,114132,42.8252777778,-96.5566666667, USA,City,IA,"Akron, Iowa",0,0,0,0,0,0,0,0,0,0,494,1029,1130,1324,1304.0,1314,1251,1351.0,1324.0,1517,1450,1489.0,1486.0
4364,37825,US,114098,41.4238888889,-91.0561111111,Census,City,IA,"Muscatine, Iowa",0,0,0,0,0,0,2540,5324,6718,8295,11454,14073,16178,16068,16778.0,18286,19041,20997.0,22405.0,23467,22881,22697.0,22886.0
4374,8432,US,112998,43.4444444444,-95.1077777778, USA,City,IA,"Orleans, Iowa",0,0,0,0,0,0,0,0,0,0,0,92,105,123,126.0,244,317,280.0,396.0,546,560,583.0,608.0
4383,12007,US,113889,42.6886111111,-94.0488888889, USA,City,IA,"Thor, Iowa",0,0,0,0,0,0,0,0,0,0,0,274,271,285,257.0,264,271,234.0,212.0,200,205,174.0,186.0
4397,9473,US,112821,42.2686111111,-94.5477777778, USA,City,IA,"Lohrville, Iowa",0,0,0,0,0,0,0,0,0,0,435,597,674,727,776.0,776,698,653.0,553.0,521,453,431.0,368.0
4419,10511,US,95992,43.3575,-92.3155555556,Census,US County,IA,"Howard County, Iowa",0,0,0,0,0,0,0,3168,6282,10837,11182,14512,12920,13705,13082.0,13531,13105,12734.0,11442.0,11114,9809,9932.0,9566.0
4428,12029,US,21287893,41.185,-91.9938888889, USA,City,IA,"Richland, Iowa",0,0,0,0,0,0,0,0,0,254,531,534,613,639,713.0,614,591,546.0,595.0,600,522,587.0,584.0
4456,8419,US,114307,41.3702777778,-93.3855555556, USA,City,IA,"Sandyville, Iowa",0,0,0,0,0,0,0,0,0,85,0,0,120,94,92.0,93,92,115.0,89.0,86,59,61.0,51.0
4537,13623,US,112949,41.6844444444,-93.9608333333, USA,City,IA,"Dallas Center, Iowa",0,0,0,0,0,0,0,0,133,450,445,625,769,864,852.0,865,944,1083.0,1128.0,1360,1454,1595.0,1623.0
4569,8611,US,113001,43.3055555556,-94.9713888889, USA,City,IA,"Terril, Iowa",0,0,0,0,0,0,0,0,0,0,0,217,253,440,416.0,452,425,382.0,397.0,420,383,404.0,367.0
4692,8125,US,150429,40.8997222222,-94.2638888889, USA,City,IA,"Shannon City, Iowa",0,0,0,0,0,0,0,0,0,0,0,380,292,333,293.0,288,171,127.0,100.0,93,97,70.0,71.0
4696,64523,US,113926,41.0072222222,-91.9658333333,Census,City,IA,"Fairfield, Iowa",0,0,0,0,0,0,909,1692,2226,3086,3391,4689,4970,5948,6619.0,6773,7299,8054.0,8715.0,9428,9768,9509.0,9464.0
4735,12684,US,112838,41.9086111111,-95.0633333333, USA,City,IA,"Manning, Iowa",0,0,0,0,0,0,0,0,0,0,1233,1169,1434,1863,1817.0,1748,1801,1676.0,1656.0,1609,1484,1490.0,1500.0
4752,9215,US,114333,42.47,-93.9927777778, USA,City,IA,"Duncombe, Iowa",0,0,0,0,0,0,0,0,0,0,0,350,418,442,354.0,341,378,355.0,418.0,504,488,474.0,410.0
4783,8503,US,113000,43.4322222222,-94.9455555556, USA,City,IA,"Superior, Iowa",0,0,0,0,0,0,0,0,0,0,0,187,154,200,168.0,230,240,190.0,139.0,188,128,142.0,130.0
4796,25168,US,113994,42.0444444444,-91.6811111111,Census,City,IA,"Hiawatha, Iowa",0,0,0,0,0,0,0,0,0,0,0,0,0,0,0.0,0,0,1336.0,2416.0,4825,4986,6480.0,7024.0
4819,8532,US,114224,41.5941666667,-95.4419444444, USA,City,IA,"Tennant, Iowa",0,0,0,0,0,0,0,0,0,0,0,0,0,79,118.0,109,95,95.0,93.0,77,78,73.0,68.0
4841,9075,US,114050,42.1141666667,-93.1583333333, USA,City,IA,"Clemons, Iowa",0,0,0,0,0,0,0,0,0,0,0,0,213,216,241.0,207,202,198.0,178.0,175,173,148.0,148.0
4856,8939,US,112966,40.8641666667,-92.3322222222, USA,City,IA,"Floris, Iowa",0,0,0,0,0,0,0,0,0,0,0,0,0,252,209.0,247,215,187.0,145.0,187,172,153.0,138.0
4893,15256,US,95980,40.6427777778,-91.4744444444,Census,US County,IA,"Lee County, Iowa",0,0,0,0,0,0,18861,29565,37210,34859,37715,39719,36702,39676,41268.0,41074,43102,44207.0,42996.0,43106,38687,38052.0,35862.0
4898,7808,US,114081,42.2047222222,-95.9513888889, USA,City,IA,"Rodney, Iowa",0,0,0,0,0,0,0,0,0,0,0,173,163,176,150.0,131,127,94.0,66.0,82,71,74.0,60.0
4933,10645,US,112797,42.7808333333,-94.9505555556, USA,City,IA,"Albert City, Iowa",0,0,0,0,0,0,0,0,0,0,0,0,261,567,563.0,759,736,722.0,683.0,818,779,709.0,699.0
4982,8273,US,112917,42.9277777778,-91.3872222222, USA,City,IA,"St. Olaf, Iowa",0,0,0,0,0,0,0,0,0,50,0,124,170,149,174.0,191,158,169.0,140.0,138,125,136.0,108.0
4995,9523,US,114033,41.2122222222,-92.435, USA,City,IA,"Fremont, Iowa",0,0,0,0,0,0,0,0,0,143,0,542,501,544,450.0,490,471,461.0,480.0,730,701,704.0,743.0
5024,12321,US,114326,40.6827777778,-93.1208333333, USA,City,IA,"Seymour, Iowa",0,0,0,0,0,0,0,0,0,501,1058,1703,2290,1746,1571.0,1539,1223,1117.0,931.0,1036,869,810.0,701.0
5043,8193,US,113910,42.1619444444,-90.48, USA,City,IA,"Springbrook, Iowa",0,0,0,0,0,0,0,0,0,0,0,107,217,126,103.0,131,109,139.0,196.0,209,165,182.0,144.0
5060,9493,US,114349,43.1122222222,-91.6772222222, USA,City,IA,"Castalia, Iowa",0,0,0,0,0,0,0,0,0,108,0,0,230,272,200.0,239,221,216.0,210.0,188,177,175.0,173.0
5179,12274,US,114194,42.4619444444,-95.1513888889, USA,City,IA,"Early, Iowa",0,0,0,0,0,0,0,0,0,0,277,579,500,568,632.0,644,742,824.0,727.0,670,649,605.0,557.0
5210,16393,US,114301,41.3616666667,-93.5630555556, USA,City,IA,"Indianola, Iowa",0,0,0,0,0,0,0,836,1428,2146,2254,3261,3283,3628,3488.0,4123,5145,7062.0,8852.0,10843,11340,12998.0,14782.0
5219,6865,US,114187,40.8402777778,-94.1086111111,Census,City,IA,"Ellston, Iowa",0,0,0,0,0,0,0,0,0,0,0,242,205,212,212.0,195,158,115.0,76.0,60,44,57.0,43.0
5279,15122,US,57224,41.8927777778,-90.5275,Census,US County,IA,"Clinton County, Iowa",0,0,0,0,0,821,2822,18938,35357,36763,41199,43832,45394,43371,44377.0,44722,49664,55060.0,56749.0,57122,51040,50149.0,49116.0
5283,10782,US,113803,40.7472222222,-95.6469444444, USA,City,IA,"Sidney, Iowa",0,0,0,0,0,0,0,423,817,855,839,1143,1019,1154,1074.0,1290,1132,1057.0,1061.0,1308,1253,1300.0,1138.0
5306,9905,US,113989,42.1905555556,-91.7825, USA,City,IA,"Center Point, Iowa",0,0,0,0,0,0,0,0,443,603,615,674,802,773,812.0,861,987,1236.0,1456.0,1591,1693,2007.0,2421.0
5307,22387,US,114350,43.3016666667,-91.7902777778, USA,City,IA,"Decorah, Iowa",0,0,0,0,0,0,0,1920,2110,2951,2801,3246,3592,4039,4581.0,5303,6060,6435.0,7237.0,8068,8063,8172.0,8127.0
5314,9009,US,113895,41.755,-92.1838888889, USA,City,IA,"Ladora, Iowa",0,0,0,0,0,0,0,0,0,211,224,239,260,340,284.0,300,273,307.0,321.0,289,308,287.0,283.0
5337,7641,US,114265,41.9902777778,-92.3847222222, USA,City,IA,"Vining, Iowa",0,0,0,0,0,0,0,0,0,0,0,0,0,153,163.0,126,112,122.0,71.0,96,78,70.0,50.0
5345,7919,US,113930,41.1458333333,-91.8594444444, USA,City,IA,"Pleasant Plain, Iowa",0,0,0,0,0,0,0,0,0,202,0,280,174,164,175.0,171,148,147.0,121.0,144,128,131.0,93.0
5417,6528,US,114213,41.6938888889,-90.5413888889,Census,CDP,IA,"Park View, Iowa",0,0,0,0,0,0,0,0,0,0,0,0,0,0,0.0,0,0,0.0,0.0,0,808,2169.0,2389.0
5440,13216,US,114099,41.4791666667,-91.3083333333, USA,City,IA,"Nichols, Iowa",0,0,0,0,0,0,0,0,0,286,237,398,396,387,369.0,357,348,329.0,396.0,375,366,374.0,374.0
5470,8981,US,114065,41.1391666667,-95.4313888889, USA,City,IA,"Henderson, Iowa",0,0,0,0,0,0,0,0,0,0,201,244,240,232,237.0,217,208,191.0,211.0,236,206,171.0,185.0
5474,16242,US,113834,42.4663888889,-93.8205555556, USA,City,IA,"Webster City, Iowa",0,0,0,0,0,0,0,0,1339,1848,2829,4613,5208,5657,7024.0,6738,7611,8520.0,8488.0,8572,7894,8176.0,8070.0
5482,10308,US,114269,40.7486111111,-94.6194444444, USA,City,IA,"Conway, Iowa",0,0,0,0,0,0,0,0,0,423,379,348,283,253,266.0,246,168,82.0,91.0,93,57,63.0,41.0
5500,8684,US,114223,41.6508333333,-95.5197222222, USA,City,IA,"Portsmouth, Iowa",0,0,0,0,0,0,0,0,0,0,250,316,347,280,328.0,320,299,232.0,239.0,240,209,225.0,195.0
5505,8507,US,114277,41.0408333333,-94.4625, USA,City,IA,"Cromwell, Iowa",0,0,0,0,0,0,0,0,0,189,0,208,208,143,173.0,165,147,138.0,168.0,157,120,120.0,107.0
5515,17039,US,114251,42.1863888889,-93.5919444444,Census,City,IA,"Story City, Iowa",0,0,0,0,0,0,0,0,0,331,536,1197,1387,1591,1434.0,1479,1545,1773.0,2104.0,2762,2959,3228.0,3431.0
5521,11955,US,96032,42.0363888889,-93.9322222222,Census,US County,IA,"Boone County, Iowa",0,0,0,0,0,0,735,4232,14584,20838,23772,28200,27626,29892,29271.0,29782,28139,28037.0,26470.0,26184,25186,26224.0,26306.0
5553,13063,US,114317,41.4672222222,-91.8358333333, USA,City,IA,"Wellman, Iowa",0,0,0,0,0,0,0,0,0,0,0,654,724,875,853.0,1129,1071,1085.0,977.0,1125,1085,1393.0,1408.0
5573,9246,US,113964,41.455,-92.3338888889, USA,City,IA,"Thornburg, Iowa",0,0,0,0,0,0,0,0,0,65,0,267,233,197,171.0,184,138,101.0,98.0,103,91,84.0,67.0
5585,9563,US,112953,41.7616666667,-93.8238888889, USA,City,IA,"Granger, Iowa",0,0,0,0,0,0,0,0,0,0,0,0,225,324,319.0,324,300,468.0,661.0,619,624,583.0,1244.0
5623,17613,US,112959,41.6363888889,-93.7361111111, USA,City,IA,"Urbandale, Iowa",0,0,0,0,0,0,0,0,0,0,0,0,0,298,596.0,1083,1777,5821.0,14434.0,17869,23500,29072.0,39463.0
5644,8621,US,112839,42.0416666667,-94.6305555556, USA,City,IA,"Ralston, Iowa",0,0,0,0,0,0,0,0,0,0,0,0,175,200,184.0,202,166,143.0,129.0,108,119,98.0,79.0
5646,7738,US,114139,42.8194444444,-96.0577777778, USA,City,IA,"Oyens, Iowa",0,0,0,0,0,0,0,0,0,0,0,0,94,100,106.0,104,95,114.0,145.0,146,113,132.0,103.0
5693,9385,US,112910,43.0608333333,-91.4533333333, USA,City,IA,"Luana, Iowa",0,0,0,0,0,0,0,0,0,124,0,0,0,181,186.0,204,220,276.0,225.0,246,190,249.0,269.0
5713,23306,US,113783,43.0663888889,-92.6758333333, USA,City,IA,"Charles City, Iowa",0,0,0,0,0,0,0,0,2166,2421,2802,4227,5892,7350,8039.0,8681,10309,9964.0,9268.0,8778,7878,7812.0,7652.0
5804,9184,US,114193,42.2508333333,-94.8772222222, USA,City,IA,"Auburn, Iowa",0,0,0,0,0,0,0,0,0,0,174,293,399,406,359.0,383,350,367.0,329.0,320,283,296.0,322.0
5813,11695,US,113918,41.5219444444,-93.1036111111, USA,City,IA,"Monroe, Iowa",0,0,0,0,0,0,0,0,0,982,952,917,800,936,936.0,1015,1108,1366.0,1389.0,1875,1739,1808.0,1830.0
5869,10318,US,114366,42.3077777778,-96.2872222222, USA,City,IA,"Salix, Iowa",0,0,0,0,0,0,0,0,0,0,0,387,390,396,374.0,392,337,394.0,387.0,429,367,370.0,363.0
5883,9302,US,112745,41.84,-94.9825, USA,City,IA,"Gray, Iowa",0,0,0,0,0,0,0,0,0,0,0,180,148,196,194.0,182,183,162.0,145.0,108,83,82.0,63.0
5888,11802,US,114151,41.8188888889,-93.6111111111, USA,City,IA,"Alleman, Iowa",0,0,0,0,0,0,0,0,0,0,0,0,0,0,0.0,0,0,0.0,0.0,307,340,439.0,432.0
5919,9341,US,114100,41.5913888889,-90.8577777778, USA,City,IA,"Stockton, Iowa",0,0,0,0,0,0,0,0,108,116,0,0,138,128,110.0,124,165,164.0,222.0,240,187,182.0,197.0
5969,13657,US,113939,41.845,-91.695, USA,City,IA,"Swisher, Iowa",0,0,0,0,0,0,0,0,0,0,0,0,0,0,0.0,93,205,271.0,417.0,654,645,813.0,879.0
6005,8252,US,112935,41.9113888889,-95.135, USA,City,IA,"Aspinwall, Iowa",0,0,0,0,0,0,0,0,0,0,0,0,0,125,107.0,88,107,95.0,81.0,65,52,58.0,40.0
6077,9073,US,112782,42.8447222222,-92.5347222222, USA,City,IA,"Plainfield, Iowa",0,0,0,0,0,0,0,0,0,293,0,320,288,303,293.0,362,387,445.0,446.0,469,455,438.0,436.0
6106,8353,US,113820,42.4336111111,-92.9280555556, USA,City,IA,"Wellsburg, Iowa",0,0,0,0,0,0,0,0,0,0,0,203,288,482,508.0,616,744,827.0,754.0,761,682,716.0,707.0
6141,8976,US,114168,41.3291666667,-95.6841666667, USA,City,IA,"McClelland, Iowa",0,0,0,0,0,0,0,0,0,0,0,0,134,142,161.0,165,159,150.0,146.0,177,139,129.0,151.0
6188,11260,US,112823,42.5305555556,-94.5347222222, USA,City,IA,"Manson, Iowa",0,0,0,0,0,0,0,0,0,377,822,1424,1236,1409,1382.0,1429,1622,1789.0,1993.0,1924,1844,1893.0,1690.0
6197,10583,US,112896,42.9186111111,-95.3413888889,Census,City,IA,"Peterson, Iowa",0,0,0,0,0,0,0,0,44,0,371,521,480,580,598.0,603,589,565.0,469.0,470,390,372.0,334.0
6219,8683,US,114188,40.7102777778,-94.05, USA,City,IA,"Kellerton, Iowa",0,0,0,0,0,0,0,0,0,169,277,458,503,693,540.0,563,483,341.0,299.0,278,314,372.0,315.0
6228,10126,US,114199,42.4972222222,-95.2941666667, USA,City,IA,"Schaller, Iowa",0,0,0,0,0,0,0,0,0,0,333,661,646,731,724.0,758,841,896.0,835.0,832,768,779.0,772.0
6278,9614,US,113901,42.0738888889,-90.8405555556, USA,City,IA,"Baldwin, Iowa",0,0,0,0,0,0,0,0,0,322,227,254,229,232,224.0,210,208,228.0,172.0,198,137,127.0,109.0
6295,9200,US,113858,41.6944444444,-95.8736111111, USA,City,IA,"Magnolia, Iowa",0,0,0,0,0,0,0,0,0,194,0,0,311,299,271.0,242,207,215.0,206.0,207,204,200.0,183.0
6367,9035,US,114279,41.1263888889,-94.0558333333, USA,City,IA,"Lorimor, Iowa",0,0,0,0,0,0,0,0,0,0,0,587,645,678,577.0,614,505,460.0,346.0,405,377,427.0,360.0
6458,9917,US,114017,43.3422222222,-96.3036111111, USA,City,IA,"Alvord, Iowa",0,0,0,0,0,0,0,0,0,0,0,249,283,359,313.0,306,263,238.0,204.0,246,204,187.0,196.0
6482,11522,US,112905,42.958516,-91.367555, USA,City,IA,"Farmersburg, Iowa",0,0,0,0,0,0,0,0,0,0,0,143,259,290,275.0,296,263,250.0,232.0,276,291,300.0,302.0
6514,13832,US,113893,42.4866666667,-95.5425,Census,City,IA,"Holstein, Iowa",0,0,0,0,0,0,0,0,0,0,539,870,936,1248,1300.0,1296,1336,1413.0,1445.0,1477,1449,1470.0,1396.0
6515,13268,US,96029,42.735,-95.1502777778,Census,US County,IA,"Buena Vista County, Iowa",0,0,0,0,0,0,0,57,1585,7537,13548,16975,15981,18556,18667.0,19838,21113,21189.0,20693.0,20774,19965,20411.0,20260.0
6559,7831,US,114191,40.605,-94.3883333333, USA,City,IA,"Redding, Iowa",0,0,0,0,0,0,0,0,0,85,214,311,269,289,272.0,246,200,129.0,111.0,91,119,78.0,82.0
6565,12474,US,113848,42.5166666667,-93.2666666667, USA,City,IA,"Iowa Falls, Iowa",0,0,0,0,0,0,0,0,0,955,1796,2840,2797,3954,4112.0,4425,4900,5565.0,6454.0,6174,5435,5193.0,5238.0
6576,12389,US,113971,43.3780555556,-94.0941666667, USA,City,IA,"Lakota, Iowa",0,0,0,0,0,0,0,0,0,0,0,384,436,472,409.0,457,443,459.0,385.0,330,281,255.0,255.0
6609,10203,US,113762,42.6027777778,-90.7822222222, USA,City,IA,"Sherrill, Iowa",0,0,0,0,0,0,0,0,0,0,0,0,0,0,0.0,82,162,174.0,190.0,208,148,186.0,177.0
6627,12162,US,96008,43.3758333333,-95.1497222222,Census,US County,IA,"Dickinson County, Iowa",0,0,0,0,0,0,0,180,1389,1901,4328,7995,8137,10241,10982.0,12185,12756,12574.0,12565.0,15629,14909,16424.0,16667.0
6630,10914,US,150402,40.8966666667,-95.6725, USA,City,IA,"Tabor, Iowa",0,0,0,0,0,0,0,0,310,320,503,934,909,1186,1017.0,976,869,909.0,957.0,1088,994,993.0,1040.0
6663,8865,US,113958,41.4594444444,-91.9875, USA,City,IA,"Kinross, Iowa",0,0,0,0,0,0,0,0,0,0,0,132,142,138,137.0,109,105,103.0,98.0,79,89,80.0,73.0
6680,10603,US,96041,41.6847222222,-94.9080555556,Census,US County,IA,"Audubon County, Iowa",0,0,0,0,0,0,0,454,1212,7448,12412,13626,12671,12520,12264.0,11790,11579,10919.0,9595.0,8559,7334,6830.0,6119.0
6834,10633,US,114018,43.2786111111,-96.2319444444, USA,City,IA,"Doon, Iowa",0,0,0,0,0,0,0,0,0,0,0,545,581,576,576.0,576,517,436.0,437.0,537,476,533.0,577.0
6841,9631,US,114300,41.4597222222,-93.4022222222, USA,City,IA,"Hartford, Iowa",0,0,0,0,0,0,0,0,0,267,0,0,0,218,207.0,207,221,271.0,582.0,761,768,759.0,771.0
6874,10238,US,150409,41.5152777778,-92.0783333333, USA,City,IA,"North English, Iowa",0,0,0,0,0,0,0,0,0,0,0,683,848,933,780.0,865,853,1004.0,965.0,990,944,991.0,1041.0
6928,30581,US,113982,40.4025,-91.3944444444,Census,City,IA,"Keokuk, Iowa",0,0,0,0,0,0,2478,8136,12766,12117,14101,14641,14008,14423,15106.0,15076,16144,16316.0,14631.0,13536,12451,11427.0,10780.0
6965,12709,US,96012,40.7413888889,-93.7808333333,Census,US County,IA,"Decatur County, Iowa",0,0,0,0,0,0,965,8677,12018,15336,15643,18115,16347,16566,14903.0,14012,12601,10539.0,9737.0,9794,8338,8689.0,8457.0
6976,8762,US,112945,42.0752777778,-95.1002777778, USA,City,IA,"Westside, Iowa",0,0,0,0,0,0,0,0,0,446,448,396,367,405,341.0,373,393,367.0,389.0,387,348,327.0,299.0
6987,19897,US,114198,42.4211111111,-94.995,Census,City,IA,"Sac City, Iowa",0,0,0,0,0,0,0,0,156,595,1249,2079,2201,2630,2854.0,3165,3170,3354.0,3268.0,3000,2492,2368.0,2220.0
6994,8552,US,114082,41.9847222222,-95.78, USA,City,IA,"Soldier, Iowa",0,0,0,0,0,0,0,0,0,0,0,0,167,281,302.0,208,323,284.0,242.0,257,205,207.0,174.0
7004,8280,US,113761,42.5527777778,-90.7122222222, USA,City,IA,"Sageville, Iowa",0,0,0,0,0,0,0,0,0,0,0,0,0,0,0.0,66,118,110.0,338.0,291,288,203.0,122.0
7035,9294,US,112977,40.8980555556,-93.7341666667, USA,City,IA,"Weldon, Iowa",0,0,0,0,0,0,0,0,0,0,0,0,308,323,298.0,250,229,202.0,155.0,187,151,145.0,125.0
7052,12178,US,113921,41.5980555556,-93.2366666667, USA,City,IA,"Prairie City, Iowa",0,0,0,0,0,0,0,0,0,591,684,808,764,780,793.0,831,834,943.0,1141.0,1278,1366,1365.0,1680.0
7075,14140,US,113894,42.3444444444,-95.4705555556, USA,City,IA,"Ida Grove, Iowa",0,0,0,0,0,0,0,0,30,759,1563,1967,1874,2020,2206.0,2238,2202,2265.0,2261.0,2285,2357,2350.0,2142.0
7109,30542,US,114101,41.5713888889,-91.2611111111, USA,City,IA,"West Liberty, Iowa",0,0,0,0,0,0,0,0,0,1141,1268,1690,1666,1834,1679.0,1802,1866,2042.0,2296.0,2723,2935,3332.0,3736.0
7122,12180,US,114267,40.6683333333,-94.7211111111, USA,City,IA,"Bedford, Iowa",0,0,0,0,0,0,0,0,720,1763,1643,1977,1883,2073,2100.0,2151,2000,1807.0,1733.0,1692,1528,1620.0,1440.0
7144,11587,US,112885,43.0597222222,-92.3147222222, USA,City,IA,"New Hampton, Iowa",0,0,0,0,0,0,0,0,455,1105,1314,2339,2275,2539,2458.0,2933,3323,3456.0,3621.0,3940,3660,3692.0,3571.0
7149,10336,US,95968,42.0472222222,-95.9686111111,Census,US County,IA,"Monona County, Iowa",0,0,0,0,0,0,0,832,3654,9055,14515,17980,16633,17125,18213.0,18238,16303,13916.0,12069.0,11692,10034,10020.0,9243.0
7164,39061,US,112989,40.8080555556,-91.1158333333,Census,City,IA,"Burlington, Iowa",0,0,0,0,0,0,4082,6706,14930,19450,22565,23201,24324,24057,26755.0,25832,30613,32430.0,32366.0,29529,27208,26839.0,25663.0
7188,10696,US,112760,41.8780555556,-91.835, USA,City,IA,"Walford, Iowa",0,0,0,0,0,0,0,0,0,0,0,0,0,0,0.0,0,0,264.0,286.0,285,303,1224.0,1463.0
7199,9386,US,113853,42.2447222222,-93.0641666667, USA,City,IA,"Union, Iowa",0,0,0,0,0,0,0,0,0,666,514,589,540,660,498.0,585,490,534.0,484.0,515,448,427.0,397.0
7237,11925,US,114233,42.9741666667,-96.3177777778, USA,City,IA,"Ireton, Iowa",0,0,0,0,0,0,0,0,0,0,412,545,631,730,612.0,653,573,510.0,582.0,588,597,585.0,609.0
7268,11137,US,95998,42.3819444444,-93.7108333333,Census,US County,IA,"Hamilton County, Iowa",0,0,0,0,0,0,0,1699,6055,11252,15319,19514,19242,19531,20978.0,19922,19660,20032.0,18383.0,17862,16071,16438.0,15673.0
7275,9313,US,114072,43.2269444444,-92.7744444444, USA,City,IA,"Orchard, Iowa",0,0,0,0,0,0,0,0,0,133,0,0,0,124,158.0,126,114,116.0,115.0,95,93,88.0,71.0
7276,9823,US,150403,42.2708333333,-93.9269444444, USA,City,IA,"Stratford, Iowa",0,0,0,0,0,0,0,0,0,0,0,458,554,694,699.0,712,673,703.0,710.0,806,715,746.0,743.0
7313,8506,US,113867,41.0575,-91.3908333333, USA,City,IA,"Mount Union, Iowa",0,0,0,0,0,0,0,0,0,44,0,0,195,225,167.0,186,167,176.0,173.0,145,140,132.0,107.0
7335,15788,US,114207,41.5961111111,-90.3563888889,Census,City,IA,"Le Claire, Iowa",0,0,0,0,0,0,0,1448,1093,1061,906,997,690,724,691.0,881,1124,1546.0,2520.0,2899,2734,2847.0,3765.0
7357,10334,US,112808,42.5825,-92.8825, USA,City,IA,"Aplington, Iowa",0,0,0,0,0,0,0,0,0,0,427,427,448,598,622.0,588,702,840.0,936.0,1027,1034,1054.0,1128.0
7380,8787,US,112739,40.7802777778,-92.7413888889, USA,City,IA,"Udell, Iowa",0,0,0,0,0,0,0,0,0,0,0,0,186,214,151.0,137,96,76.0,71.0,75,76,58.0,47.0
7393,32408,US,114334,42.5066666667,-94.1802777778,Census,City,IA,"Fort Dodge, Iowa",0,0,0,0,0,0,0,672,3095,3586,4871,12162,15543,19347,21895.0,22904,25115,28399.0,31263.0,29423,25894,25136.0,25206.0
7416,14746,US,112719,41.0502777778,-94.8252777778, USA,City,IA,"Carbon, Iowa",0,0,0,0,0,0,0,0,0,252,0,0,246,254,266.0,383,282,162.0,135.0,110,60,28.0,34.0
7440,9813,US,113947,41.9975,-91.14, USA,City,IA,"Olin, Iowa",0,0,0,0,0,0,0,0,0,362,519,692,659,718,632.0,707,626,703.0,710.0,735,663,716.0,698.0
7452,13694,US,114113,43.4030555556,-95.7463888889,Census,City,IA,"Sibley, Iowa",0,0,0,0,0,0,0,0,0,301,1090,1289,1330,1803,1870.0,2356,2559,2852.0,2749.0,3051,2815,2796.0,2798.0
7486,8755,US,114305,41.1827777778,-93.7294444444,Census,City,IA,"New Virginia, Iowa",0,0,0,0,0,0,0,0,0,0,0,0,396,424,404.0,410,342,381.0,452.0,512,433,469.0,489.0
7532,12310,US,95978,41.2180555556,-91.26,Census,US County,IA,"Louisa County, Iowa",0,0,0,0,0,0,4939,10370,12877,13142,11873,13516,12855,12179,11575.0,11384,11101,10290.0,10682.0,12055,11592,12183.0,11387.0
7635,10148,US,113875,43.4911111111,-92.3611111111,Census,City,IA,"Chester, Iowa",0,0,0,0,0,0,0,0,0,101,0,0,266,237,238.0,234,226,211.0,185.0,175,158,151.0,127.0
7641,8917,US,114150,42.66,-94.8988888889, USA,City,IA,"Varina, Iowa",0,0,0,0,0,0,0,0,0,0,0,0,183,235,184.0,220,144,162.0,140.0,122,102,90.0,71.0
7647,10560,US,112820,42.2686111111,-94.7358333333, USA,City,IA,"Lake City, Iowa",0,0,0,0,0,0,0,0,103,249,1160,2703,2043,2110,2012.0,2216,2308,2114.0,1910.0,2006,1841,1787.0,1727.0
7650,9625,US,114030,41.2083333333,-93.8455555556, USA,City,IA,"Truro, Iowa",0,0,0,0,0,0,0,0,0,0,0,0,310,332,361.0,353,354,338.0,359.0,407,391,427.0,485.0
7666,8532,US,113920,41.7172222222,-92.825, USA,City,IA,"Oakland Acres, Iowa",0,0,0,0,0,0,0,0,0,0,0,0,0,0,0.0,0,0,0.0,0.0,139,152,166.0,156.0
7750,12318,US,58370,41.6866666667,-92.5261111111,Census,US County,IA,"Poweshiek County, Iowa",0,0,0,0,0,0,615,5668,15581,18936,18394,19414,19589,19910,18727.0,18758,19344,19300.0,18803.0,19306,19033,18815.0,18914.0
7783,9416,US,114283,40.6436111111,-92.0672222222, USA,City,IA,"Cantril, Iowa",0,0,0,0,0,0,0,0,0,252,356,356,445,440,370.0,376,353,299.0,258.0,299,271,257.0,222.0
7787,10304,US,113865,40.8363888889,-91.7136111111, USA,City,IA,"Hillsboro, Iowa",0,0,0,0,0,0,0,0,0,154,0,0,0,318,281.0,280,253,218.0,252.0,208,169,205.0,180.0
7788,9083,US,113845,42.4183333333,-93.3758333333, USA,City,IA,"Buckeye, Iowa",0,0,0,0,0,0,0,0,0,0,0,0,87,91,86.0,80,67,40.0,41.0,84,55,110.0,108.0
7811,8974,US,112818,42.4791666667,-94.7180555556, USA,City,IA,"Jolley, Iowa",0,0,0,0,0,0,0,0,0,0,0,266,250,300,174.0,161,195,120.0,112.0,91,68,54.0,41.0
7821,8676,US,114169,41.4669444444,-95.5422222222, USA,City,IA,"Minden, Iowa",0,0,0,0,0,0,0,0,0,0,287,328,423,381,377.0,310,328,355.0,433.0,483,539,564.0,599.0
7873,9586,US,114096,41.3794444444,-91.3502777778, USA,City,IA,"Conesville, Iowa",0,0,0,0,0,0,0,0,0,0,0,0,347,307,254.0,302,252,248.0,295.0,301,334,424.0,432.0
7881,11252,US,112751,42.0008333333,-92.1986111111, USA,City,IA,"Keystone, Iowa",0,0,0,0,0,0,0,0,0,0,0,405,412,558,499.0,466,438,522.0,549.0,618,568,687.0,622.0
7913,9245,US,114008,41.3291666667,-91.2363888889, USA,City,IA,"Letts, Iowa",0,0,0,0,0,0,0,0,88,300,325,387,433,417,329.0,362,404,392.0,434.0,473,390,392.0,384.0
7949,15968,US,112964,40.7511111111,-92.4169444444, USA,City,IA,"Bloomfield, Iowa",0,0,0,0,0,0,287,0,1553,1531,1913,2105,2028,2064,2226.0,2732,2680,2771.0,2718.0,2849,2580,2601.0,2640.0
7951,12062,US,112776,41.8755555556,-93.82, USA,City,IA,"Madrid, Iowa",0,0,0,0,0,0,0,0,0,200,565,1021,1191,1783,2061.0,2074,1829,2286.0,2448.0,2281,2395,2264.0,2543.0
7962,24568,US,113883,42.7236111111,-94.2213888889, USA,City,IA,"Humboldt, Iowa",0,0,0,0,0,0,0,0,335,606,1075,1474,1809,2232,2251.0,2819,3219,4031.0,4665.0,4794,4438,4452.0,4690.0
7968,9924,US,113975,43.2366666667,-94.0419444444, USA,City,IA,"Titonka, Iowa",0,0,0,0,0,0,0,0,0,0,0,224,278,418,473.0,574,589,647.0,599.0,658,612,584.0,476.0
8001,9749,US,114239,41.898735,-93.529662, USA,City,IA,"Cambridge, Iowa",0,0,0,0,0,0,0,0,200,223,432,667,696,739,639.0,608,573,587.0,661.0,732,714,819.0,827.0
8038,16268,US,113759,42.4491666667,-90.8463888889,Census,City,IA,"Peosta, Iowa",0,0,0,0,0,0,0,0,0,0,0,0,0,0,0.0,45,60,50.0,57.0,120,128,651.0,1377.0
8069,12009,US,114094,40.9291666667,-94.9780555556, USA,City,IA,"Villisca, Iowa",0,0,0,0,0,0,0,0,457,1299,1744,2211,2039,2111,2032.0,2011,1838,1690.0,1402.0,1434,1332,1344.0,1252.0
8095,12642,US,114195,42.3069444444,-95.0475,Census,City,IA,"Lake View, Iowa",0,0,0,0,0,0,0,0,0,0,366,591,514,838,993.0,1082,1158,1165.0,1249.0,1291,1303,1278.0,1142.0
8099,13891,US,113008,42.297535,-91.012215, USA,City,IA,"Cascade, Iowa",0,0,0,0,0,0,0,0,0,762,955,1266,1268,1249,1221.0,1376,1299,1601.0,1744.0,1912,1812,1958.0,2159.0
8174,8313,US,113777,42.8622222222,-91.8869444444, USA,City,IA,"Randalia, Iowa",0,0,0,0,0,0,0,0,0,0,0,117,123,113,123.0,121,132,114.0,85.0,101,88,84.0,68.0
8192,10328,US,150413,41.3605555556,-93.7908333333, USA,City,IA,"Bevington, Iowa",0,0,0,0,0,0,0,0,0,0,0,0,0,71,50.0,35,48,55.0,54.0,60,67,58.0,63.0
8216,12218,US,114281,40.8786111111,-91.9466666667, USA,City,IA,"Birmingham, Iowa",0,0,0,0,0,0,231,0,626,515,545,622,572,539,507.0,498,643,441.0,452.0,410,386,423.0,448.0
8228,14220,US,96030,42.4719444444,-91.8391666667,Census,US County,IA,"Buchanan County, Iowa",0,0,0,0,0,0,517,7906,17034,18546,18997,21427,19748,19890,19550.0,20991,21927,22293.0,21746.0,22900,20844,21093.0,20958.0
8290,9551,US,114383,42.7402777778,-93.5511111111, USA,City,IA,"Rowan, Iowa",0,0,0,0,0,0,0,0,0,0,0,0,256,302,330.0,316,304,273.0,231.0,259,189,218.0,158.0
8308,10115,US,114298,41.4858333333,-93.7619444444, USA,City,IA,"Cumming, Iowa",0,0,0,0,0,0,0,0,0,0,0,0,0,0,149.0,139,131,148.0,189.0,151,132,162.0,351.0
8358,10003,US,95906,43.3788888889,-93.7319444444,Census,US County,IA,"Winnebago County, Iowa",0,0,0,0,0,0,0,168,1562,4917,7325,12725,11914,13489,13143.0,13972,13450,13099.0,12990.0,13010,12122,11723.0,10866.0
8369,10216,US,112995,43.4527777778,-95.3216666667, USA,City,IA,"Lake Park, Iowa",0,0,0,0,0,0,0,0,0,0,0,541,552,789,708.0,828,924,952.0,918.0,1123,996,1023.0,1105.0
8389,13546,US,95981,43.205,-94.2055555556,Census,US County,IA,"Kossuth County, Iowa",0,0,0,0,0,0,0,416,3351,6178,13120,22720,21971,25082,25452.0,26630,26241,25314.0,22937.0,21891,18591,17163.0,15543.0
8390,11873,US,95902,42.7330555556,-93.7355555556,Census,US County,IA,"Wright County, Iowa",0,0,0,0,0,0,0,0,2392,5062,12057,18227,17951,20348,20216.0,20038,19652,19447.0,17294.0,16319,14269,14334.0,13229.0
8395,11415,US,113815,42.3611111111,-92.7736111111, USA,City,IA,"Grundy Center, Iowa",0,0,0,0,0,0,0,0,0,950,1161,1322,1354,1749,1793.0,2012,2135,2403.0,2712.0,2880,2491,2596.0,2706.0
8429,14359,US,112957,41.84,-94.1, USA,City,IA,"Perry, Iowa",0,0,0,0,0,0,0,0,0,952,2880,3986,4630,5642,5881.0,5977,6174,6442.0,6906.0,7053,6652,7633.0,8122.0
8445,16935,US,112996,43.3269444444,-95.1508333333, USA,City,IA,"Milford, Iowa",0,0,0,0,0,0,0,0,0,235,0,485,575,908,1062.0,1202,1375,1476.0,1668.0,2076,2170,2474.0,2898.0
8456,9671,US,113877,43.2455555556,-92.4386111111, USA,City,IA,"Elma, Iowa",0,0,0,0,0,0,0,0,0,0,0,976,807,874,771.0,790,731,706.0,601.0,714,653,598.0,546.0
8469,12553,US,96026,42.0372222222,-94.8588888889,Census,US County,IA,"Carroll County, Iowa",0,0,0,0,0,0,0,281,2451,12351,18825,20319,20117,21549,22326.0,22770,23065,23431.0,22912.0,22951,21423,21421.0,20816.0
8505,8912,US,112906,42.7438888889,-91.2630555556, USA,City,IA,"Garber, Iowa",0,0,0,0,0,0,0,0,0,0,0,0,131,189,120.0,158,153,148.0,148.0,140,118,103.0,88.0
8542,11950,US,112884,42.9522222222,-92.5380555556, USA,City,IA,"Nashua, Iowa",0,0,0,0,0,0,0,0,817,1116,1240,1268,1102,1317,1363.0,1439,1609,1737.0,1712.0,1846,1476,1618.0,1663.0
8565,11626,US,95934,40.75,-91.9516666667,Census,US County,IA,"Van Buren County, Iowa",0,0,0,0,0,0,12270,17081,17672,17043,16253,17354,15020,14060,12603.0,12053,11007,9778.0,8643.0,8626,7676,7809.0,7570.0
8566,10524,US,112721,40.8833333333,-94.5583333333, USA,City,IA,"Lenox, Iowa",0,0,0,0,0,0,0,0,0,615,706,1014,1274,1197,1171.0,1220,1171,1178.0,1215.0,1338,1303,1401.0,1407.0
8577,8258,US,113952,41.4805555556,-92.3930555556, USA,City,IA,"Gibson, Iowa",0,0,0,0,0,0,0,0,0,0,0,0,0,0,0.0,0,0,77.0,80.0,75,63,92.0,61.0
8600,12020,US,112732,40.65,-92.84,Census,City,IA,"Exline, Iowa",0,0,0,0,0,0,0,0,0,34,0,0,660,755,437.0,481,342,223.0,224.0,217,187,191.0,160.0
8630,8617,US,113832,42.2375,-93.6025, USA,City,IA,"Randall, Iowa",0,0,0,0,0,0,0,0,0,0,0,0,0,0,0.0,0,202,201.0,179.0,171,161,148.0,173.0
8655,10679,US,95960,42.7344444444,-94.6775,Census,US County,IA,"Pocahontas County, Iowa",0,0,0,0,0,0,0,103,1446,3713,9553,15339,14808,15602,15687.0,16266,15496,14234.0,12729.0,11369,9525,8662.0,7310.0
8663,7530,US,113774,42.9380555556,-91.9511111111, USA,City,IA,"Hawkeye, Iowa",0,0,0,0,0,0,0,0,0,0,0,518,510,582,530.0,544,511,516.0,529.0,512,460,489.0,449.0
8675,11417,US,150416,42.0061111111,-92.7763888889, USA,City,IA,"Le Grand, Iowa",0,0,0,0,0,0,0,0,0,341,0,408,338,320,382.0,329,393,465.0,565.0,921,854,883.0,938.0
8707,9491,US,95989,42.3866666667,-95.5144444444,Census,US County,IA,"Ida County, Iowa",0,0,0,0,0,0,0,43,226,4382,10705,12327,11296,11689,11933.0,11047,10697,10269.0,9283.0,8908,8365,7837.0,7089.0
8850,11432,US,114342,43.4183333333,-93.5319444444, USA,City,IA,"Lake Mills, Iowa",0,0,0,0,0,0,0,0,0,414,604,1293,1214,1529,1474.0,1677,1560,1758.0,2124.0,2281,2143,2140.0,2100.0
8851,9339,US,114174,41.4811111111,-95.2211111111, USA,City,IA,"Walnut, Iowa",0,0,0,0,0,0,0,0,0,733,811,878,950,1072,935.0,902,888,777.0,870.0,897,857,778.0,785.0
8868,8624,US,113789,43.1286111111,-92.9036111111, USA,City,IA,"Rudd, Iowa",0,0,0,0,0,0,0,0,0,170,0,381,296,487,429.0,410,398,436.0,429.0,460,429,431.0,369.0
8896,8957,US,114189,40.675,-94.4130555556, USA,City,IA,"Maloy, Iowa",0,0,0,0,0,0,0,0,0,0,0,0,127,121,112.0,95,90,68.0,45.0,38,36,28.0,29.0
8911,8202,US,112865,43.2061111111,-93.0861111111, USA,City,IA,"Rock Falls, Iowa",0,0,0,0,0,0,0,0,221,221,122,124,87,85,109.0,153,139,156.0,150.0,196,155,170.0,155.0
8950,9975,US,114341,43.3863888889,-93.9483333333, USA,City,IA,"Buffalo Center, Iowa",0,0,0,0,0,0,0,0,0,0,0,875,753,894,768.0,911,1087,1140.0,1118.0,1233,1081,963.0,905.0
8982,9261,US,112842,41.4466666667,-94.7655555556, USA,City,IA,"Anita, Iowa",0,0,0,0,0,0,0,0,0,479,695,968,1118,1236,1106.0,1088,1112,1233.0,1101.0,1153,1068,1049.0,972.0
9022,9399,US,114090,41.1488888889,-95.1619444444, USA,City,IA,"Elliott, Iowa",0,0,0,0,0,0,0,0,0,177,317,516,528,586,556.0,548,482,459.0,423.0,493,399,402.0,350.0
9032,15063,US,113913,41.6758333333,-93.2444444444, USA,City,IA,"Colfax, Iowa",0,0,0,0,0,0,0,0,0,620,957,2053,2524,2504,2213.0,2222,2279,2331.0,2293.0,2234,2462,2223.0,2093.0
9043,13352,US,114183,40.8080555556,-94.0505555556,Census,City,IA,"Beaconsfield, Iowa",0,0,0,0,0,0,0,0,0,0,0,177,148,170,201.0,148,104,71.0,48.0,39,27,11.0,15.0
9054,9054,US,113938,41.8066666667,-91.4958333333, USA,City,IA,"Solon, Iowa",0,0,0,0,0,0,0,0,0,383,353,397,450,471,493.0,515,527,604.0,837.0,969,1050,1177.0,2037.0
9170,10227,US,112768,42.3136111111,-92.1883333333, USA,City,IA,"La Porte City, Iowa",0,0,0,0,0,0,0,0,0,1006,1052,1419,1233,1443,1470.0,1594,1770,1953.0,2256.0,2324,2128,2275.0,2285.0
9222,12289,US,95999,41.6833333333,-94.5,Census,US County,IA,"Guthrie County, Iowa",0,0,0,0,0,0,0,3058,7061,14394,17380,18729,17374,17596,17324.0,17210,15197,13607.0,12243.0,11983,10935,11353.0,10954.0
9269,20655,US,114092,41.0116666667,-95.2272222222,Census,City,IA,"Red Oak, Iowa",0,0,0,0,0,0,0,0,1315,3755,3321,4355,4830,5578,5778.0,5763,6526,6421.0,6210.0,6810,6264,6197.0,5742.0
9319,15932,US,20805644,41.8227777778,-90.5427777778,Census,City,IA,"DeWitt, Iowa",0,0,0,0,0,0,0,0,1749,1608,1359,1383,1654,1849,2041.0,2205,2644,3224.0,3647.0,4512,4514,5049.0,5322.0
9325,10801,US,112887,43.2155555556,-92.0927777778, USA,City,IA,"Protivin, Iowa",0,0,0,0,0,0,0,0,0,0,0,136,163,201,277.0,290,283,302.0,333.0,368,305,317.0,283.0
9347,9559,US,112850,41.7408333333,-90.9744444444, USA,City,IA,"Bennett, Iowa",0,0,0,0,0,0,0,0,0,0,0,238,243,362,305.0,352,357,374.0,385.0,458,395,395.0,405.0
9375,9260,US,114093,40.9811111111,-95.1022222222, USA,City,IA,"Stanton, Iowa",0,0,0,0,0,0,0,0,0,247,399,404,653,749,607.0,571,570,514.0,574.0,747,692,714.0,689.0
9389,10145,US,114155,41.7927777778,-93.525, USA,City,IA,"Elkhart, Iowa",0,0,0,0,0,0,0,0,0,0,0,0,132,196,218.0,215,222,260.0,269.0,256,388,362.0,683.0
9453,11297,US,95994,41.6822222222,-95.8241666667,Census,US County,IA,"Harrison County, Iowa",0,0,0,0,0,0,0,3621,8931,16649,21356,25597,23162,24488,24897.0,22767,19560,17600.0,16240.0,16348,14730,15666.0,14928.0
9461,12287,US,96015,42.0372222222,-95.3786111111,Census,US County,IA,"Crawford County, Iowa",0,0,0,0,0,0,0,383,2530,12413,18894,21685,20041,20614,21028.0,20538,19741,18569.0,19116.0,18935,16775,16942.0,17096.0
9462,9842,US,114373,43.3633333333,-93.4558333333, USA,City,IA,"Joice, Iowa",0,0,0,0,0,0,0,0,0,0,0,0,0,233,225.0,263,244,231.0,201.0,223,245,231.0,222.0
9468,9956,US,112812,42.7494444444,-92.9722222222, USA,City,IA,"Dumont, Iowa",0,0,0,0,0,0,0,0,0,0,0,433,550,609,698.0,762,718,719.0,724.0,815,705,676.0,637.0
9518,15113,US,96016,42.8436111111,-91.3433333333,Census,US County,IA,"Clayton County, Iowa",0,0,0,0,0,0,3873,20728,27771,28829,26733,27750,25576,25032,24559.0,24334,22522,21962.0,20606.0,21098,19054,18678.0,18129.0
9530,12303,US,114176,41.5802777778,-92.3741666667, USA,City,IA,"Deep River, Iowa",0,0,0,0,0,0,0,0,0,0,291,403,467,487,392.0,443,379,329.0,323.0,323,345,288.0,279.0
9536,13074,US,112960,41.5313888889,-93.9552777778, USA,City,IA,"Van Meter, Iowa",0,0,0,0,0,0,0,0,0,376,467,407,386,358,400.0,436,364,385.0,464.0,747,751,866.0,1016.0
9538,8723,US,113782,42.7683333333,-91.9952777778, USA,City,IA,"Westgate, Iowa",0,0,0,0,0,0,0,0,0,0,0,260,232,255,268.0,247,226,214.0,204.0,263,207,234.0,211.0
9550,8402,US,113999,42.2377777778,-91.4244444444, USA,City,IA,"Prairieburg, Iowa",0,0,0,0,0,0,0,0,116,154,0,0,187,176,163.0,193,210,226.0,182.0,197,213,175.0,178.0
9581,9593,US,114254,42.0788888889,-92.4033333333, USA,City,IA,"Clutier, Iowa",0,0,0,0,0,0,0,0,0,0,0,0,186,299,350.0,354,302,292.0,275.0,249,219,229.0,213.0
9623,28394,US,113979,40.6286111111,-91.3388888889,Census,City,IA,"Fort Madison, Iowa",0,0,0,0,0,0,1509,2886,4011,4679,7901,9278,8900,12066,13779.0,14063,14954,15247.0,13996.0,13520,11618,10715.0,11051.0
9661,9532,US,112993,40.8202777778,-91.1644444444, USA,City,IA,"West Burlington, Iowa",0,0,0,0,0,0,0,0,0,0,836,1044,1206,1212,1333.0,1323,1614,2560.0,3139.0,3371,3083,3161.0,2968.0
9663,8958,US,114167,41.1919444444,-95.425, USA,City,IA,"Macedonia, Iowa",0,0,0,0,0,0,0,0,0,0,0,295,357,352,314.0,329,298,290.0,330.0,279,262,325.0,246.0
9669,8384,US,114034,41.2894444444,-92.5363888889, USA,City,IA,"Keomah Village, Iowa",0,0,0,0,0,0,0,0,0,0,0,0,0,0,0.0,0,0,0.0,0.0,99,99,97.0,84.0
9678,11900,US,114074,43.3788888889,-92.9194444444, USA,City,IA,"St. Ansgar, Iowa",0,0,0,0,0,0,0,0,360,552,609,698,747,844,964.0,934,981,1014.0,994.0,1100,1063,1031.0,1107.0
9696,8668,US,63580,41.8883333333,-95.2327777778, USA,City,IA,"Manilla, Iowa",0,0,0,0,0,0,0,0,0,0,526,773,875,1142,1032.0,1040,1035,939.0,943.0,1020,898,839.0,776.0
9750,9147,US,112931,41.9033333333,-90.8630555556, USA,City,IA,"Toronto, Iowa",0,0,0,0,0,0,0,0,0,0,0,0,106,139,113.0,142,165,144.0,145.0,172,132,134.0,124.0
9762,9008,US,114142,42.7558333333,-96.6041666667, USA,City,IA,"Westfield, Iowa",0,0,0,0,0,0,0,0,0,0,0,0,143,203,218.0,197,172,187.0,148.0,199,160,189.0,132.0
9773,7767,US,112849,41.4022222222,-94.8875, USA,City,IA,"Wiota, Iowa",0,0,0,0,0,0,0,0,0,110,168,218,239,199,225.0,246,227,195.0,171.0,181,160,149.0,116.0
9783,10290,US,114360,42.2361111111,-95.7216666667, USA,City,IA,"Danbury, Iowa",0,0,0,0,0,0,0,0,0,69,423,480,558,677,656.0,728,601,510.0,527.0,492,430,384.0,348.0
9828,17192,US,24429959,42.0191666667,-93.4516666667,Census,City,IA,"Nevada, Iowa",0,0,0,0,0,0,0,350,982,1541,1662,2472,2138,2668,3133.0,3353,3763,4227.0,4952.0,5912,6009,6658.0,6798.0
9836,13990,US,95986,41.6880555556,-93.0613888889,Census,US County,IA,"Jasper County, Iowa",0,0,0,0,0,0,1280,9883,22116,25963,24943,26976,27034,27855,32936.0,31496,32305,35282.0,35425.0,36425,34795,37213.0,36842.0
9919,8906,US,114070,43.4366666667,-92.5958333333, USA,City,IA,"McIntire, Iowa",0,0,0,0,0,0,0,0,0,0,0,427,487,514,268.0,300,300,270.0,234.0,197,147,173.0,122.0
9975,8543,US,114023,43.4425,-95.8838888889, USA,City,IA,"Little Rock, Iowa",0,0,0,0,0,0,0,0,0,0,0,399,471,573,585.0,633,533,564.0,531.0,490,493,489.0,459.0
10006,9271,US,112769,42.4683333333,-92.2211111111, USA,City,IA,"Raymond, Iowa",0,0,0,0,0,0,0,0,0,122,0,0,0,0,0.0,0,0,378.0,582.0,655,619,537.0,788.0
10022,18069,US,113004,42.5155555556,-90.7633333333, USA,City,IA,"Asbury, Iowa",0,0,0,0,0,0,0,0,0,0,0,0,0,0,0.0,27,52,71.0,410.0,2017,2013,2450.0,4170.0
10034,9406,US,114006,41.285,-91.3380555556, USA,City,IA,"Fredonia, Iowa",0,0,0,0,0,0,0,0,0,0,0,0,0,0,165.0,147,133,147.0,168.0,224,201,251.0,244.0
10036,12307,US,114382,42.7347222222,-93.9202777778, USA,City,IA,"Goldfield, Iowa",0,0,0,0,0,0,0,0,0,99,343,628,618,749,700.0,715,665,682.0,722.0,789,710,680.0,635.0
10042,8203,US,112867,42.9780555556,-93.3155555556, USA,City,IA,"Swaledale, Iowa",0,0,0,0,0,0,0,0,0,0,0,240,235,200,178.0,204,205,217.0,222.0,186,190,174.0,165.0
10127,9692,US,114003,41.2583333333,-91.3758333333, USA,City,IA,"Columbus City, Iowa",0,0,0,0,0,0,0,0,0,605,459,388,375,346,263.0,326,350,327.0,312.0,367,328,376.0,391.0
10145,12755,US,114258,42.0947222222,-92.6766666667, USA,City,IA,"Garwin, Iowa",0,0,0,0,0,0,0,0,0,99,0,470,425,587,450.0,517,518,546.0,563.0,626,533,565.0,527.0
10151,8801,US,114013,40.9308333333,-93.4569444444, USA,City,IA,"Derby, Iowa",0,0,0,0,0,0,0,0,0,174,0,0,326,334,280.0,269,194,151.0,161.0,171,135,131.0,115.0
10152,11626,US,96002,40.7438888889,-95.6086111111,Census,US County,IA,"Fremont County, Iowa",0,0,0,0,0,0,1244,5074,11174,17652,16842,18546,15623,15447,15533.0,14645,12323,10282.0,9282.0,9401,8226,8010.0,7441.0
10161,8715,US,112758,42.0088888889,-92.0888888889, USA,City,IA,"Van Horne, Iowa",0,0,0,0,0,0,0,0,0,0,501,484,444,524,527.0,551,511,554.0,613.0,682,695,716.0,682.0
10200,8509,US,114225,41.7194444444,-95.3944444444, USA,City,IA,"Westphalia, Iowa",0,0,0,0,0,0,0,0,0,55,0,0,0,115,118.0,126,160,131.0,121.0,169,144,160.0,127.0
10203,13491,US,95909,,,Census,US County,IA,"Washington County, Iowa",0,0,0,0,0,0,4957,14235,18952,20374,18468,20718,19925,20421,19822.0,20055,19557,19406.0,18967.0,20141,19612,20670.0,21704.0
10254,10033,US,112824,42.5483333333,-94.6836111111, USA,City,IA,"Pomeroy, Iowa",0,0,0,0,0,0,0,0,0,185,481,910,815,874,826.0,843,868,816.0,765.0,895,762,710.0,662.0
10307,9949,US,114262,41.9661111111,-92.575, USA,City,IA,"Tama, Iowa",0,0,0,0,0,0,0,0,1161,1289,1741,2649,2290,2601,2626.0,2832,2930,2925.0,3000.0,2968,2697,2731.0,2877.0
10314,13312,US,114314,41.4869444444,-91.7052777778, USA,City,IA,"Kalona, Iowa",0,0,0,0,0,0,0,0,0,0,211,530,466,632,704.0,765,947,1235.0,1488.0,1862,1942,2293.0,2363.0
10319,9090,US,114051,41.9375,-92.865, USA,City,IA,"Ferguson, Iowa",0,0,0,0,0,0,0,0,0,0,0,0,127,207,175.0,183,178,186.0,203.0,173,166,126.0,126.0
10320,10702,US,114215,41.5355555556,-90.4672222222,Census,City,IA,"Riverdale, Iowa",0,0,0,0,0,0,0,0,0,0,0,0,0,0,0.0,0,0,477.0,684.0,462,433,656.0,405.0
10411,18324,US,114152,41.65,-93.4725,Census,City,IA,"Altoona, Iowa",0,0,0,0,0,0,0,0,0,400,326,328,438,502,514.0,640,763,1458.0,2883.0,5764,7242,10345.0,14541.0
10414,9804,US,112983,42.4819444444,-91.2705555556, USA,City,IA,"Earlville, Iowa",0,0,0,0,0,0,0,0,0,4500,569,618,552,619,615.0,687,661,668.0,751.0,844,822,900.0,812.0
10425,15098,US,112994,43.3655555556,-95.1297222222,Census,City,IA,"Arnolds Park, Iowa",0,0,0,0,0,0,0,0,0,0,0,251,273,478,597.0,855,1078,953.0,970.0,1051,953,1162.0,1126.0
10429,10518,US,114240,41.9025,-93.3069444444, USA,City,IA,"Collins, Iowa",0,0,0,0,0,0,0,0,0,0,0,540,521,570,489.0,516,432,435.0,404.0,451,455,499.0,495.0
10441,8784,US,112799,42.6197222222,-95.1741666667, USA,City,IA,"Lakeside, Iowa",0,0,0,0,0,0,0,0,0,0,0,0,0,0,0.0,103,219,306.0,353.0,589,522,484.0,596.0
10454,8899,US,112837,42.125,-94.7830555556, USA,City,IA,"Lidderdale, Iowa",0,0,0,0,0,0,0,0,0,0,0,0,114,163,211.0,208,180,201.0,173.0,197,202,186.0,180.0
10494,10514,US,112923,41.9611111111,-90.4697222222, USA,City,IA,"Charlotte, Iowa",0,0,0,0,0,0,0,0,0,294,0,0,356,464,407.0,393,427,417.0,444.0,442,359,421.0,394.0
10537,8977,US,112877,42.5758333333,-95.7180555556,Census,City,IA,"Washta, Iowa",0,0,0,0,0,0,0,0,0,0,0,431,410,508,448.0,442,403,310.0,319.0,320,284,282.0,248.0
10606,8636,US,114260,42.2625,-92.6919444444, USA,City,IA,"Lincoln, Iowa",0,0,0,0,0,0,0,0,0,0,0,0,0,146,162.0,167,194,183.0,184.0,202,173,182.0,162.0
10644,10267,US,112811,42.7827777778,-92.6697222222, USA,City,IA,"Clarksville, Iowa",0,0,0,0,0,0,0,0,0,818,735,849,895,1003,1143.0,1240,1210,1328.0,1360.0,1424,1382,1441.0,1439.0
10663,11517,US,112789,42.6394444444,-92.0477777778, USA,City,IA,"Fairbank, Iowa",0,0,0,0,0,0,0,0,0,223,448,644,618,657,629.0,631,653,650.0,810.0,980,1018,1041.0,1113.0
10675,17587,US,114086,41.0266666667,-92.8052777778, USA,City,IA,"Albia, Iowa",0,0,0,0,0,0,0,620,1621,2435,2359,2889,4969,5067,4425.0,5157,4838,4582.0,4151.0,4184,3870,3706.0,3766.0
10678,8459,US,113006,42.5091666667,-90.96, USA,City,IA,"Bankston, Iowa",0,0,0,0,0,0,0,0,0,0,0,0,0,0,0.0,29,40,36.0,28.0,40,35,27.0,25.0
10735,9366,US,114368,42.2330555556,-96.2244444444, USA,City,IA,"Sloan, Iowa",0,0,0,0,0,0,0,0,0,0,449,643,547,608,636.0,628,654,704.0,799.0,978,938,1032.0,973.0
10776,12097,US,114145,42.8472222222,-94.8494444444, USA,City,IA,"Laurens, Iowa",0,0,0,0,0,0,0,0,0,0,318,853,817,914,1071.0,1304,1556,1799.0,1792.0,1606,1550,1476.0,1258.0
10787,9711,US,112773,42.175,-94.1055555556, USA,City,IA,"Boxholm, Iowa",0,0,0,0,0,0,0,0,0,0,0,0,0,296,280.0,285,304,250.0,242.0,267,214,215.0,195.0
10794,11428,US,95993,40.9866666667,-91.5419444444,Census,US County,IA,"Henry County, Iowa",0,0,0,0,0,0,8707,18701,21463,20986,18895,20022,18640,18298,17660.0,17994,18708,18187.0,18114.0,18890,19226,20336.0,20145.0
10837,18625,US,112843,41.4013888889,-95.0108333333,Census,City,IA,"Atlantic, Iowa",0,0,0,0,0,0,0,0,1200,3662,4351,5046,4560,5329,5585.0,5802,6480,6890.0,7306.0,7789,7432,7257.0,7112.0
10847,8997,US,114112,43.4144444444,-95.5352777778,Census,City,IA,"Ocheyedan, Iowa",0,0,0,0,0,0,0,0,0,0,0,599,595,686,627.0,712,700,662.0,545.0,599,539,536.0,490.0
10935,12916,US,113983,40.5294444444,-91.4161111111, USA,City,IA,"Montrose, Iowa",0,0,0,0,0,0,454,0,905,983,778,748,708,549,621.0,592,643,632.0,735.0,1038,957,957.0,898.0
10941,13889,US,96010,40.9277777778,-91.1838888889,Census,US County,IA,"Des Moines County, Iowa",0,0,0,0,0,0,12988,19611,27256,33099,35324,35989,36145,35520,38162.0,36804,42056,44605.0,46982.0,46203,42614,42351.0,40325.0
11025,7711,US,114234,43.2430555556,-95.9344444444, USA,City,IA,"Matlock, Iowa",0,0,0,0,0,0,0,0,0,0,0,94,118,94,103.0,112,104,103.0,89.0,109,92,83.0,87.0
11028,10055,US,113976,43.0875,-93.9930555556, USA,City,IA,"Wesley, Iowa",0,0,0,0,0,0,0,0,0,0,440,730,457,444,462.0,468,509,514.0,548.0,598,444,467.0,390.0
11048,8600,US,112835,42.0063888889,-94.9716666667, USA,City,IA,"Halbur, Iowa",0,0,0,0,0,0,0,0,0,0,0,0,147,186,192.0,209,235,214.0,235.0,229,215,202.0,246.0
11082,9501,US,112774,42.1244444444,-93.9691666667, USA,City,IA,"Fraser, Iowa",0,0,0,0,0,0,0,0,0,0,0,0,537,391,309.0,263,219,134.0,143.0,139,120,137.0,102.0
11112,8951,US,112901,42.9030555556,-91.1480555556, USA,City,IA,"Clayton, Iowa",0,0,0,0,0,0,0,0,0,383,0,0,145,170,162.0,161,136,130.0,113.0,68,41,55.0,43.0
11140,8572,US,113816,42.3997222222,-92.7994444444, USA,City,IA,"Holland, Iowa",0,0,0,0,0,0,0,0,0,252,0,175,168,165,175.0,202,221,264.0,258.0,278,215,250.0,282.0
11172,9834,US,112715,41.29,-94.5622222222, USA,City,IA,"Fontanelle, Iowa",0,0,0,0,0,0,0,0,0,563,830,853,789,869,833.0,797,812,729.0,752.0,805,712,692.0,672.0
11177,15750,US,113997,41.9241666667,-91.4197222222, USA,City,IA,"Mount Vernon, Iowa",0,0,0,0,0,0,0,0,910,977,1259,1629,1532,1466,1441.0,1489,2320,2593.0,3018.0,3325,3657,3390.0,4506.0
11229,10874,US,113763,42.3966666667,-91.1194444444, USA,City,IA,"Worthington, Iowa",0,0,0,0,0,0,0,0,0,169,0,288,314,341,335.0,326,337,360.0,365.0,432,439,381.0,401.0
11296,9393,US,114069,43.4155555556,-93.0172222222, USA,City,IA,"Carpenter, Iowa",0,0,0,0,0,0,0,0,0,0,0,0,121,144,110.0,156,165,177.0,122.0,109,102,130.0,109.0
11298,19320,US,112899,43.1452777778,-95.1472222222,Census,City,IA,"Spencer, Iowa",0,0,0,0,0,0,0,0,0,824,1813,3095,3005,4599,5019.0,6599,7446,8864.0,10278.0,11726,11066,11317.0,11233.0
11300,10279,US,112829,42.0869444444,-95.0455555556, USA,City,IA,"Arcadia, Iowa",0,0,0,0,0,0,0,0,0,426,463,405,390,375,391.0,410,425,437.0,414.0,454,485,443.0,484.0
11307,7712,US,113954,41.2644444444,-92.2488888889, USA,City,IA,"Hayesville, Iowa",0,0,0,0,0,0,0,0,0,0,0,0,0,124,133.0,120,137,122.0,93.0,93,62,64.0,50.0
11335,11291,US,114124,43.0386111111,-94.8347222222, USA,City,IA,"Ayrshire, Iowa",0,0,0,0,0,0,0,0,0,0,0,329,337,361,343.0,391,334,298.0,243.0,243,195,202.0,143.0
11387,10252,US,112809,42.835,-93.0047222222, USA,City,IA,"Aredale, Iowa",0,0,0,0,0,0,0,0,0,0,99,134,161,175,204.0,225,204,153.0,126.0,88,88,89.0,74.0
11389,70198,US,113988,41.9830555556,-91.6686111111, USA,City,IA,"Cedar Rapids, Iowa",0,0,0,0,0,0,0,1830,5940,10104,18020,25656,32811,45566,56097.0,62120,72296,92035.0,110642.0,110243,108772,120758.0,126326.0
11396,9184,US,112930,41.8013888889,-90.3561111111, USA,City,IA,"Low Moor, Iowa",0,0,0,0,0,0,0,0,0,168,0,318,253,277,271.0,252,279,343.0,347.0,346,280,240.0,288.0
11446,10145,US,112894,43.0144444444,-95.0366666667,Census,City,IA,"Gillett Grove, Iowa",0,0,0,0,0,0,0,0,0,0,0,0,0,0,0.0,0,0,0.0,0.0,93,67,55.0,49.0
11455,11581,US,114080,42.0275,-96.0963888889, USA,City,IA,"Onawa, Iowa",0,0,0,0,0,0,0,0,478,882,1358,1933,2026,2256,2538.0,3438,3498,3176.0,3154.0,3283,2936,3091.0,2998.0
11471,11219,US,112777,42.04,-94.0305555556, USA,City,IA,"Ogden, Iowa",0,0,0,0,0,0,0,0,0,568,689,993,1298,1451,1429.0,1513,1486,1525.0,1661.0,1953,1909,2023.0,2044.0
11484,12280,US,112985,42.3438888889,-91.2486111111,Census,City,IA,"Hopkinton, Iowa",0,0,0,0,0,0,0,0,0,645,668,767,797,759,758.0,841,731,768.0,800.0,774,695,681.0,628.0
11487,12181,US,114119,40.8330555556,-95.3052777778,Census,City,IA,"Essex, Iowa",0,0,0,0,0,0,0,0,0,617,564,710,776,727,806.0,762,763,767.0,770.0,1001,916,884.0,798.0
11498,11579,US,95996,43.0833333333,-93.7363888889,Census,US County,IA,"Hancock County, Iowa",0,0,0,0,0,0,0,179,999,3453,7621,13752,12731,14723,14802.0,15402,15077,14604.0,13506.0,13833,12638,12100.0,11341.0
11512,9237,US,114062,41.0186111111,-95.4019444444, USA,City,IA,"Emerson, Iowa",0,0,0,0,0,0,0,0,0,456,404,502,478,475,512.0,498,556,521.0,484.0,502,476,480.0,438.0
11528,11725,US,112731,40.6302777778,-92.9236111111,Census,City,IA,"Cincinnati, Iowa",0,0,0,0,0,0,0,0,0,189,432,1212,1355,1301,911.0,859,703,583.0,570.0,598,363,428.0,357.0
11572,9669,US,113864,41.7375,-95.7055555556, USA,City,IA,"Woodbine, Iowa",0,0,0,0,0,0,0,0,0,330,815,1255,1538,1463,1348.0,1467,1304,1304.0,1349.0,1463,1500,1564.0,1459.0
11588,9088,US,114273,41.0280555556,-94.1969444444, USA,City,IA,"Afton, Iowa",0,0,0,0,0,0,0,0,961,1231,1045,1178,1014,926,1013.0,987,936,773.0,823.0,985,953,917.0,845.0
11609,11045,US,114114,40.5797222222,-95.2208333333, USA,City,IA,"Blanchard, Iowa",0,0,0,0,0,0,0,0,0,321,432,520,408,429,347.0,259,214,174.0,139.0,101,67,61.0,38.0
11687,9005,US,112937,42.0677777778,-95.5894444444, USA,City,IA,"Charter Oak, Iowa",0,0,0,0,0,0,0,0,0,0,567,772,734,750,688.0,776,710,665.0,715.0,615,497,530.0,502.0
11752,10944,US,112999,43.4230555556,-95.1041666667, USA,City,IA,"Spirit Lake, Iowa",0,0,0,0,0,0,0,0,76,277,782,1219,1162,1701,1778.0,2161,2467,2685.0,3014.0,3976,3872,4261.0,4840.0
11756,8103,US,113757,42.6047222222,-91.0766666667, USA,City,IA,"Luxemburg, Iowa",0,0,0,0,0,0,0,0,0,0,0,0,0,93,105.0,124,120,159.0,185.0,271,257,246.0,240.0
11796,9388,US,114172,41.2311111111,-95.6066666667, USA,City,IA,"Treynor, Iowa",0,0,0,0,0,0,0,0,0,0,0,0,122,204,232.0,219,247,368.0,472.0,981,897,950.0,919.0
11802,9715,US,114117,40.6569444444,-95.2341666667, USA,City,IA,"Coin, Iowa",0,0,0,0,0,0,0,0,0,772,0,574,591,603,536.0,457,407,346.0,294.0,316,278,252.0,193.0
11834,9360,US,114005,41.2922222222,-91.4672222222, USA,City,IA,"Cotter, Iowa",0,0,0,0,0,0,0,0,0,0,0,0,0,100,118.0,72,49,52.0,55.0,60,53,48.0,48.0
11839,9467,US,112965,40.7991666667,-92.4811111111, USA,City,IA,"Drakesville, Iowa",0,0,0,0,0,0,198,0,207,300,303,238,249,261,190.0,252,222,197.0,163.0,212,172,185.0,184.0
11915,13614,US,113986,42.1491666667,-91.6197222222, USA,City,IA,"Alburnett, Iowa",0,0,0,0,0,0,0,0,0,0,0,0,0,201,199.0,208,254,341.0,418.0,411,459,559.0,673.0
11916,8935,US,114344,43.4833333333,-93.9194444444, USA,City,IA,"Rake, Iowa",0,0,0,0,0,0,0,0,0,0,0,0,163,254,310.0,329,351,328.0,324.0,283,238,227.0,225.0
11997,11666,US,114268,40.615851,-94.476654, USA,City,IA,"Blockton, Iowa",0,0,0,0,0,0,0,0,0,0,0,704,648,524,537.0,488,407,343.0,273.0,280,213,192.0,192.0
11998,11247,US,96006,43.3772222222,-94.6775,Census,US County,IA,"Emmet County, Iowa",0,0,0,0,0,0,0,105,1392,1550,4274,9936,9816,12627,12856.0,13406,14102,14871.0,14009.0,13336,11569,11027.0,10302.0
11999,11653,US,113891,42.3169444444,-95.5994444444, USA,City,IA,"Battle Creek, Iowa",0,0,0,0,0,0,0,0,0,205,387,542,527,785,804.0,827,873,786.0,837.0,919,818,743.0,713.0
12004,10260,US,112891,43.1308333333,-95.0205555556,Census,City,IA,"Dickens, Iowa",0,0,0,0,0,0,0,0,0,0,0,0,255,337,333.0,378,311,241.0,240.0,289,214,202.0,185.0
12085,9348,US,114085,42.1255555556,-96.1519444444, USA,City,IA,"Whiting, Iowa",0,0,0,0,0,0,0,0,0,56,437,572,576,625,627.0,688,663,595.0,590.0,734,683,707.0,762.0
12125,8607,US,114354,43.2977777778,-91.9891666667, USA,City,IA,"Ridgeway, Iowa",0,0,0,0,0,0,0,0,0,0,0,371,354,349,348.0,323,307,267.0,218.0,308,295,293.0,315.0
12128,11603,US,96013,40.7444444444,-92.4133333333,Census,US County,IA,"Davis County, Iowa",0,0,0,0,0,0,7264,13764,15565,16468,15258,15620,13315,12574,11150.0,11136,9959,9199.0,8207.0,9104,8312,8541.0,8753.0
12132,8494,US,113828,42.4794444444,-93.6416666667, USA,City,IA,"Blairsburg, Iowa",0,0,0,0,0,0,0,0,0,44,0,0,241,272,274.0,276,257,287.0,287.0,288,269,235.0,215.0
12151,11696,US,112750,42.1436111111,-92.1430555556, USA,City,IA,"Garrison, Iowa",0,0,0,0,0,0,0,0,0,255,367,482,438,437,432.0,459,457,421.0,383.0,411,320,413.0,371.0
12154,8945,US,113804,40.8202777778,-95.7511111111, USA,City,IA,"Thurman, Iowa",0,0,0,0,0,0,0,0,0,378,395,409,336,341,388.0,325,284,268.0,230.0,221,239,236.0,229.0
12173,19903,US,114238,43.0766666667,-96.1733333333, USA,City,IA,"Sioux Center, Iowa",0,0,0,0,0,0,0,0,0,0,0,810,1064,1389,1497.0,1680,1860,2275.0,3450.0,4588,5074,6002.0,7048.0
12186,7906,US,113944,42.0205555556,-91.3583333333, USA,City,IA,"Martelle, Iowa",0,0,0,0,0,0,0,0,0,96,0,158,178,156,185.0,215,228,247.0,341.0,316,290,280.0,255.0
12188,9155,US,112790,42.6183333333,-91.9066666667, USA,City,IA,"Hazleton, Iowa",0,0,0,0,0,0,0,0,0,210,0,500,444,517,499.0,536,550,665.0,626.0,877,733,950.0,823.0
12201,7520,US,113873,40.9641666667,-91.6283333333, USA,City,IA,"Westwood, Iowa",0,0,0,0,0,0,0,0,0,0,0,0,0,0,0.0,0,0,0.0,0.0,0,104,127.0,112.0
12263,10039,US,112749,41.9069444444,-92.0833333333, USA,None,IA,"Blairstown, Iowa",0,0,0,0,0,0,0,0,682,652,583,592,532,540,488.0,525,523,583.0,612.0,695,672,682.0,692.0
12268,9938,US,113990,42.2044444444,-91.525, USA,City,IA,"Central City, Iowa",0,0,0,0,0,0,0,0,0,0,467,623,558,688,780.0,810,965,1087.0,1116.0,1067,1063,1157.0,1257.0
12293,8707,US,114060,42.1241666667,-93.1966666667, USA,City,IA,"St. Anthony, Iowa",0,0,0,0,0,0,0,0,0,0,0,174,199,203,202.0,211,175,130.0,156.0,140,112,109.0,102.0
12295,20118,US,113902,42.2591666667,-90.4263888889, USA,City,IA,"Bellevue, Iowa",0,0,0,0,0,0,362,929,1353,1581,1394,1607,1776,1663,1717.0,1771,1932,2181.0,2336.0,2450,2239,2350.0,2191.0
12301,11245,US,114217,41.775,-95.4186111111, USA,City,IA,"Earling, Iowa",0,0,0,0,0,0,0,0,0,0,0,340,323,321,358.0,320,341,431.0,573.0,520,466,471.0,437.0
12345,8509,US,114246,41.8902777778,-93.3977777778, USA,City,IA,"Maxwell, Iowa",0,0,0,0,0,0,0,0,0,0,453,810,754,811,721.0,812,802,773.0,758.0,783,788,807.0,920.0
12474,14431,US,114031,41.3358333333,-94.0138888889, USA,City,IA,"Winterset, Iowa",0,0,0,0,0,0,0,915,1485,2583,2281,3039,2818,2906,2921.0,3631,3570,3639.0,3654.0,4021,4196,4768.0,5190.0
12476,9140,US,112947,41.8505555556,-94.0094444444, USA,City,IA,"Bouton, Iowa",0,0,0,0,0,0,0,0,0,0,0,0,0,187,141.0,162,159,145.0,160.0,139,149,136.0,129.0
12493,9251,US,113825,41.5225,-94.4052777778, USA,City,IA,"Menlo, Iowa",0,0,0,0,0,0,0,0,0,0,389,428,382,476,500.0,441,421,421.0,391.0,410,356,365.0,353.0
12500,28105,US,96007,42.4708333333,-90.8783333333,Census,US County,IA,"Dubuque County, Iowa",0,0,0,0,0,0,10841,31164,38969,42996,49848,56403,57450,58262,61214.0,63768,71337,80048.0,90609.0,93745,86403,89143.0,93653.0
12522,9191,US,114297,41.365,-93.4733333333, USA,City,IA,"Ackworth, Iowa",0,0,0,0,0,0,0,0,0,0,0,134,119,95,82.0,67,95,77.0,111.0,83,66,85.0,83.0
12598,9963,US,113940,41.7063888889,-91.6613888889,Census,City,IA,"Tiffin, Iowa",0,0,0,0,0,0,0,0,0,47,0,0,176,178,206.0,240,256,311.0,299.0,413,460,975.0,1947.0
12620,14023,US,112764,42.4172222222,-92.2138888889, USA,City,IA,"Gilbertville, Iowa",0,0,0,0,0,0,0,0,0,155,0,0,0,212,241.0,259,399,533.0,655.0,740,748,767.0,712.0
12658,13392,US,113881,42.7219444444,-94.2002777778, USA,City,IA,"Dakota City, Iowa",0,0,0,0,0,0,0,0,162,248,353,362,391,439,448.0,537,637,706.0,746.0,1072,1024,911.0,843.0
12681,8872,US,114327,42.6152777778,-94.1444444444, USA,City,IA,"Badger, Iowa",0,0,0,0,0,0,0,0,0,0,0,240,212,244,254.0,251,301,340.0,465.0,653,569,610.0,561.0
12700,9337,US,114091,41.1422222222,-94.9852777778, USA,City,IA,"Grant, Iowa",0,0,0,0,0,0,0,0,0,0,0,249,177,282,242.0,231,237,180.0,152.0,143,123,102.0,92.0
12701,8388,US,113794,42.7572222222,-93.1036111111, USA,City,IA,"Hansell, Iowa",0,0,0,0,0,0,0,0,0,0,0,0,0,163,172.0,183,190,168.0,124.0,138,83,96.0,98.0
12724,9279,US,112927,41.9675,-90.3808333333, USA,City,IA,"Goose Lake, Iowa",0,0,0,0,0,0,0,0,0,61,0,0,110,97,128.0,145,148,191.0,218.0,274,221,232.0,240.0
12798,57750,US,60795,41.25,-95.8666666667, USA,City,IA,"Council Bluffs, Iowa",0,0,0,0,0,0,0,2011,10020,18063,21474,25802,29292,36162,42048.0,41439,45429,55641.0,60348.0,56449,54315,58268.0,62230.0
12799,10226,US,113953,41.3625,-92.0511111111, USA,City,IA,"Harper, Iowa",0,0,0,0,0,0,0,0,0,254,253,269,232,247,212.0,208,182,177.0,173.0,138,147,134.0,114.0
12811,12857,US,114154,41.6941666667,-93.4613888889,Census,City,IA,"Bondurant, Iowa",0,0,0,0,0,0,0,0,0,0,0,297,287,274,289.0,320,328,389.0,462.0,1283,1584,1846.0,3860.0
12858,9439,US,113790,42.8047222222,-93.4775, USA,City,IA,"Alexander, Iowa",0,0,0,0,0,0,0,0,0,0,0,0,262,315,334.0,324,278,294.0,249.0,190,170,165.0,175.0
12865,8656,US,112754,41.9938888889,-91.9663888889, USA,City,IA,"Newhall, Iowa",0,0,0,0,0,0,0,0,0,0,0,0,0,293,336.0,330,366,495.0,701.0,899,854,886.0,875.0
12920,32101,US,112861,43.1486111111,-93.2019444444,Census,City,IA,"Mason City, Iowa",0,0,0,0,0,0,0,0,1183,2510,4007,6747,11230,20065,23304.0,27080,27980,30642.0,30379.0,30144,29040,29172.0,28079.0
12929,12622,US,113821,41.8466666667,-94.4288888889,Census,City,IA,"Bagley, Iowa",0,0,0,0,0,0,0,0,0,0,0,355,483,505,477.0,427,392,406.0,365.0,370,303,354.0,303.0
13058,13345,US,114040,41.2052777778,-92.8852777778, USA,City,IA,"Bussey, Iowa",0,0,0,0,0,0,0,0,0,0,0,550,669,585,546.0,632,633,557.0,498.0,579,494,450.0,422.0
13091,9429,US,113797,42.8936111111,-93.2169444444, USA,City,IA,"Sheffield, Iowa",0,0,0,0,0,0,0,0,0,307,610,688,824,1106,1057.0,1060,1163,1156.0,1070.0,1224,1174,930.0,1172.0
13112,8902,US,112753,42.2572222222,-92.0927777778, USA,City,IA,"Mount Auburn, Iowa",0,0,0,0,0,0,0,0,0,0,0,0,228,249,196.0,223,216,186.0,200.0,188,134,160.0,150.0
13160,9605,US,113005,42.6375,-90.8686111111, USA,City,IA,"Balltown, Iowa",0,0,0,0,0,0,0,0,0,0,0,0,0,0,0.0,56,49,43.0,79.0,106,74,73.0,68.0
13213,11346,US,112926,42.0016666667,-90.6077777778, USA,City,IA,"Delmar, Iowa",0,0,0,0,0,0,0,0,0,410,518,592,548,527,480.0,434,415,556.0,599.0,633,517,514.0,525.0
13328,10934,US,114032,41.2758333333,-92.6808333333, USA,City,IA,"Beacon, Iowa",0,0,0,0,0,0,0,0,0,727,570,953,623,381,350.0,382,371,718.0,338.0,530,509,518.0,494.0
13352,8689,US,114064,41.0238888889,-95.4972222222, USA,City,IA,"Hastings, Iowa",0,0,0,0,0,0,0,0,0,440,322,404,393,424,389.0,403,308,260.0,229.0,215,187,214.0,152.0
13378,8907,US,113009,42.4722222222,-90.8361111111, USA,City,IA,"Centralia, Iowa",0,0,0,0,0,0,0,0,0,0,0,0,0,0,0.0,57,78,85.0,105.0,106,123,101.0,134.0
13383,46347,US,1298,42.0347222222,-93.62, USA,Town,IA,"Ames, Iowa",0,0,0,0,0,0,0,0,636,1153,1276,2422,4223,6270,10261.0,12555,22898,27003.0,39505.0,45775,47198,50731.0,58965.0
13386,16984,US,26702316,43.0980555556,-93.6041666667,Census,City,IA,"Garner, Iowa",0,0,0,0,0,0,0,0,0,321,679,1288,1028,1311,1241.0,1549,1696,1990.0,2257.0,2908,2916,2922.0,3129.0
13404,10280,US,113778,43.0638888889,-91.9347222222, USA,City,IA,"St. Lucas, Iowa",0,0,0,0,0,0,0,0,0,0,0,0,138,137,168.0,158,158,211.0,194.0,194,174,178.0,143.0
13455,16794,US,114378,42.8472222222,-93.6122222222,Census,City,IA,"Belmond, Iowa",0,0,0,0,0,0,0,0,0,0,803,1234,1224,1797,1733.0,2109,2169,2506.0,2358.0,2505,2500,2560.0,2376.0
13464,11741,US,95982,41.3361111111,-92.1797222222,Census,US County,IA,"Keokuk County, Iowa",0,0,0,0,0,0,4822,13271,19434,21258,23862,24979,21160,20983,19148.0,18406,16797,15492.0,13943.0,12921,11624,11400.0,10511.0
13508,14081,US,112974,40.74,-93.7463888889, USA,City,IA,"Leon, Iowa",0,0,0,0,0,0,0,0,820,1367,1422,1905,1991,2193,2006.0,2307,2139,2004.0,2142.0,2094,2047,1982.0,1977.0
13602,11890,US,114249,42.1655555556,-93.5, USA,City,IA,"Roland, Iowa",0,0,0,0,0,0,0,0,0,0,0,557,641,829,759.0,791,687,748.0,803.0,1005,1035,1324.0,1284.0
13618,8764,US,114039,41.2861111111,-92.6183333333, USA,City,IA,"University Park, Iowa",0,0,0,0,0,0,0,0,0,0,0,0,0,361,443.0,462,457,569.0,534.0,645,598,536.0,487.0
13621,9705,US,113818,42.3222222222,-92.5986111111, USA,City,IA,"Reinbeck, Iowa",0,0,0,0,0,0,0,0,0,482,731,1203,1205,1415,1425.0,1429,1460,1621.0,1711.0,1808,1605,1751.0,1664.0
13630,12860,US,112852,41.6011111111,-90.9091666667, USA,City,IA,"Durant, Iowa",0,0,0,0,0,0,0,127,373,475,505,560,720,775,733.0,810,1075,1266.0,1472.0,1583,1549,1677.0,1832.0
13655,8928,US,114328,42.5066666667,-94.3644444444, USA,City,IA,"Barnum, Iowa",0,0,0,0,0,0,0,0,0,0,0,175,154,137,148.0,184,193,154.0,147.0,198,174,195.0,191.0
13662,9446,US,95962,43.08,-94.6808333333,Census,US County,IA,"Palo Alto County, Iowa",0,0,0,0,0,0,0,132,1336,4131,9618,14354,13845,15486,15398.0,16170,15891,14736.0,13289.0,12721,10669,10147.0,9421.0
13669,17141,US,23038510,41.0591666667,-94.3644444444, USA,City,IA,"Creston, Iowa",0,0,0,0,0,0,0,0,411,5081,7200,7752,6924,8034,8615.0,8033,8317,7667.0,8234.0,8429,7911,7597.0,7834.0
13676,15716,US,112982,42.4813888889,-91.1208333333, USA,City,IA,"Dyersville, Iowa",0,0,0,0,0,0,0,0,0,975,1272,1323,1511,1933,2046.0,2138,2416,2818.0,3437.0,3825,3696,4035.0,4058.0
13682,14859,US,113846,42.3602777778,-93.1013888889, USA,City,IA,"Eldora, Iowa",0,0,0,0,0,0,0,0,1268,1584,1577,2233,1995,3189,3200.0,3553,3107,3225.0,3223.0,3063,3038,3035.0,2732.0
13771,12025,US,114377,43.4458333333,-93.2191666667, USA,City,IA,"Northwood, Iowa",0,0,0,0,0,0,0,0,289,844,859,1271,1264,1597,1554.0,1724,1767,1768.0,1950.0,2193,1940,2050.0,1989.0
13772,8518,US,112881,43.0344444444,-92.4566666667, USA,City,IA,"Ionia, Iowa",0,0,0,0,0,0,0,0,0,198,0,306,298,280,246.0,283,301,265.0,270.0,350,304,277.0,291.0
13777,7982,US,112988,42.3505555556,-91.4830555556, USA,City,IA,"Ryan, Iowa",0,0,0,0,0,0,0,0,0,0,0,0,511,397,369.0,341,362,347.0,343.0,390,382,410.0,361.0
13796,11576,US,150411,41.6672222222,-93.3602777778, USA,City,IA,"Mitchellville, Iowa",0,0,0,0,0,0,0,0,0,745,704,768,869,752,702.0,769,906,957.0,1341.0,1530,1670,1715.0,2254.0
13857,9143,US,112752,41.9061111111,-92.1802777778, USA,City,IA,"Luzerne, Iowa",0,0,0,0,0,0,0,0,0,265,0,169,160,180,149.0,135,186,136.0,134.0,114,110,105.0,96.0
13883,9090,US,113977,43.0630555556,-94.4227777778, USA,City,IA,"Whittemore, Iowa",0,0,0,0,0,0,0,0,0,105,578,522,518,618,604.0,671,678,741.0,658.0,647,535,530.0,504.0
13894,13034,US,95932,41.33,-93.56,Census,US County,IA,"Warren County, Iowa",0,0,0,0,0,0,961,10281,17980,19578,18269,20376,18194,18047,17700.0,17695,17758,20829.0,27432.0,34878,36033,40671.0,46225.0
13914,9286,US,114353,43.1463888889,-91.7638888889, USA,City,IA,"Ossian, Iowa",0,0,0,0,0,0,0,0,0,444,609,670,749,858,740.0,822,804,827.0,847.0,829,810,853.0,845.0
13918,19488,US,113931,41.6883333333,-91.5866666667, USA,City,IA,"Coralville, Iowa",0,0,0,0,0,0,0,0,0,347,173,125,151,150,254.0,433,977,2357.0,6130.0,7687,10347,15123.0,18907.0
13923,8986,US,112770,42.0377777778,-94.1411111111, USA,City,IA,"Beaver, Iowa",0,0,0,0,0,0,0,0,0,0,0,0,0,132,111.0,126,114,115.0,113.0,85,46,53.0,48.0
13930,18140,US,112763,42.4677777778,-92.2822222222,Census,City,IA,"Evansdale, Iowa",0,0,0,0,0,0,0,0,0,0,0,0,0,0,0.0,0,3571,5738.0,5038.0,4798,4638,4526.0,4751.0
13970,8664,US,114222,41.7266666667,-95.4741666667, USA,City,IA,"Panama, Iowa",0,0,0,0,0,0,0,0,0,0,379,221,232,220,256.0,255,230,257.0,221.0,229,201,212.0,221.0
13974,9046,US,112915,42.6791666667,-90.9566666667, USA,City,IA,"North Buena Vista, Iowa",0,0,0,0,0,0,0,0,0,0,0,0,162,144,183.0,203,148,150.0,118.0,155,145,124.0,121.0
13975,9921,US,114138,42.7213888889,-96.2508333333, USA,City,IA,"Merrill, Iowa",0,0,0,0,0,0,0,0,0,0,0,389,520,633,605.0,547,605,645.0,790.0,737,729,754.0,755.0
14018,9289,US,114212,41.5552777778,-90.4547222222, USA,City,IA,"Panorama Park, Iowa",0,0,0,0,0,0,0,0,0,0,0,0,0,0,0.0,0,0,140.0,219.0,145,127,111.0,129.0
14034,14087,US,112748,41.8966666667,-92.2775, USA,City,IA,"Belle Plaine, Iowa",0,0,0,0,0,0,0,0,1488,1689,2623,3283,3121,3887,3239.0,3202,3056,2923.0,2810.0,2903,2834,2878.0,2534.0
14058,9771,US,114009,41.0952777778,-91.2536111111, USA,City,IA,"Morning Sun, Iowa",0,0,0,0,0,0,0,226,314,812,881,948,897,751,856.0,861,939,875.0,906.0,959,841,872.0,836.0
14064,14219,US,96005,42.865,-91.8494444444,Census,US County,IA,"Fayette County, Iowa",0,0,0,0,0,0,825,12073,16973,22258,23141,29845,27919,29251,29145.0,29151,28294,28581.0,26898.0,25488,21843,22008.0,20880.0
14101,8685,US,112897,43.0133333333,-95.1891666667,Census,City,IA,"Rossie, Iowa",0,0,0,0,0,0,0,0,0,0,0,0,0,0,85.0,95,112,102.0,91.0,72,68,58.0,70.0
14106,24699,US,6651,42.52352,-92.446402,Census,City,IA,"Cedar Falls, Iowa",0,0,0,0,0,0,0,0,3070,3020,3459,5319,5012,6316,7362.0,9349,14334,21195.0,29597.0,36322,34298,36145.0,39260.0
14130,8542,US,114318,41.3386111111,-91.8166666667, USA,City,IA,"West Chester, Iowa",0,0,0,0,0,0,0,0,0,92,0,209,222,225,223.0,213,218,253.0,199.0,191,178,159.0,146.0
14133,18716,US,112939,42.0172222222,-95.3511111111, USA,City,IA,"Denison, Iowa",0,0,0,0,0,0,0,0,326,1441,1782,2771,3133,3581,3905.0,4361,4554,4930.0,6218.0,6675,6604,7339.0,8298.0
14150,18650,US,150418,43.1811111111,-95.8480555556,Census,City,IA,"Sheldon, Iowa",0,0,0,0,0,0,0,0,0,730,1478,2282,2941,3488,3820.0,3768,4001,4251.0,4535.0,5003,4937,4914.0,5188.0
14174,13112,US,113962,41.3333333333,-92.2033333333, USA,City,IA,"Sigourney, Iowa",0,0,0,0,0,0,162,0,992,1735,1523,1952,2032,2210,2262.0,2355,2343,2387.0,2319.0,2330,2111,2209.0,2059.0
14193,9359,US,112788,42.3141666667,-92.0041666667, USA,City,IA,"Brandon, Iowa",0,0,0,0,0,0,0,0,0,0,0,0,200,343,308.0,324,319,322.0,432.0,337,320,311.0,309.0
14206,8915,US,114330,42.5877777778,-94.3436111111,Census,City,IA,"Clare, Iowa",0,0,0,0,0,0,0,0,0,0,0,374,299,259,254.0,232,179,245.0,249.0,229,161,190.0,146.0
14209,35495,US,114296,41.0130555556,-92.4147222222,Census,City,IA,"Ottumwa, Iowa",0,0,0,0,0,0,0,1632,5214,9004,14001,18197,22012,23003,28075.0,31570,33631,33871.0,29610.0,27381,24488,24998.0,25023.0
14298,9378,US,112860,42.9225,-93.0411111111, USA,City,IA,"Dougherty, Iowa",0,0,0,0,0,0,0,0,0,0,0,0,171,200,215.0,215,212,177.0,133.0,128,107,80.0,58.0
14404,8870,US,114288,40.6730555556,-92.1616666667, USA,City,IA,"Milton, Iowa",0,0,0,0,0,0,0,0,0,412,643,849,913,845,771.0,809,719,609.0,567.0,567,506,550.0,443.0
14421,10513,US,112817,42.2763888889,-94.4063888889, USA,City,IA,"Farnhamville, Iowa",0,0,0,0,0,0,0,0,0,0,137,348,332,380,365.0,425,399,409.0,393.0,461,414,430.0,371.0
14435,13478,US,114021,43.4544444444,-96.435, USA,City,IA,"Larchwood, Iowa",0,0,0,0,0,0,0,0,0,0,0,450,434,441,382.0,405,415,531.0,611.0,701,739,788.0,866.0
14460,11589,US,114367,42.4019444444,-96.3583333333, USA,City,IA,"Sergeant Bluff, Iowa",0,0,0,0,0,0,0,0,0,167,425,0,525,548,569.0,587,569,813.0,1164.0,2416,2772,3321.0,4227.0
14463,10347,US,112840,41.9180555556,-94.9425, USA,City,IA,"Templeton, Iowa",0,0,0,0,0,0,0,0,0,0,269,321,278,373,428.0,390,385,354.0,312.0,319,321,334.0,362.0
14486,10164,US,113756,42.6002777778,-90.9944444444, USA,City,IA,"Holy Cross, Iowa",0,0,0,0,0,0,0,0,0,0,0,115,143,98,111.0,123,139,157.0,290.0,310,293,339.0,374.0
14553,9783,US,114125,42.9802777778,-94.7375, USA,City,IA,"Curlew, Iowa",0,0,0,0,0,0,0,0,0,0,0,0,161,204,178.0,183,151,134.0,95.0,85,56,62.0,58.0
14580,12754,US,113823,41.6797222222,-94.5008333333, USA,City,IA,"Guthrie Center, Iowa",0,0,0,0,0,0,0,0,0,571,1037,1193,1337,1727,1813.0,2066,2042,2071.0,1834.0,1713,1614,1668.0,1569.0
14627,10936,US,114226,42.9869444444,-96.0113888889, USA,City,IA,"Alton, Iowa",0,0,0,0,0,0,0,0,0,0,708,1009,1046,1007,1014.0,1025,1038,1048.0,1018.0,986,1063,1095.0,1216.0
14651,9925,US,112902,42.6447222222,-91.4016666667, USA,City,IA,"Edgewood, Iowa",0,0,0,0,0,0,0,0,0,216,0,565,555,617,638.0,716,696,767.0,786.0,900,842,923.0,864.0
14702,12953,US,112912,43.0219444444,-91.1797222222, USA,City,IA,"McGregor, Iowa",0,0,0,0,0,0,0,1989,2074,1602,1160,1498,1259,1289,1299.0,1309,1138,1040.0,990.0,945,797,871.0,871.0
14726,8729,US,112883,43.0694444444,-92.1527777778, USA,City,IA,"Lawler, Iowa",0,0,0,0,0,0,0,0,0,487,464,646,601,631,476.0,542,539,532.0,513.0,534,517,461.0,439.0
14751,11072,US,113855,41.8538888889,-95.6, USA,City,IA,"Dunlap, Iowa",0,0,0,0,0,0,0,0,0,1246,1088,1355,1155,1455,1522.0,1550,1409,1254.0,1292.0,1374,1251,1139.0,1042.0
14782,12848,US,113884,42.8669444444,-94.1841666667, USA,City,IA,"Livermore, Iowa",0,0,0,0,0,0,0,0,0,168,459,618,578,648,666.0,736,615,545.0,510.0,490,436,431.0,384.0
14805,13683,US,96014,41.6827777778,-94.035,Census,US County,IA,"Dallas County, Iowa",0,0,0,0,0,0,854,5244,12019,18746,20479,23058,23628,25120,25493.0,24649,23661,24123.0,26085.0,29513,29755,40750.0,66135.0
14817,9669,US,113764,43.3958333333,-94.4808333333, USA,City,IA,"Armstrong, Iowa",0,0,0,0,0,0,0,0,0,0,0,907,586,818,767.0,937,943,958.0,1061.0,1153,1025,979.0,926.0
14877,9799,US,112951,41.5311111111,-94.0083333333, USA,City,IA,"De Soto, Iowa",0,0,0,0,0,0,0,0,0,347,328,345,356,261,319.0,274,280,273.0,369.0,1035,1033,1009.0,1050.0
14880,9185,US,114204,41.7413888889,-90.7827777778, USA,City,IA,"Dixon, Iowa",0,0,0,0,0,0,0,0,0,228,0,0,198,197,193.0,226,208,280.0,276.0,312,228,276.0,247.0
14926,9351,US,112756,42.0930555556,-91.8702777778, USA,City,IA,"Shellsburg, Iowa",0,0,0,0,0,0,0,0,0,547,468,511,527,590,546.0,552,632,625.0,740.0,771,765,938.0,983.0
14936,12602,US,37110706,41.4825,-90.6333333333,,Township,IA,"Rockingham Township, Iowa",0,0,0,0,0,0,0,204,281,369,201,403,833,1416,343.0,620,0,0.0,0.0,0,0,0.0,0.0
14974,8402,US,113785,43.1569444444,-92.5930555556, USA,City,IA,"Colwell, Iowa",0,0,0,0,0,0,0,0,0,0,0,0,0,0,87.0,93,122,119.0,100.0,91,94,76.0,73.0
15005,9197,US,114055,42.1905555556,-93.0055555556, USA,City,IA,"Liscomb, Iowa",0,0,0,0,0,0,0,0,0,452,313,338,354,347,326.0,340,278,295.0,328.0,296,258,272.0,301.0
15015,8726,US,150414,41.5083333333,-92.4688888889, USA,City,IA,"Barnes City, Iowa",0,0,0,0,0,0,0,0,0,0,0,274,307,473,375.0,414,326,273.0,238.0,266,221,201.0,176.0
15030,10336,US,114371,43.3294444444,-93.0702777778,Census,City,IA,"Grafton, Iowa",0,0,0,0,0,0,0,0,0,0,0,156,183,233,249.0,37,44,47.0,254.0,255,282,290.0,252.0
15082,12084,US,112848,41.2538888889,-94.7688888889, USA,City,IA,"Massena, Iowa",0,0,0,0,0,0,0,0,0,0,279,475,490,500,475.0,479,459,456.0,433.0,518,372,414.0,355.0
15153,34078,US,113919,41.6986111111,-93.0469444444,Census,City,IA,"Newton, Iowa",0,0,0,0,0,0,0,1617,1983,2607,2564,3682,4616,6627,11560.0,10462,11723,15381.0,15619.0,15292,14789,15579.0,15254.0
15175,10534,US,113985,40.7172222222,-91.4516666667, USA,City,IA,"West Point, Iowa",0,0,0,0,0,0,546,0,794,704,498,654,570,591,536.0,543,662,758.0,1045.0,1133,1079,980.0,966.0
15206,10774,US,114355,43.2,-91.95, USA,City,IA,"Spillville, Iowa",0,0,0,0,0,0,0,0,0,340,0,356,320,315,304.0,329,363,389.0,361.0,415,387,386.0,367.0
15215,21793,US,114143,42.5827777778,-94.8458333333, USA,City,IA,"Fonda, Iowa",0,0,0,0,0,0,0,0,0,168,625,1180,978,1136,1027.0,1188,1120,1026.0,980.0,863,731,648.0,631.0
15243,8871,US,112810,42.7736111111,-92.9069444444, USA,City,IA,"Bristow, Iowa",0,0,0,0,0,0,0,0,0,198,257,317,291,299,293.0,318,313,268.0,230.0,252,197,202.0,160.0
15277,8783,US,113870,40.9830555556,-91.6830555556, USA,City,IA,"Rome, Iowa",0,0,0,0,0,0,0,0,0,276,0,255,155,168,144.0,119,134,117.0,135.0,113,124,113.0,117.0
15278,17035,US,114137,42.7888888889,-96.1658333333,Census,City,IA,"Le Mars, Iowa",0,0,0,0,0,0,0,0,0,0,4036,4146,4157,4683,4788.0,5353,5844,6767.0,8159.0,8276,8454,9237.0,9826.0
15285,8869,US,112900,42.9480555556,-95.0122222222,Census,City,IA,"Webb, Iowa",0,0,0,0,0,0,0,0,0,0,0,0,150,219,240.0,254,235,236.0,234.0,222,167,165.0,141.0
15432,11483,US,114343,43.3336111111,-93.6375, USA,City,IA,"Leland, Iowa",0,0,0,0,0,0,0,0,0,0,0,215,188,180,164.0,235,209,209.0,223.0,274,311,258.0,289.0
15434,8637,US,113922,41.5786111111,-93.0227777778, USA,City,IA,"Reasnor, Iowa",0,0,0,0,0,0,0,0,0,0,0,0,0,226,229.0,221,227,224.0,284.0,277,191,194.0,152.0
