,article_length,country,id,lat,lon,poptype,settlement_type,state,title,y1790,y1800,y1810,y1820,y1830,y1840,y1850,y1860,y1870,y1880,y1890,y1900,y1910,y1920,y1930,y1940,y1950,y1960,y1970,y1980,y1990,y2000,y2010
16,16174,US,136040,30.0841666667,-97.8391666667,Census,City,TX,"Buda, Texas",0,0,0,0,0,0,0,0,0,0,0,0,0,0,0.0,0,483,451.0,498.0,597,1795,2404.0,7295.0
63,9846,US,136034,33.1602777778,-99.7344444444,Census,City,TX,"Haskell, Texas",0,0,0,0,0,0,0,0,0,0,745,0,2436,2300,2632.0,3051,3836,4016.0,3655.0,3782,3362,3106.0,3322.0
66,17559,US,135551,29.0430555556,-95.7,Census,City,TX,"Sweeny, Texas",0,0,0,0,0,0,0,0,0,0,0,0,0,0,0.0,0,1393,3087.0,3191.0,3538,3297,3624.0,3684.0
79,13308,US,6832211,30.1919444444,-98.0852777778,Census,Town,TX,"Dripping Springs, Texas",0,0,0,0,0,0,0,0,0,0,0,0,0,0,0.0,0,0,0.0,0.0,0,1033,1548.0,1788.0
90,11057,US,91456,30.9,-100.54,Census,US County,TX,"Schleicher County, Texas",0,0,0,0,0,0,0,0,0,0,155,515,1893,1851,3166.0,3083,2852,2791.0,2277.0,2820,2990,2935.0,3461.0
95,5720,US,136351,31.5966666667,-97.0966666667,Census,City,TX,"Bellmead, Texas",0,0,0,0,0,0,0,0,0,0,0,0,0,0,0.0,0,0,5127.0,7698.0,7569,8336,9214.0,9901.0
140,7728,US,136133,31.8475,-96.7972222222,Census,City,TX,"Hubbard, Texas",0,0,0,0,0,0,0,0,0,0,894,1608,1843,2072,1855.0,1871,1768,1628.0,1572.0,1676,1589,1586.0,1423.0
164,64124,US,135968,29.5744444444,-97.9652777778,Census,City,TX,"Seguin, Texas",0,0,0,0,0,0,0,792,830,1363,1716,2421,3116,3631,5225.0,7006,9733,14299.0,15934.0,17854,18692,22011.0,25175.0
188,46429,US,151127,29.7438888889,-94.9658333333,Census,City,TX,"Baytown, Texas",0,0,0,0,0,0,0,0,0,0,0,0,0,0,0.0,0,22983,28159.0,43980.0,56923,63850,66430.0,71802.0
245,11671,US,136220,32.4063888889,-97.2127777778,Census,city,TX,"Alvarado, Texas",0,0,0,0,0,0,0,0,0,377,1543,1342,1155,1284,1210.0,1324,1656,1907.0,2129.0,2701,2918,3288.0,3785.0
256,7630,US,91445,32.74,-98.84,Census,US County,TX,"Stephens County, Texas",0,0,0,0,0,0,0,230,330,4725,4926,6466,7980,15403,16560.0,12356,10597,8885.0,8414.0,9926,9010,9674.0,9630.0
258,9757,US,136817,30.5444444444,-97.5452777778,Census,City,TX,"Hutto, Texas",0,0,0,0,0,0,0,0,0,0,0,0,0,571,588.0,579,529,400.0,545.0,659,630,1250.0,14698.0
266,15377,US,91657,28.42,-97.74,Census,US County,TX,"Bee County, Texas",0,0,0,0,0,0,0,910,1082,2298,3720,7720,12090,12137,15721.0,16481,18174,23755.0,22737.0,26030,25135,32359.0,31861.0
271,8291,US,91554,33.61,-102.34,Census,US County,TX,"Hockley County, Texas",0,0,0,0,0,0,0,0,0,0,0,44,137,137,9298.0,12693,20407,22340.0,20396.0,23230,24199,22716.0,22935.0
274,8460,US,135627,26.0383333333,-97.5544444444,Census,Town,TX,"Rancho Viejo, Texas",0,0,0,0,0,0,0,0,0,0,0,0,0,0,0.0,0,0,0.0,0.0,0,885,1754.0,2437.0
281,15624,US,151162,32.9069444444,-96.5475,Census,City,TX,"Rowlett, Texas",0,0,0,0,0,0,0,0,0,0,0,0,0,0,0.0,0,0,1015.0,2243.0,7522,23260,44503.0,56199.0
290,15782,US,136048,32.2027777778,-95.8491666667,Census,City,TX,"Athens, Texas",0,0,0,0,0,0,0,240,545,368,1035,0,2261,3176,4342.0,4765,5194,7086.0,9582.0,10197,10967,11297.0,12710.0
306,8761,US,135701,33.0433333333,-96.3730555556,Census,City,TX,"Nevada, Texas",0,0,0,0,0,0,0,0,0,0,247,356,510,578,386.0,0,0,0.0,0.0,0,456,563.0,822.0
327,6445,US,136042,30.1175,-97.8744444444,Census,City,TX,"Hays, Texas",0,0,0,0,0,0,0,0,0,0,0,0,0,0,0.0,0,0,0.0,0.0,286,251,233.0,217.0
337,6619,US,136492,30.6072222222,-94.9469444444,Census,City,TX,"Goodrich, Texas",0,0,0,0,0,0,0,0,0,0,0,0,0,0,0.0,0,0,0.0,0.0,350,239,243.0,271.0
352,47865,US,136600,32.35,-95.3,Census,City,TX,"Tyler, Texas",0,0,0,0,0,0,0,0,0,2423,6908,8069,10400,12085,17113.0,28279,38968,51230.0,57770.0,70508,75450,83650.0,96900.0
363,20753,US,136011,29.8905555556,-95.5686111111,Census,City,TX,"Jersey Village, Texas",0,0,0,0,0,0,0,0,0,0,0,0,0,0,0.0,0,0,493.0,765.0,4084,4826,6880.0,7620.0
368,50933,US,135760,33.3727777778,-95.6891666667,Census,City,TX,"Cooper, Texas",0,0,0,0,0,0,0,0,0,294,629,1518,1513,2563,2023.0,2537,2350,2213.0,2258.0,2338,2153,2150.0,1969.0
459,14252,US,136621,26.3805555556,-98.8183333333,Census,City,TX,"Rio Grande City, Texas",0,0,0,0,0,0,0,0,0,0,0,0,0,0,0.0,0,0,0.0,0.0,0,0,11923.0,13834.0
499,7125,US,135526,33.4725,-94.1694444444,Census,City,TX,"Red Lick, Texas",0,0,0,0,0,0,0,0,0,0,0,0,0,0,0.0,0,0,0.0,0.0,0,0,853.0,1008.0
561,7298,US,135708,33.3258333333,-96.6422222222,Census,City,TX,"Weston, Texas",0,0,0,0,0,0,0,0,157,166,0,0,0,0,0.0,0,0,0.0,0.0,405,362,635.0,563.0
563,19074,US,135466,28.4055555556,-97.7508333333,Census,City,TX,"Beeville, Texas",0,0,0,0,0,0,0,0,0,208,1311,0,3269,3063,4806.0,6789,9348,13811.0,13506.0,14574,13547,13129.0,12863.0
570,8063,US,91478,34.53,-102.78,Census,US County,TX,"Parmer County, Texas",0,0,0,0,0,0,0,0,0,0,7,34,1555,1699,5869.0,5890,5787,9583.0,10509.0,11038,9863,10016.0,10269.0
572,20334,US,91517,31.54,-96.58,Census,US County,TX,"Limestone County, Texas",0,0,0,0,0,0,2608,4537,8591,16246,21678,32573,34621,33283,39497.0,33781,25251,20413.0,18100.0,20224,20946,22051.0,23384.0
590,8307,US,135758,32.7180555556,-101.919166667,Census,City,TX,"Los Ybanez, Texas",0,0,0,0,0,0,0,0,0,0,0,0,0,0,0.0,0,0,0.0,0.0,0,83,32.0,19.0
593,16406,US,136603,32.2366666667,-97.7538888889,Census,City,TX,"Glen Rose, Texas",0,0,0,0,0,0,0,0,0,132,400,0,0,0,983.0,1050,1254,1422.0,1554.0,2075,1949,2122.0,2444.0
604,9682,US,136744,32.7086111111,-96.0063888889,Census,City,TX,"Wills Point, Texas",0,0,0,0,0,0,0,0,0,860,1025,1347,1398,1811,2023.0,1976,2030,2281.0,2636.0,2631,2986,3496.0,3524.0
640,6541,US,136289,31.24,-96.2552777778,Census,City,TX,"Marquez, Texas",0,0,0,0,0,0,0,0,0,0,0,0,0,0,0.0,381,287,194.0,185.0,231,270,220.0,263.0
642,20589,US,136640,32.8483333333,-97.0916666667,Census,City,TX,"Euless, Texas",0,0,0,0,0,0,0,0,0,0,0,0,0,0,0.0,0,0,4263.0,19316.0,24002,38149,46005.0,51277.0
648,7452,US,136754,30.0633333333,-96.0230555556,Census,Town,TX,"Pine Island, Texas",0,0,0,0,0,0,0,0,0,0,0,0,0,0,0.0,0,0,0.0,0.0,0,571,849.0,988.0
663,15586,US,136002,29.6919444444,-95.1180555556,Census,City,TX,"Deer Park, Texas",0,0,0,0,0,0,0,0,0,0,0,0,0,0,0.0,0,736,4865.0,12773.0,22648,27652,28520.0,32010.0
678,15452,US,91558,,,Census,US County,TX,"Henderson County, Texas",0,0,0,0,0,0,1237,4595,6786,9735,12285,19970,20131,28327,30583.0,31822,23405,21786.0,26466.0,42606,58543,73277.0,78532.0
695,28880,US,91541,29.86,-94.14,Census,US County,TX,"Jefferson County, Texas",0,0,0,0,0,0,1836,1995,1906,3489,5857,14239,38182,73120,133391.0,145329,195083,245659.0,244773.0,250938,239397,252051.0,252273.0
728,17137,US,136384,33.7883333333,-97.7263888889,Census,City,TX,"Nocona, Texas",0,0,0,0,0,0,0,0,0,381,381,961,1333,1422,2352.0,2605,3022,3127.0,2871.0,2992,2870,3198.0,3033.0
731,6805,US,136381,32.4069444444,-100.714166667,Census,Town,TX,"Loraine, Texas",0,0,0,0,0,0,0,0,0,0,0,0,633,610,750.0,700,1045,837.0,700.0,929,731,656.0,602.0
746,145670,US,13774,29.7627777778,-95.3830555556,Census,City,TX,Houston,0,0,0,0,0,0,2396,4845,9332,16513,27557,44633,78800,138276,292352.0,384514,596163,938219.0,1232802.0,1595138,1630553,1953631.0,2100263.0
770,7105,US,136255,29.1727777778,-100.411388889,Census,City,TX,"Spofford, Texas",0,0,0,0,0,0,0,0,0,0,0,0,0,0,0.0,0,246,138.0,69.0,77,68,75.0,95.0
774,7262,US,151123,30.0063888889,-97.75,Census,City,TX,"Niederwald, Texas",0,0,0,0,0,0,0,0,0,0,0,0,0,0,0.0,0,0,0.0,0.0,0,233,584.0,565.0
790,18476,US,136018,29.6611111111,-95.2297222222,Census,City,TX,"South Houston, Texas",0,0,0,0,0,0,0,0,0,0,0,0,0,0,612.0,982,4126,7532.0,11527.0,13293,14207,15833.0,16983.0
832,10279,US,136000,29.7847222222,-95.1730555556,Census,Census-designated place,TX,"Cloverleaf, Texas",0,0,0,0,0,0,0,0,0,0,0,0,0,0,0.0,0,0,0.0,0.0,17317,18230,23508.0,22942.0
868,7063,US,135878,34.1244444444,-101.441666667,Census,Town,TX,"Lockney, Texas",0,0,0,0,0,0,0,0,0,0,0,0,750,1118,1466.0,1231,1692,2141.0,2094.0,2334,2207,2056.0,1842.0
886,9826,US,91519,31.3,-96.0,Census,US County,TX,"Leon County, Texas",0,0,0,0,0,0,1946,6781,6523,12817,13841,18072,16583,18286,19898.0,17733,12024,9951.0,8738.0,9594,12665,15335.0,16801.0
905,11342,US,151187,32.9575,-95.29,Census,City,TX,"Winnsboro, Texas",0,0,0,0,0,0,0,0,0,0,388,899,1741,2184,1905.0,2092,2512,2675.0,3064.0,3458,2904,3584.0,3252.0
915,12468,US,136398,30.1777777778,-95.1561111111,Census,City,TX,"Roman Forest, Texas",0,0,0,0,0,0,0,0,0,0,0,0,0,0,0.0,0,0,0.0,0.0,929,1033,1279.0,1538.0
922,6605,US,136420,31.9888888889,-96.4244444444,Census,City,TX,"Angus, Texas",0,0,0,0,0,0,0,0,0,0,0,0,0,0,0.0,0,0,0.0,93.0,244,363,334.0,414.0
927,24054,US,135744,32.7175,-96.6152777778,Census,City,TX,"Balch Springs, Texas",0,0,0,0,0,0,0,0,0,0,0,0,0,0,0.0,0,0,6821.0,10464.0,13746,17406,19375.0,23728.0
943,10018,US,91432,33.17,-102.34,Census,US County,TX,"Terry County, Texas",0,0,0,0,0,0,0,0,0,0,21,48,1474,2236,8883.0,11160,13107,16286.0,14118.0,14581,13218,12761.0,12651.0
946,6434,US,136568,28.0797222222,-97.8855555556,Census,Town,TX,"Lake City, Texas",0,0,0,0,0,0,0,0,0,0,0,0,0,0,0.0,0,0,0.0,0.0,431,465,526.0,509.0
1016,13516,US,136240,32.4372222222,-96.2258333333,Census,City,TX,"Kemp, Texas",0,0,0,0,0,0,0,0,0,0,335,0,0,0,990.0,1000,881,816.0,999.0,1035,1184,1133.0,1154.0
1054,8375,US,136476,32.6694444444,-97.6513888889,Census,Town,TX,"Annetta South, Texas",0,0,0,0,0,0,0,0,0,0,0,0,0,0,0.0,0,0,0.0,0.0,249,413,555.0,526.0
1055,8281,US,136127,31.8522222222,-97.2191666667,Census,City,TX,"Aquilla, Texas",0,0,0,0,0,0,0,0,0,42,0,0,0,0,0.0,0,0,0.0,115.0,130,136,136.0,109.0
1063,11319,US,135810,32.3986111111,-98.8211111111,Census,City,TX,"Eastland, Texas",0,0,0,0,0,0,0,0,88,539,0,596,855,9368,4648.0,3849,3626,3292.0,3178.0,3747,3690,3769.0,3960.0
1080,9827,US,91504,28.78,-96.0,Census,US County,TX,"Matagorda County, Texas",0,0,0,0,0,0,2124,3454,3377,3940,3985,6097,13597,16589,17678.0,20066,21559,25744.0,27913.0,37828,36928,37957.0,36702.0
1099,13182,US,79663,30.0341666667,-93.8427777778,Census,City,TX,"Bridge City, Texas",0,0,0,0,0,0,0,0,0,0,0,0,0,0,0.0,0,0,0.0,0.0,7667,8034,8651.0,7840.0
1118,6916,US,136405,30.2180555556,-95.4102777778,Census,Town,TX,"Woodloch, Texas",0,0,0,0,0,0,0,0,0,0,0,0,0,0,0.0,0,0,0.0,0.0,351,291,247.0,207.0
1126,10333,US,136658,32.7766666667,-97.3961111111,Census,City,TX,"River Oaks, Texas",0,0,0,0,0,0,0,0,0,0,0,0,0,0,0.0,0,7097,8444.0,8193.0,6890,6580,6985.0,7427.0
1134,7125,US,136474,32.6975,-97.6544444444,Census,Town,TX,"Annetta, Texas",0,0,0,0,0,0,0,0,0,0,0,0,0,0,0.0,0,0,0.0,0.0,205,672,1108.0,1288.0
1138,9277,US,151219,31.0291666667,-96.1177777778,Census,Town,TX,"Normangee, Texas",0,0,0,0,0,0,0,0,0,0,0,0,0,662,869.0,535,657,718.0,657.0,636,689,719.0,685.0
1160,19054,US,136752,30.0913888889,-96.0813888889,Census,City,TX,"Hempstead, Texas",0,0,0,0,0,0,0,0,0,1612,1671,0,0,0,0.0,1674,1395,1505.0,1891.0,3456,3551,4691.0,5770.0
1175,34922,US,91542,30.72,-104.13,Census,US County,TX,"Jeff Davis County, Texas",0,0,0,0,0,0,0,0,0,0,1394,1150,1678,1445,1800.0,2375,2090,1582.0,1527.0,1647,1946,2207.0,2342.0
1181,6456,US,136144,33.5841666667,-102.163333333,Census,Community,TX,"Smyer, Texas",0,0,0,0,0,0,0,0,0,0,0,0,0,0,0.0,0,0,0.0,265.0,455,442,480.0,474.0
1198,7149,US,136223,32.4863888889,-97.3272222222,Census,Town,TX,"Cross Timber, Texas",0,0,0,0,0,0,0,0,0,0,0,0,0,0,0.0,0,0,0.0,0.0,0,0,277.0,268.0
1233,7083,US,135615,26.1033333333,-97.2961111111,Census,Town,TX,"Laguna Vista, Texas",0,0,0,0,0,0,0,0,0,0,0,0,0,0,0.0,0,0,141.0,287.0,632,1166,1658.0,3117.0
1234,8057,US,135769,33.0644444444,-97.1105555556,Census,Town,TX,"Double Oak, Texas",0,0,0,0,0,0,0,0,0,0,0,0,0,0,0.0,0,0,0.0,0.0,836,1664,2179.0,2867.0
1243,13559,US,136547,31.3425,-93.855,Census,City,TX,"Hemphill, Texas",0,0,0,0,0,0,0,0,0,0,0,0,0,0,731.0,739,972,913.0,1005.0,1353,1182,1106.0,1198.0
1265,10124,US,136552,30.5880555556,-95.1333333333,Census,City,TX,"Coldspring, Texas",0,0,0,0,0,0,0,0,0,0,439,0,0,0,0.0,0,0,0.0,488.0,569,538,691.0,853.0
1284,24301,US,91529,33.61,-100.25,Census,US County,TX,"King County, Texas",0,0,0,0,0,0,0,0,0,40,173,490,810,655,1193.0,1066,870,640.0,464.0,425,354,356.0,286.0
1293,6888,US,136638,32.8875,-97.4508333333,Census,Former CDP,TX,"Eagle Mountain, Texas",0,0,0,0,0,0,0,0,0,0,0,0,0,0,0.0,0,0,0.0,0.0,0,5847,6599.0,0.0
1301,8754,US,135859,33.5775,-96.2722222222,Census,City,TX,"Ector, Texas",0,0,0,0,0,0,0,0,0,0,0,0,404,454,397.0,457,430,519.0,549.0,573,494,600.0,695.0
1306,9840,US,136285,31.4613888889,-96.0630555556,Census,City,TX,"Buffalo, Texas",0,0,0,0,0,0,0,0,0,190,0,0,0,510,470.0,737,970,1108.0,1242.0,1507,1555,1804.0,1856.0
1317,11978,US,135919,29.5463888889,-95.0325,Census,City,TX,"Clear Lake Shores, Texas",0,0,0,0,0,0,0,0,0,0,0,0,0,0,0.0,0,0,0.0,721.0,755,1096,1205.0,1063.0
1364,8461,US,135861,33.4294444444,-95.9466666667,Census,Town,TX,"Ladonia, Texas",0,0,0,0,0,0,0,0,516,223,765,1409,1293,1713,1199.0,1279,1104,890.0,757.0,761,658,667.0,612.0
1391,8260,US,135856,33.4341666667,-96.1652777778,Census,City,TX,"Bailey, Texas",0,0,0,0,0,0,0,0,0,0,0,0,0,0,0.0,223,198,176.0,197.0,185,187,213.0,289.0
1392,7333,US,136673,32.2091666667,-99.7972222222,Census,City,TX,"Tuscola, Texas",0,0,0,0,0,0,0,0,0,0,0,0,0,0,0.0,0,497,414.0,497.0,660,620,714.0,742.0
1396,13260,US,135649,33.1183333333,-94.1666666667,Census,City,TX,"Atlanta, Texas",0,0,0,0,0,0,0,0,0,396,1764,1301,1604,1469,1685.0,2453,3782,4076.0,5007.0,6272,6118,5745.0,5675.0
1398,13658,US,136349,31.1322222222,-99.3413888889,Census,City,TX,"Brady, Texas",0,0,0,0,0,0,0,0,0,115,560,0,2669,2197,3983.0,5002,5944,5338.0,5557.0,5969,5946,5523.0,5528.0
1455,7291,US,136430,32.0363888889,-96.345,Census,Town,TX,"Mildred, Texas",0,0,0,0,0,0,0,0,0,0,0,0,0,0,0.0,0,0,0.0,0.0,282,173,405.0,368.0
1501,9071,US,91570,34.52,-100.69,Census,US County,TX,"Hall County, Texas",0,0,0,0,0,0,0,0,0,36,703,1660,8279,11137,16966.0,12117,10930,7322.0,6015.0,5594,3905,3782.0,3353.0
1506,7843,US,136214,27.9561111111,-97.9391666667,Census,City,TX,"Orange Grove, Texas",0,0,0,0,0,0,0,0,0,0,0,0,0,0,0.0,906,935,1109.0,1075.0,1212,1175,1288.0,1318.0
1509,8599,US,91520,30.31,-96.96,Census,US County,TX,"Lee County, Texas",0,0,0,0,0,0,0,0,0,8937,11952,14595,13132,14014,13390.0,12751,10144,8949.0,8048.0,10952,12854,15657.0,16612.0
1548,7586,US,136306,31.7422222222,-96.5455555556,Census,Town,TX,"Tehuacana, Texas",0,0,0,0,0,0,0,0,0,0,0,382,425,614,412.0,408,389,316.0,285.0,265,322,307.0,283.0
1560,9979,US,135927,29.2988888889,-94.9144444444,Census,Village,TX,"Tiki Island, Texas",0,0,0,0,0,0,0,0,0,0,0,0,0,0,0.0,0,0,0.0,0.0,0,537,1016.0,968.0
1564,10776,US,151106,29.2330555556,-98.8,Census,City,TX,"Lytle, Texas",0,0,0,0,0,0,0,0,0,0,0,0,0,0,0.0,0,0,798.0,1298.0,1920,2255,2383.0,2492.0
1566,6869,US,136470,32.2416666667,-94.4547222222,Census,City,TX,"Beckville, Texas",0,0,0,0,0,0,0,0,0,0,0,0,0,0,435.0,453,550,632.0,582.0,945,783,752.0,847.0
1575,13425,US,135790,29.0936111111,-97.2911111111,Census,City,TX,"Cuero, Texas",0,0,0,0,0,0,0,0,0,1333,2442,3422,3109,3671,4672.0,5474,7498,7338.0,6956.0,7124,6700,6571.0,6841.0
1584,12695,US,135879,33.9858333333,-99.7244444444,Census,City,TX,"Crowell, Texas",0,0,0,0,0,0,0,0,0,0,0,0,1341,1175,1946.0,1817,1912,1703.0,1399.0,1509,1230,1141.0,948.0
1596,10961,US,135738,33.6566666667,-101.238888889,Census,City,TX,"Crosbyton, Texas",0,0,0,0,0,0,0,0,0,0,0,0,0,809,1250.0,1615,1879,2088.0,2251.0,2289,2026,1874.0,1741.0
1611,7554,US,136463,30.105,-94.0555555556,Census,City,TX,"Rose City, Texas",0,0,0,0,0,0,0,0,0,0,0,0,0,0,0.0,0,0,0.0,0.0,663,572,519.0,502.0
1624,7824,US,36550366,30.1397222222,-98.8191666667,Census,Ghost town,TX,"Bankersmith, Texas",0,0,0,0,0,0,0,0,0,0,0,0,0,0,10.0,10,20,0.0,0.0,0,0,0.0,0.0
1674,10398,US,135799,28.5266666667,-99.8625,Census,City,TX,"Carrizo Springs, Texas",0,0,0,0,0,0,0,0,0,0,289,0,0,954,2171.0,2494,4316,5699.0,5374.0,6886,5745,5655.0,5368.0
1689,6717,US,136598,32.3036111111,-95.1691666667,Census,City,TX,"New Chapel Hill, Texas",0,0,0,0,0,0,0,0,0,0,0,0,0,0,0.0,0,0,0.0,0.0,618,439,553.0,594.0
1726,8551,US,135621,26.0497222222,-97.7402777778,Census,Town,TX,"Los Indios, Texas",0,0,0,0,0,0,0,0,0,0,0,0,0,0,0.0,0,0,0.0,0.0,0,0,1149.0,1083.0
1735,11227,US,151161,32.5316666667,-96.8913888889,Census,City,TX,"Ovilla, Texas",0,0,0,0,0,0,0,0,0,0,0,0,0,0,0.0,0,0,0.0,339.0,1067,2027,3405.0,3492.0
1767,6884,US,136475,32.7202777778,-97.6811111111,Census,Town,TX,"Annetta North, Texas",0,0,0,0,0,0,0,0,0,0,0,0,0,0,0.0,0,0,0.0,0.0,222,265,467.0,518.0
1776,15516,US,91416,28.8,-96.97,Census,US County,TX,"Victoria County, Texas",0,0,0,0,0,0,2019,4171,4860,6289,8737,13678,14990,18271,20048.0,23741,31241,46475.0,53766.0,68807,74361,84088.0,86793.0
1777,15954,US,136485,34.3830555556,-103.038333333,Census,City,TX,"Farwell, Texas",0,0,0,0,0,0,0,0,0,0,0,0,0,0,0.0,0,0,1009.0,1185.0,1354,1373,1364.0,1363.0
1783,10229,US,91488,31.61,-94.61,Census,US County,TX,"Nacogdoches County, Texas",0,0,0,0,0,0,5193,8292,9614,11590,15984,24663,27406,28457,30290.0,35392,30326,28046.0,36362.0,46786,54753,59203.0,64524.0
1788,92986,US,136196,30.08,-94.1266666667,Census,City,TX,"Beaumont, Texas",0,0,0,0,0,0,0,0,0,0,3296,9427,20640,40422,57732.0,59061,94014,119175.0,117548.0,118067,114177,113866.0,118296.0
1794,20916,US,91655,29.45,-98.52,Census,US County,TX,"Bexar County, Texas",0,0,0,0,0,0,6052,14454,16043,30470,49266,69422,119676,202096,292533.0,338176,500460,687151.0,830460.0,988800,1185394,1392931.0,1714773.0
1804,10501,US,136709,30.4438888889,-97.6783333333,Census,CDP,TX,"Wells Branch, Texas",0,0,0,0,0,0,0,0,0,0,0,0,0,0,0.0,0,0,0.0,0.0,0,7094,11271.0,12120.0
1824,6620,US,136281,29.5738888889,-97.1463888889,Census,Town,TX,"Moulton, Texas",0,0,0,0,0,0,0,0,0,109,231,0,0,0,0.0,643,692,646.0,968.0,1009,923,944.0,886.0
1827,10608,US,91532,33.19,-100.77,Census,US County,TX,"Kent County, Texas",0,0,0,0,0,0,0,0,0,92,324,899,2655,3335,3851.0,3413,2249,1727.0,1434.0,1145,1010,859.0,808.0
1840,17962,US,91447,32.22,-97.77,Census,US County,TX,"Somervell County, Texas",0,0,0,0,0,0,0,0,0,2649,3419,3498,3931,3563,3016.0,3071,2542,2577.0,2793.0,4154,5360,6809.0,8490.0
1858,14700,US,136413,34.0138888889,-100.821666667,Census,Town,TX,"Matador, Texas",0,0,0,0,0,0,0,0,0,0,0,0,0,692,1302.0,1376,1335,1217.0,1091.0,1052,790,740.0,607.0
1865,6333,US,136588,32.5458333333,-99.1663888889,Census,City,TX,"Moran, Texas",0,0,0,0,0,0,0,0,0,0,0,0,0,1055,907.0,710,610,392.0,335.0,344,285,233.0,270.0
1887,8225,US,136468,32.5394444444,-98.4233333333,Census,City,TX,"Mingus, Texas",0,0,0,0,0,0,0,0,0,0,0,0,0,0,0.0,570,310,253.0,273.0,212,215,246.0,235.0
1891,7504,US,136750,30.8469444444,-95.3980555556,Census,City,TX,"Riverside, Texas",0,0,0,0,0,0,0,0,0,0,0,0,0,0,0.0,0,0,0.0,226.0,425,451,425.0,510.0
1896,9010,US,136466,32.5441666667,-98.3661111111,Census,City,TX,"Gordon, Texas",0,0,0,0,0,0,0,0,0,0,378,0,609,0,510.0,532,404,349.0,457.0,516,465,451.0,478.0
1908,7346,US,136436,32.2344444444,-96.4947222222,Census,City,TX,"Rice, Texas",0,0,0,0,0,0,0,0,0,0,0,0,0,611,591.0,489,396,295.0,284.0,432,564,798.0,923.0
1941,7506,US,135657,33.1530555556,-94.1552777778,Census,City,TX,"Queen City, Texas",0,0,0,0,0,0,0,0,0,301,672,0,388,398,321.0,0,511,1081.0,1227.0,1748,1748,1613.0,1476.0
1971,21367,US,136395,30.1963888889,-95.1755555556,Census,City,TX,"Patton Village, Texas",0,0,0,0,0,0,0,0,0,0,0,0,0,0,0.0,0,0,0.0,667.0,1050,1155,1391.0,1557.0
1974,7895,US,136106,26.2508333333,-98.3075,Census,City,TX,"Palmhurst, Texas",0,0,0,0,0,0,0,0,0,0,0,0,0,0,0.0,0,0,0.0,120.0,364,326,4872.0,2607.0
1976,11264,US,91662,,,Census,US County,TX,"Austin County, Texas",0,0,0,0,0,0,3841,10139,15087,14429,17859,20676,17699,18874,18860.0,17384,14663,13777.0,13831.0,17726,19832,23590.0,28417.0
1979,9825,US,136717,30.7761111111,-94.4211111111,Census,Town,TX,"Woodville, Texas",0,0,0,0,0,0,0,0,0,0,518,0,0,0,969.0,1521,1863,1920.0,2662.0,2821,2636,2415.0,2586.0
1980,24489,US,151192,29.4997222222,-95.0897222222,Census,City,TX,"League City, Texas",0,0,0,0,0,0,0,0,0,0,0,0,0,0,0.0,0,0,0.0,10818.0,16578,30159,45444.0,83560.0
1985,7367,US,135522,33.4694444444,-94.2211111111,Census,City,TX,"Leary, Texas",0,0,0,0,0,0,0,0,0,0,0,0,0,0,0.0,0,0,0.0,352.0,253,395,555.0,495.0
2012,10070,US,136262,28.0416666667,-99.3561111111,Census,Town,TX,"Encinal, Texas",0,0,0,0,0,0,0,0,0,0,562,0,0,0,0.0,0,0,0.0,0.0,704,620,629.0,559.0
2014,9318,US,135778,33.1411111111,-96.9702777778,Census,City,TX,"Lakewood Village, Texas",0,0,0,0,0,0,0,0,0,0,0,0,0,0,0.0,0,0,0.0,0.0,165,169,342.0,545.0
2024,36687,US,151121,29.5544444444,-95.2958333333,Census,Unknown,TX,"Pearland, Texas",0,0,0,0,0,0,0,0,0,0,0,0,0,0,0.0,0,0,1497.0,6444.0,13248,18697,37640.0,91252.0
2047,8627,US,135548,28.9247222222,-95.3183333333,Census,Town,TX,"Quintana, Texas",0,0,0,0,0,0,0,0,0,47,475,301,0,0,0.0,0,0,0.0,58.0,30,51,38.0,56.0
2083,6525,US,136062,32.2811111111,-96.0952777778,Census,Town,TX,"Payne Springs, Texas",0,0,0,0,0,0,0,0,0,0,0,0,0,0,0.0,0,0,0.0,0.0,422,606,683.0,767.0
2128,17443,US,91505,30.72,-99.22,Census,US County,TX,"Mason County, Texas",0,0,0,0,0,0,0,630,678,2655,5180,5573,5683,4824,5511.0,5378,4945,3780.0,3356.0,3683,3423,3738.0,4012.0
2133,6645,US,135644,33.0341666667,-95.0344444444,Census,Town,TX,"Rocky Mound, Texas",0,0,0,0,0,0,0,0,0,0,0,0,0,0,0.0,0,0,0.0,0.0,123,53,93.0,75.0
2153,13768,US,91429,33.18,-99.21,Census,US County,TX,"Throckmorton County, Texas",0,0,0,0,0,0,0,124,0,711,902,1750,4563,3589,5253.0,4275,3618,2767.0,2205.0,2053,1880,1850.0,1641.0
2165,22388,US,136075,26.1702777778,-98.0491666667,Census,City,TX,"Donna, Texas",0,0,0,0,0,0,0,0,0,0,0,0,0,1579,4103.0,4712,7171,7522.0,7365.0,9952,12652,14768.0,15798.0
2176,9452,US,91484,27.74,-97.52,Census,US County,TX,"Nueces County, Texas",0,0,0,0,0,0,698,2906,3975,7673,8093,10439,21955,22807,51779.0,92661,165471,221573.0,237544.0,268215,291145,313645.0,340223.0
2205,17025,US,91502,31.2,-99.35,Census,US County,TX,"McCulloch County, Texas",0,0,0,0,0,0,0,0,173,1533,3217,3960,13405,11020,13883.0,13208,11701,8815.0,8571.0,8735,8778,8205.0,8283.0
2210,19844,US,91457,,,Census,US County,TX,"San Saba County, Texas",0,0,0,0,0,0,0,913,1425,5324,6641,7569,0,10045,10273.0,11012,8666,6381.0,5540.0,5693,5401,6186.0,6131.0
2222,8017,US,136668,32.1352777778,-99.7480555556,Census,Town,TX,"Lawn, Texas",0,0,0,0,0,0,0,0,0,0,0,0,0,0,339.0,306,311,310.0,344.0,390,358,353.0,314.0
2241,8699,US,136816,30.7180555556,-97.4411111111,Census,City,TX,"Granger, Texas",0,0,0,0,0,0,0,0,0,0,261,841,1708,1944,1703.0,1723,1637,1339.0,1256.0,1236,1190,1299.0,1419.0
2251,11089,US,91454,32.75,-100.92,Census,US County,TX,"Scurry County, Texas",0,0,0,0,0,0,0,0,0,102,1415,4158,10924,9003,12188.0,11545,22779,20369.0,15760.0,18192,18634,16361.0,16921.0
2263,39569,US,27591285,32.5883333333,-96.9472222222,Census,City,TX,"Cedar Hill, Texas",0,0,0,0,0,0,0,0,0,0,0,0,0,0,0.0,476,732,1848.0,2610.0,6849,19976,32093.0,45028.0
2270,10232,US,136664,32.7594444444,-97.4186111111,Census,City,TX,"Westworth Village, Texas",0,0,0,0,0,0,0,0,0,0,0,0,0,0,0.0,0,529,3321.0,4578.0,3651,2350,2124.0,2472.0
2277,21159,US,151108,30.3486111111,-97.3725,Census,City,TX,"Elgin, Texas",0,0,0,0,0,0,0,0,0,0,0,0,1707,1630,1823.0,2008,3168,3511.0,3832.0,4535,4846,5700.0,8135.0
2294,11483,US,135865,33.4294444444,-96.3402777778,Census,City,TX,"Trenton, Texas",0,0,0,0,0,0,0,0,0,0,0,420,550,616,490.0,634,603,712.0,599.0,691,655,662.0,635.0
2297,28823,US,135484,31.1083333333,-97.3891666667,Census,City,TX,"Temple, Texas",0,0,0,0,0,0,0,0,0,0,4047,7065,10993,11033,15345.0,15344,25467,30419.0,33431.0,42483,46109,54514.0,66102.0
2321,6730,US,136302,31.7525,-96.6505555556,Census,Town,TX,"Coolidge, Texas",0,0,0,0,0,0,0,0,0,0,0,0,505,0,0.0,0,0,0.0,786.0,810,748,848.0,955.0
2332,11094,US,21192809,31.83,-99.97,Census,US County,TX,"Runnels County, Texas",0,0,0,0,0,0,0,0,0,980,3193,5379,20858,17074,21821.0,18903,16771,15016.0,12108.0,11872,11294,11495.0,10501.0
2342,9113,US,136089,26.2419444444,-98.48,Census,City,TX,"La Joya, Texas",0,0,0,0,0,0,0,0,0,0,0,0,0,0,0.0,0,0,0.0,1217.0,2018,2604,3303.0,3985.0
2433,35610,US,135698,33.1972222222,-96.6397222222,Census,City,TX,"McKinney, Texas",0,0,0,0,0,0,315,0,503,1479,2489,4342,4714,6677,7307.0,8555,10560,13763.0,15193.0,16249,21283,54369.0,131117.0
2452,10419,US,136751,29.7836111111,-95.9544444444,Census,City,TX,"Brookshire, Texas",0,0,0,0,0,0,0,0,0,0,0,0,0,0,0.0,0,1015,1339.0,1683.0,2175,2922,3450.0,4702.0
2461,45974,US,136815,30.6511111111,-97.6813888889,Census,City,TX,"Georgetown, Texas",0,0,0,0,0,0,0,0,479,1354,2447,2790,2096,2871,3583.0,3682,4951,5218.0,6395.0,9468,14842,28339.0,47400.0
2471,8285,US,136832,33.0947222222,-97.5633333333,Census,Town,TX,"Boyd, Texas",0,0,0,0,0,0,0,0,0,0,0,0,0,410,342.0,496,550,581.0,695.0,889,1041,1099.0,1207.0
2487,11356,US,136531,32.9338888889,-96.3844444444,Census,City,TX,"Fate, Texas",0,0,0,0,0,0,0,0,0,0,0,0,0,299,194.0,127,141,191.0,329.0,263,475,497.0,6357.0
2497,12457,US,151155,32.5352777778,-96.6669444444,Census,City,TX,"Ferris, Texas",0,0,0,0,0,0,0,0,0,106,311,904,1233,1586,1438.0,1436,1735,1807.0,2155.0,2228,2212,2175.0,2436.0
2499,6153,US,136506,35.0602777778,-101.799444444,Census,Village,TX,"Palisades, Texas",0,0,0,0,0,0,0,0,0,0,0,0,0,0,0.0,0,0,0.0,0.0,0,0,352.0,325.0
2598,7843,US,136354,31.7297222222,-97.2286111111,Census,City,TX,"Gholson, Texas",0,0,0,0,0,0,0,0,0,0,0,0,0,0,0.0,0,0,0.0,0.0,263,692,922.0,1061.0
2610,7557,US,91637,32.97,-94.98,Census,US County,TX,"Camp County, Texas",0,0,0,0,0,0,0,0,0,5951,6624,9146,9551,11103,10063.0,10285,8740,7849.0,8005.0,9275,9904,11549.0,12401.0
2652,9897,US,91472,34.97,-101.9,Census,US County,TX,"Randall County, Texas",0,0,0,0,0,0,0,0,0,3,187,963,3312,3675,7071.0,7185,13774,33913.0,53885.0,75062,89673,104312.0,120725.0
2665,7326,US,135733,31.4188888889,-97.5102777778,Census,City,TX,"Oglesby, Texas",0,0,0,0,0,0,0,0,0,0,0,0,0,0,0.0,0,0,414.0,440.0,470,452,458.0,484.0
2674,35264,US,135558,30.3608333333,-103.665555556,Census,City,TX,"Alpine, Texas",0,0,0,0,0,0,0,0,0,0,0,0,0,931,3495.0,3866,5261,4740.0,5971.0,5465,5622,5786.0,5905.0
2734,172273,US,53838,32.7758333333,-96.7966666667,Census,City,TX,Dallas,0,0,0,0,0,0,1073,698,3000,10358,38069,42639,92104,158976,269475.0,294734,434462,679684.0,844401.0,904078,1006977,1188580.0,1197816.0
2764,6963,US,135734,31.435,-97.6766666667,Census,Town,TX,"South Mountain, Texas",0,0,0,0,0,0,0,0,0,0,0,0,0,0,0.0,0,0,0.0,0.0,0,301,412.0,384.0
2768,20157,US,91512,,,Census,Census Area,TX,"Loving County, Texas",0,0,0,0,0,0,0,0,0,0,3,33,249,82,195.0,285,227,226.0,164.0,91,107,67.0,82.0
2800,10036,US,136693,30.4113888889,-98.045,Census,Village,TX,"Briarcliff, Texas",0,0,0,0,0,0,0,0,0,0,0,0,0,0,0.0,0,0,0.0,0.0,0,335,895.0,1438.0
2841,7690,US,136591,31.9655555556,-94.0483333333,Census,City,TX,"Joaquin, Texas",0,0,0,0,0,0,0,0,0,0,0,0,0,0,407.0,487,579,528.0,819.0,917,805,925.0,824.0
2876,9983,US,91573,30.55,-95.98,Census,US County,TX,"Grimes County, Texas",0,0,0,0,0,0,4008,10307,13218,18603,21312,26106,21205,23101,22642.0,21960,15135,12709.0,11855.0,13580,18828,23552.0,26604.0
2881,10964,US,91618,31.41,-102.52,Census,US County,TX,"Crane County, Texas",0,0,0,0,0,0,0,0,0,0,15,51,331,37,2221.0,2841,3965,4699.0,4172.0,4600,4652,3996.0,4375.0
2885,13082,US,136641,32.6302777778,-97.2841666667,Census,City,TX,"Everman, Texas",0,0,0,0,0,0,0,0,0,0,0,0,0,0,0.0,0,451,1076.0,4570.0,5387,5672,5836.0,6108.0
2959,16323,US,135887,29.6908333333,-95.8905555556,Census,City,TX,"Fulshear, Texas",0,0,0,0,0,0,0,0,0,0,0,0,0,0,0.0,0,0,0.0,0.0,594,557,716.0,1134.0
2988,14129,US,136642,32.6633333333,-97.2683333333,Census,City,TX,"Forest Hill, Texas",0,0,0,0,0,0,0,0,0,0,0,0,0,0,0.0,0,1519,3221.0,8236.0,11684,11482,12949.0,12355.0
2990,10805,US,135906,31.7883333333,-96.4622222222,Census,Town,TX,"Wortham, Texas",0,0,0,0,0,0,0,0,0,245,401,0,899,1100,1404.0,1267,1170,1087.0,1036.0,1187,1020,1082.0,1073.0
2992,8030,US,151242,30.4533333333,-97.7625,Census,CDP,TX,"Jollyville, Texas",0,0,0,0,0,0,0,0,0,0,0,0,0,0,0.0,0,0,0.0,0.0,0,15206,15813.0,16151.0
3027,7635,US,136372,29.1886111111,-98.8580555556,Census,City,TX,"Natalia, Texas",0,0,0,0,0,0,0,0,0,0,0,0,0,0,0.0,0,0,1154.0,1296.0,1264,1216,1663.0,1431.0
3042,10365,US,136232,28.8833333333,-97.9,Census,City,TX,"Karnes City, Texas",0,0,0,0,0,0,0,0,0,0,0,0,0,787,1141.0,1571,2588,2693.0,2926.0,3296,2916,3457.0,3042.0
3043,10621,US,135477,30.8808333333,-97.4044444444,Census,Town,TX,"Holland, Texas",0,0,0,0,0,0,0,0,0,0,368,678,778,690,788.0,741,674,653.0,723.0,863,1118,1102.0,1121.0
3066,9276,US,91646,27.04,-98.21,Census,US County,TX,"Brooks County, Texas",0,0,0,0,0,0,0,0,0,0,0,0,0,4560,5901.0,6362,9195,8609.0,8005.0,8428,8204,7976.0,7223.0
3080,15044,US,135717,29.7486111111,-98.4133333333,Census,City,TX,"Bulverde, Texas",0,0,0,0,0,0,0,0,0,0,0,0,0,0,0.0,0,0,0.0,0.0,0,0,3761.0,4630.0
3087,8537,US,151237,33.0136111111,-97.4883333333,Census,City,TX,"Newark, Texas",0,0,0,0,0,0,0,0,0,0,0,0,0,0,0.0,0,0,392.0,407.0,466,651,887.0,1005.0
3093,7214,US,136309,36.4322222222,-100.141111111,Census,Town,TX,"Follett, Texas",0,0,0,0,0,0,0,0,0,0,0,0,0,0,658.0,431,540,466.0,522.0,547,441,412.0,459.0
3126,12574,US,136380,32.3961111111,-100.862222222,Census,City,TX,"Colorado City, Texas",0,0,0,0,0,0,0,0,0,0,1582,0,1840,1766,4671.0,5213,6774,6457.0,5227.0,5405,4749,4281.0,4146.0
3140,10508,US,91665,33.61,-98.69,Census,US County,TX,"Archer County, Texas",0,0,0,0,0,0,0,0,0,596,2101,2508,6525,5254,9684.0,7599,6816,6110.0,5759.0,7266,7973,8854.0,9054.0
3213,13010,US,91664,34.97,-101.35,Census,US County,TX,"Armstrong County, Texas",0,0,0,0,0,0,0,0,0,31,944,1205,2682,2816,3329.0,2495,2215,1966.0,1895.0,1994,2021,2148.0,1901.0
3253,7979,US,136580,31.2702777778,-98.9455555556,Census,Town,TX,"Richland Springs, Texas",0,0,0,0,0,0,0,0,0,0,0,0,0,0,492.0,541,584,331.0,425.0,420,344,350.0,338.0
3254,14246,US,151214,32.5769444444,-97.3597222222,Census,city,TX,"Crowley, Texas",0,0,0,0,0,0,0,0,0,0,0,0,0,0,0.0,0,0,583.0,2662.0,5852,6974,7467.0,12838.0
3267,9642,US,136575,28.0347222222,-97.5088888889,Census,City,TX,"Sinton, Texas",0,0,0,0,0,0,0,0,0,0,0,0,0,1058,1852.0,3770,4254,6008.0,5563.0,6044,5549,5676.0,5665.0
3268,52318,US,136025,29.7158333333,-95.4330555556,Census,City,TX,"West University Place, Texas",0,0,0,0,0,0,0,0,0,0,0,0,0,0,1322.0,9221,17074,14628.0,13317.0,12010,12920,14211.0,14787.0
3296,10853,US,136406,36.0461111111,-102.002222222,Census,City,TX,"Cactus, Texas",0,0,0,0,0,0,0,0,0,0,0,0,0,0,0.0,0,0,0.0,644.0,898,1529,2538.0,3179.0
3337,8237,US,135647,35.5727777778,-101.1725,Census,Town,TX,"Skellytown, Texas",0,0,0,0,0,0,0,0,0,0,0,0,0,0,0.0,0,0,967.0,716.0,899,664,610.0,473.0
3341,7341,US,136704,30.2747222222,-97.7844444444,Census,City,TX,"Rollingwood, Texas",0,0,0,0,0,0,0,0,0,0,0,0,0,0,0.0,0,0,390.0,780.0,1027,1388,1403.0,1412.0
3353,12556,US,91415,30.74,-95.57,Census,US County,TX,"Walker County, Texas",0,0,0,0,0,0,3964,8191,9766,12024,12874,15813,16061,18556,18528.0,19868,20163,21475.0,27680.0,41789,50917,61758.0,67861.0
3356,21081,US,135902,33.1819444444,-95.2241666667,Census,Town,TX,"Mount Vernon, Texas",0,0,0,0,0,0,0,0,223,311,589,0,0,1212,1222.0,1443,1433,1338.0,1806.0,2025,2219,2286.0,2662.0
3359,25505,US,136423,32.0925,-96.4694444444,Census,City,TX,"Corsicana, Texas",0,0,0,0,0,0,0,0,80,3373,6285,9313,9749,11356,15202.0,15232,19211,20344.0,19972.0,21712,22911,24485.0,23770.0
3383,9735,US,151105,33.5833333333,-98.4333333333,Census,Town,TX,"Windthorst, Texas",0,0,0,0,0,0,0,0,0,0,0,0,0,0,0.0,0,0,0.0,377.0,409,367,440.0,409.0
3390,6093,US,6167511,30.7869444444,-96.2638888889,Census,Town,TX,"Kurten, Texas",0,0,0,0,0,0,0,0,0,0,0,0,0,0,0.0,0,0,0.0,0.0,0,0,0.0,398.0
3455,9849,US,135812,32.47,-98.6766666667,Census,City,TX,"Ranger, Texas",0,0,0,0,0,0,0,0,0,0,0,0,0,16205,6208.0,4553,3989,3313.0,3094.0,3142,2803,2584.0,2468.0
3474,25027,US,135674,34.425,-100.213888889,Census,City,TX,"Childress, Texas",0,0,0,0,0,0,0,0,0,0,0,692,3818,5003,7163.0,6464,7619,6399.0,5408.0,5817,5055,6778.0,6105.0
3484,6542,US,136242,32.6522222222,-96.2616666667,Census,Town,TX,"Oak Ridge, Kaufman County, Texas",0,0,0,0,0,0,0,0,0,0,0,0,0,0,0.0,0,0,0.0,0.0,183,268,400.0,495.0
3526,13849,US,91643,30.78,-98.18,Census,US County,TX,"Burnet County, Texas",0,0,0,0,0,0,0,2487,3688,6855,10747,10528,10755,9499,10355.0,10771,10356,9265.0,11420.0,17803,22677,34147.0,42750.0
3527,19227,US,136682,33.0155555556,-99.0522222222,Census,Town,TX,"Woodson, Texas",0,0,0,0,0,0,0,0,0,0,0,0,0,0,0.0,0,0,337.0,340.0,291,262,296.0,264.0
3558,8522,US,135742,36.3780555556,-103.023055556,Census,Town,TX,"Texline, Texas",0,0,0,0,0,0,0,0,0,0,0,0,0,762,711.0,385,437,430.0,387.0,477,425,511.0,507.0
3559,24791,US,135958,30.3833333333,-96.0833333333,Census,City,TX,"Navasota, Texas",0,0,0,0,0,0,0,0,1509,1611,2997,3857,3284,5060,5128.0,6138,5188,4937.0,5111.0,5971,6296,6789.0,7049.0
3565,17564,US,135678,33.8166666667,-98.2,Census,City,TX,"Henrietta, Texas",0,0,0,0,0,0,0,0,0,0,2100,1614,2104,2563,2020.0,2391,2813,3062.0,2897.0,3149,2896,3264.0,3141.0
3570,7870,US,136509,29.6691666667,-100.011666667,Census,City,TX,"Camp Wood, Texas",0,0,0,0,0,0,0,0,0,0,0,0,0,0,0.0,778,785,879.0,660.0,728,595,734.0,706.0
3619,10225,US,136257,33.5833333333,-99.7933333333,Census,City,TX,"Benjamin, Texas",0,0,0,0,0,0,0,0,0,0,0,0,0,0,485.0,599,530,338.0,308.0,257,225,264.0,258.0
3660,26551,US,91627,,,Census,US County,TX,"Collin County, Texas",0,0,0,0,0,0,1950,9264,14013,25983,36736,50087,49021,49609,46180.0,47190,41692,41247.0,66920.0,144576,264036,491675.0,782341.0
3684,6584,US,136358,31.7316666667,-97.0202777778,Census,City,TX,"Leroy, Texas",0,0,0,0,0,0,0,0,0,0,0,0,0,0,0.0,0,0,0.0,0.0,253,292,335.0,337.0
3721,17272,US,136222,32.3516666667,-97.3925,Census,City,TX,"Cleburne, Texas",0,0,0,0,0,0,0,0,686,1855,3278,7493,10364,12820,11539.0,10558,12905,15381.0,16015.0,19218,22205,26005.0,29337.0
3735,6682,US,136238,32.4705555556,-96.3511111111,Census,Village,TX,"Grays Prairie, Texas",0,0,0,0,0,0,0,0,0,0,0,0,0,0,0.0,0,0,0.0,0.0,0,286,296.0,337.0
3743,5961,US,6081050,32.4905555556,-95.4575,Census,Town,TX,"Hideaway, Texas",0,0,0,0,0,0,0,0,0,0,0,0,0,0,0.0,0,0,0.0,0.0,0,0,0.0,3083.0
3756,8797,US,91608,,,Census,US County,TX,"Delta County, Texas",0,0,0,0,0,0,0,0,0,5597,9117,15249,14566,15887,13138.0,12858,8964,5860.0,4927.0,4839,4857,5327.0,5231.0
3780,17041,US,91667,31.26,-94.61,Census,US County,TX,"Angelina County, Texas",0,0,0,0,0,0,1165,4271,3985,5239,6306,13481,17705,22287,27803.0,32201,36032,39814.0,49349.0,64172,69884,80130.0,86771.0
3784,8334,US,135940,33.6136111111,-96.4108333333,Census,Town,TX,"Bells, Texas",0,0,0,0,0,0,0,0,0,65,429,474,496,585,428.0,454,614,707.0,778.0,846,962,1190.0,1392.0
3801,45101,US,136020,30.0541666667,-95.3869444444,Census,Census-designated place,TX,"Spring, Texas",0,0,0,0,0,0,0,0,0,0,0,0,0,0,0.0,0,0,0.0,0.0,0,33111,36385.0,54298.0
3802,18812,US,135933,28.6666666667,-97.4,Census,City,TX,"Goliad, Texas",0,0,0,0,0,0,0,0,0,885,0,0,0,0,1424.0,1446,1584,1782.0,1709.0,1990,1946,1975.0,1908.0
3823,10041,US,151132,32.1408333333,-95.3216666667,Census,Town,TX,"Bullard, Texas",0,0,0,0,0,0,0,0,0,0,0,0,0,0,0.0,0,317,364.0,573.0,681,890,1150.0,2463.0
3843,7964,US,136287,31.3622222222,-96.1447222222,Census,City,TX,"Jewett, Texas",0,0,0,0,0,0,0,0,0,227,363,0,586,460,516.0,515,598,445.0,447.0,597,668,861.0,1167.0
3854,18270,US,135567,27.2266666667,-98.145,Census,City,TX,"Falfurrias, Texas",0,0,0,0,0,0,0,0,0,0,0,0,0,0,0.0,0,6712,6515.0,6355.0,6103,5788,5297.0,4981.0
3857,62435,US,151140,33.0166666667,-96.6833333333,Census,City,TX,"Plano, Texas",0,0,0,0,0,0,0,0,155,556,842,1304,1258,1715,1554.0,1582,2126,3695.0,17872.0,72331,128713,222030.0,259841.0
3859,13943,US,135754,32.8036111111,-96.5697222222,Census,Town,TX,"Sunnyvale, Texas",0,0,0,0,0,0,0,0,0,0,0,0,0,0,0.0,0,0,969.0,995.0,1404,2228,2693.0,5130.0
3865,12236,US,136023,29.5741666667,-95.0552777778,Census,City,TX,"Taylor Lake Village, Texas",0,0,0,0,0,0,0,0,0,0,0,0,0,0,0.0,0,0,0.0,990.0,3669,3394,3694.0,3544.0
3868,6561,US,136243,32.6322222222,-96.3136111111,Census,Town,TX,"Post Oak Bend City, Texas",0,0,0,0,0,0,0,0,0,0,0,0,0,0,0.0,0,0,0.0,0.0,266,264,404.0,595.0
3922,6974,US,136129,31.9697222222,-97.0038888889,Census,Town,TX,"Bynum, Texas",0,0,0,0,0,0,0,0,0,0,0,0,0,0,0.0,0,0,0.0,0.0,232,192,225.0,199.0
3938,7090,US,151216,32.8002777778,-99.6236111111,Census,City,TX,"Lueders, Texas",0,0,0,0,0,0,0,0,0,0,0,0,0,0,0.0,0,708,654.0,511.0,420,365,300.0,346.0
3951,7206,US,136422,32.0922222222,-96.7172222222,Census,Town,TX,"Blooming Grove, Texas",0,0,0,0,0,0,0,0,0,79,175,585,903,898,771.0,821,736,729.0,740.0,823,847,833.0,821.0
3969,14689,US,136100,26.2113888889,-98.3213888889,Census,City,TX,"Mission, Texas",0,0,0,0,0,0,0,0,0,0,0,0,0,3847,5120.0,5982,2940,14081.0,13043.0,22589,31100,45408.0,77058.0
3980,14996,US,136742,32.6777777778,-95.7113888889,Census,City,TX,"Grand Saline, Texas",0,0,0,0,0,0,0,0,0,0,0,0,1065,1528,1799.0,1641,1810,2006.0,2257.0,2709,2630,3028.0,3136.0
3996,8253,US,136739,32.6969444444,-95.885,Census,Town,TX,"Edgewood, Texas",0,0,0,0,0,0,0,0,0,83,0,0,0,820,761.0,738,834,887.0,1176.0,1413,1284,1348.0,1441.0
4002,7468,US,91424,30.77,-94.38,Census,US County,TX,"Tyler County, Texas",0,0,0,0,0,0,1894,4525,5010,5825,10877,11899,10250,10415,11448.0,11948,11292,10666.0,12417.0,16223,16646,20871.0,21766.0
4018,9008,US,91506,32.3,-101.96,Census,US County,TX,"Martin County, Texas",0,0,0,0,0,0,0,0,0,12,264,332,1549,1146,5785.0,5556,5541,5068.0,4774.0,4684,4956,4746.0,4799.0
4024,22237,US,136192,30.9222222222,-93.9988888889,Census,City,TX,"Jasper, Texas",0,0,0,0,0,0,0,0,0,377,0,0,0,0,3393.0,3497,4403,4889.0,6251.0,6959,6959,8247.0,7590.0
4040,14487,US,135530,29.3936111111,-95.2716666667,Census,City,TX,"Alvin, Texas",0,0,0,0,0,0,0,0,0,0,261,996,1453,1519,1511.0,3087,3701,5643.0,10671.0,16515,19220,21413.0,24236.0
4058,8388,US,136259,33.4175,-99.815,Census,Town,TX,"Knox City, Texas",0,0,0,0,0,0,0,0,0,0,0,0,0,698,906.0,1127,1489,1805.0,1536.0,1546,1440,1219.0,1130.0
4062,14714,US,136637,32.6966666667,-97.1558333333,Census,City,TX,"Dalworthington Gardens, Texas",0,0,0,0,0,0,0,0,0,0,0,0,0,0,0.0,0,267,430.0,757.0,1100,1758,2186.0,2259.0
4126,6561,US,135971,34.0641666667,-101.843888889,Census,City,TX,"Hale Center, Texas",0,0,0,0,0,0,0,0,0,0,0,0,0,0,1007.0,836,1626,2196.0,1964.0,2297,2067,2263.0,2252.0
4192,12357,US,135441,28.0486111111,-97.0411111111,Census,City,TX,"Rockport, Texas",0,0,0,0,0,0,0,0,0,0,1069,1153,1382,1545,1140.0,1729,2266,2989.0,3879.0,3686,4753,7385.0,8766.0
4197,16938,US,91481,32.75,-98.31,Census,US County,TX,"Palo Pinto County, Texas",0,0,0,0,0,0,0,1524,0,5885,8320,12291,19506,23431,17576.0,18456,17154,20516.0,28962.0,24062,25055,27026.0,28111.0
4226,7068,US,136595,36.4966666667,-101.785277778,Census,City,TX,"Texhoma, Texas",0,0,0,0,0,0,0,0,0,0,0,0,0,313,300.0,191,299,350.0,356.0,358,291,371.0,346.0
4232,10458,US,91469,33.62,-95.05,Census,US County,TX,"Red River County, Texas",0,0,0,0,0,0,3906,8535,10653,17194,21452,29893,28564,35829,30923.0,29769,21851,15682.0,14298.0,16101,14317,14314.0,12860.0
4291,17193,US,135496,29.5991666667,-98.4852777778,Census,Town,TX,"Hollywood Park, Texas",0,0,0,0,0,0,0,0,0,0,0,0,0,0,0.0,0,0,783.0,2299.0,3231,2841,2983.0,3062.0
4322,10134,US,136593,31.9063888889,-94.3977777778,Census,City,TX,"Timpson, Texas",0,0,0,0,0,0,0,0,0,0,518,0,1528,1526,1545.0,1494,1455,1120.0,1254.0,1164,1029,1094.0,1155.0
4331,16528,US,136248,29.9694444444,-98.9072222222,Census,CDP,TX,"Comfort, Texas",0,0,0,0,0,0,0,0,0,0,0,0,0,713,0.0,0,0,1212.0,0.0,0,1477,2358.0,2363.0
4361,20478,US,136653,32.8555555556,-97.2180555556,Census,City,TX,"North Richland Hills, Texas",0,0,0,0,0,0,0,0,0,0,0,0,0,0,0.0,0,0,8662.0,16514.0,30592,45895,55635.0,63343.0
4363,9889,US,91601,32.33,-98.83,Census,US County,TX,"Eastland County, Texas",0,0,0,0,0,0,0,99,88,4855,10373,17971,23421,58505,34156.0,30345,23942,19526.0,18092.0,19480,18488,18297.0,18583.0
4368,16621,US,135450,28.9669444444,-98.485,Census,City,TX,"Pleasanton, Texas",0,0,0,0,0,0,0,0,206,393,367,0,0,1036,1154.0,2074,2913,3467.0,5407.0,6346,7678,8266.0,8934.0
4413,8973,US,135724,31.5077777778,-99.9233333333,Census,Town,TX,"Paint Rock, Texas",0,0,0,0,0,0,0,0,0,0,323,0,0,0,0.0,0,0,0.0,193.0,256,227,320.0,273.0
4423,6265,US,135679,33.8741666667,-98.3486111111,Census,City,TX,"Jolly, Texas",0,0,0,0,0,0,0,0,0,0,0,0,0,0,0.0,0,0,0.0,0.0,174,201,188.0,172.0
4434,7021,US,136765,31.5797222222,-102.923611111,Census,Town,TX,"Thorntonville, Texas",0,0,0,0,0,0,0,0,0,0,0,0,0,0,0.0,0,0,0.0,629.0,717,693,442.0,476.0
4439,7645,US,135545,29.2991666667,-95.2775,Census,City,TX,"Liverpool, Texas",0,0,0,0,0,0,0,0,0,0,0,0,0,0,0.0,0,0,0.0,319.0,602,396,404.0,482.0
4450,12055,US,91633,,,Census,US County,TX,"Chambers County, Texas",0,0,0,0,0,0,0,1508,1503,2187,2241,3046,4234,4162,5710.0,7511,7871,10379.0,12187.0,18538,20088,26031.0,35096.0
4452,6927,US,151135,32.0855555556,-100.319722222,Census,City,TX,"Blackwell, Texas",0,0,0,0,0,0,0,0,0,0,0,0,0,0,0.0,0,0,314.0,279.0,286,339,360.0,311.0
4497,15008,US,151246,31.5877777778,-102.890555556,Census,City,TX,"Monahans, Texas",0,0,0,0,0,0,0,0,0,0,0,0,0,0,816.0,3944,6311,8567.0,8333.0,8397,8101,6821.0,6953.0
4545,10746,US,91537,32.74,-99.88,Census,US County,TX,"Jones County, Texas",0,0,0,0,0,0,0,0,0,546,3797,7053,24299,22323,24233.0,23378,22147,19299.0,16106.0,17268,16490,20785.0,20202.0
4578,19961,US,91615,31.45,-104.52,Census,US County,TX,"Culberson County, Texas",0,0,0,0,0,0,0,0,0,0,0,0,0,912,1228.0,1653,1825,2794.0,3429.0,3315,3407,2975.0,2398.0
4614,7969,US,136780,27.3647222222,-99.4794444444,Census,City,TX,"Rio Bravo, Texas",0,0,0,0,0,0,0,0,0,0,0,0,0,0,0.0,0,0,0.0,0.0,0,0,5553.0,4794.0
4615,7984,US,91453,32.73,-99.35,Census,US County,TX,"Shackelford County, Texas",0,0,0,0,0,0,0,44,455,2037,2012,2461,4201,4960,6695.0,6211,5001,3990.0,3323.0,3915,3316,3302.0,3378.0
4624,91287,US,135997,29.7070944444,-95.4673861111,Census,City,TX,"Bellaire, Texas",0,0,0,0,0,0,0,0,0,0,0,0,0,0,390.0,1124,10173,19872.0,19009.0,14950,13842,15642.0,16855.0
4642,7041,US,136838,33.1502777778,-97.6886111111,Census,City,TX,"Paradise, Texas",0,0,0,0,0,0,0,0,0,0,0,0,0,0,0.0,0,0,0.0,0.0,0,0,459.0,441.0
4666,17474,US,135801,34.9363888889,-100.891111111,Census,City,TX,"Clarendon, Texas",0,0,0,0,0,0,0,0,0,0,949,0,1946,2456,2756.0,2431,2577,2172.0,1974.0,2220,2067,1974.0,2026.0
4720,14706,US,135809,32.3847222222,-98.9813888889,Census,City,TX,"Cisco, Texas",0,0,0,0,0,0,0,0,0,0,1063,1514,2410,7422,6027.0,4868,5230,4499.0,4160.0,4517,3813,3851.0,3899.0
4743,35896,US,135554,30.6655555556,-96.3666666667,Census,City,TX,"Bryan, Texas",0,0,0,0,0,0,0,0,0,0,2979,3589,4132,6307,7814.0,11842,18072,27542.0,33719.0,44337,55002,65660.0,76201.0
4755,7278,US,135541,29.2094444444,-95.5180555556,Census,Town,TX,"Holiday Lakes, Texas",0,0,0,0,0,0,0,0,0,0,0,0,0,0,0.0,0,0,0.0,0.0,0,1039,1095.0,1107.0
4770,25669,US,136498,30.3119444444,-104.024722222,Census,City,TX,"Marfa, Texas",0,0,0,0,0,0,0,0,0,0,0,0,0,3553,3909.0,3805,3603,2799.0,2647.0,2466,2424,2121.0,1981.0
4785,7858,US,136231,28.9833333333,-98.0166666667,Census,City,TX,"Falls City, Texas",0,0,0,0,0,0,0,0,0,0,0,0,0,0,0.0,0,422,462.0,442.0,580,478,591.0,611.0
4787,12889,US,91569,31.7,-98.11,Census,US County,TX,"Hamilton County, Texas",0,0,0,0,0,0,0,489,733,6365,6313,13520,15315,14676,13523.0,13303,10660,8488.0,7198.0,8297,7733,8229.0,8517.0
4788,10064,US,151208,35.6397222222,-101.600833333,Census,City,TX,"Fritch, Texas",0,0,0,0,0,0,0,0,0,0,0,0,0,0,0.0,0,0,1617.0,1778.0,2299,2335,2235.0,2117.0
4797,10393,US,91663,28.89,-98.53,Census,US County,TX,"Atascosa County, Texas",0,0,0,0,0,0,0,1578,2915,4217,6459,7143,10004,12702,15654.0,19275,20048,18828.0,18696.0,25055,30533,38628.0,44911.0
4817,9223,US,136408,36.0191666667,-101.823888889,Census,City,TX,"Sunray, Texas",0,0,0,0,0,0,0,0,0,0,0,0,0,0,0.0,0,1530,1967.0,1854.0,1952,1729,1950.0,1926.0
4839,12646,US,135543,28.9791666667,-95.4758333333,Census,Village,TX,"Jones Creek, Texas",0,0,0,0,0,0,0,0,0,0,0,0,0,0,0.0,0,0,0.0,1763.0,2634,2160,2130.0,2020.0
4906,15277,US,136246,32.7375,-96.2825,Census,City,TX,"Terrell, Texas",0,0,0,0,0,0,0,0,0,2003,2988,6330,7050,8349,8795.0,10481,11544,13803.0,14182.0,13169,12490,13606.0,15816.0
4918,6970,US,136147,32.5186111111,-98.0452777778,Census,City,TX,"Lipan, Texas",0,0,0,0,0,0,0,0,0,0,0,0,0,0,0.0,0,0,309.0,333.0,435,354,425.0,430.0
4932,18250,US,91597,,,Census,US County,TX,"Ellis County, Texas",0,0,0,0,0,0,989,5246,7514,21294,31774,50059,53629,55700,53936.0,47733,45645,43395.0,46638.0,59743,85167,111360.0,149610.0
4934,8127,US,136826,29.2361111111,-97.9638888889,Census,City,TX,"Stockdale, Texas",0,0,0,0,0,0,0,0,0,97,0,0,0,0,696.0,926,1105,1111.0,1132.0,1265,1268,1398.0,1442.0
4939,7080,US,135609,26.0877777778,-97.5025,Census,Town,TX,"Indian Lake, Texas",0,0,0,0,0,0,0,0,0,0,0,0,0,0,0.0,0,0,0.0,0.0,0,390,541.0,640.0
4963,24529,US,7283040,29.2775,-98.6575,Census,City,TX,"Von Ormy, Texas",0,0,0,0,0,0,0,0,0,0,0,0,0,0,0.0,0,0,0.0,0.0,0,0,0.0,1085.0
4971,17933,US,136378,31.4505555556,-98.5711111111,Census,City,TX,"Goldthwaite, Texas",0,0,0,0,0,0,0,0,0,0,0,1282,1129,1214,1324.0,1414,1566,1383.0,1693.0,1783,1658,1802.0,1878.0
5002,8130,US,135517,31.9247222222,-97.6566666667,Census,City,TX,"Meridian, Texas",0,0,0,0,0,0,0,0,0,0,0,923,718,1024,759.0,1016,1146,993.0,1162.0,1330,1390,1491.0,1493.0
5005,14753,US,135889,29.4477777778,-95.9997222222,Census,City,TX,"Kendleton, Texas",0,0,0,0,0,0,0,0,0,0,0,0,0,0,0.0,0,0,0.0,0.0,606,496,466.0,380.0
5012,7333,US,136136,32.0586111111,-96.895,Census,Town,TX,"Mertens, Texas",0,0,0,0,0,0,0,0,0,0,0,0,0,342,338.0,251,210,104.0,109.0,133,104,146.0,125.0
5017,6629,US,136361,31.3075,-97.3602777778,Census,City,TX,"Moody, Texas",0,0,0,0,0,0,0,0,0,0,432,0,983,1106,1014.0,931,1084,1074.0,1286.0,1385,1329,1400.0,1371.0
5027,5291,US,3936822,30.7755555556,-95.9491666667,Census,City,TX,"Bedias, Texas",0,0,0,0,0,0,0,0,0,0,0,0,0,0,0.0,0,0,0.0,0.0,0,0,0.0,443.0
5029,12380,US,91634,34.53,-102.26,Census,US County,TX,"Castro County, Texas",0,0,0,0,0,0,0,0,0,0,9,400,1850,1948,4720.0,4631,5417,8923.0,10394.0,10556,9070,8285.0,8062.0
5040,18539,US,136390,30.3894444444,-95.6980555556,Census,City,TX,"Montgomery, Texas",0,0,0,0,0,0,0,0,0,414,0,0,0,0,0.0,0,0,0.0,216.0,258,356,489.0,621.0
5054,7964,US,91516,36.28,-100.27,Census,US County,TX,"Lipscomb County, Texas",0,0,0,0,0,0,0,0,0,69,632,790,2634,3684,4512.0,3764,3658,3406.0,3486.0,3766,3143,3057.0,3302.0
5062,11323,US,136081,26.1383333333,-98.3036111111,Census,City,TX,"Granjeno, Texas",0,0,0,0,0,0,0,0,0,0,0,0,0,0,0.0,0,0,0.0,0.0,0,0,313.0,293.0
5064,8078,US,136158,31.3558333333,-95.1852777778,Census,City,TX,"Kennard, Texas",0,0,0,0,0,0,0,0,0,0,0,0,0,0,0.0,0,0,0.0,448.0,424,341,317.0,337.0
5094,8755,US,136594,36.3361111111,-102.071388889,Census,City,TX,"Stratford, Texas",0,0,0,0,0,0,0,0,0,0,0,0,520,472,873.0,877,1385,1380.0,2139.0,1917,1781,1991.0,2017.0
5111,12573,US,136684,33.1577777778,-94.97,Census,City,TX,"Mount Pleasant, Texas",0,0,0,0,0,0,0,0,275,452,963,0,3137,4099,3541.0,4528,6342,8027.0,9459.0,11003,12291,13935.0,15564.0
5155,10030,US,151180,32.8866666667,-100.125277778,Census,City,TX,"Hamlin, Texas",0,0,0,0,0,0,0,0,0,0,0,0,1978,1633,2828.0,2406,3569,3791.0,3325.0,3248,2791,2248.0,2124.0
5167,7916,US,91563,35.84,-102.61,Census,US County,TX,"Hartley County, Texas",0,0,0,0,0,0,0,0,0,100,252,377,1298,1109,2185.0,1873,1913,2171.0,2782.0,3987,3637,5537.0,6062.0
5184,17719,US,91449,32.38,-95.27,Census,US County,TX,"Smith County, Texas",0,0,0,0,0,0,4292,13392,16532,21863,28324,37370,41746,46769,53123.0,69090,74701,86350.0,97096.0,128366,151309,174706.0,209714.0
5188,18538,US,135748,32.6463888889,-96.9113888889,Census,City,TX,"Duncanville, Texas",0,0,0,0,0,0,0,0,0,0,0,0,0,0,0.0,0,841,3774.0,14105.0,27781,35748,36081.0,38524.0
5193,7167,US,136428,32.1163888889,-96.2208333333,Census,City,TX,"Goodlow, Texas",0,0,0,0,0,0,0,0,0,0,0,0,0,0,0.0,0,0,0.0,345.0,343,319,264.0,200.0
5226,9848,US,135435,31.1861111111,-94.7852777778,Census,City,TX,"Diboll, Texas",0,0,0,0,0,0,0,0,0,0,0,0,0,0,1363.0,0,0,0.0,3557.0,5227,4341,5470.0,4776.0
5296,18623,US,91397,33.18,-98.7,Census,US County,TX,"Young County, Texas",0,0,0,0,0,0,0,592,135,4726,5049,6540,13657,13379,20128.0,19004,16810,17254.0,15400.0,19001,18126,17943.0,18550.0
5305,7769,US,136564,27.9205555556,-97.2925,Census,City,TX,"Gregory, Texas",0,0,0,0,0,0,0,0,0,0,0,0,0,0,0.0,0,0,1970.0,2246.0,2739,2458,2318.0,1907.0
5336,11510,US,136203,29.9808333333,-93.9602777778,Census,City,TX,"Port Neches, Texas",0,0,0,0,0,0,0,0,0,0,0,0,0,0,2327.0,2487,5448,8696.0,10894.0,13944,12974,13601.0,13040.0
5421,10739,US,136233,28.8166666667,-97.85,Census,City,TX,"Kenedy, Texas",0,0,0,0,0,0,0,0,0,0,0,0,1147,2015,2610.0,2891,4234,4301.0,4156.0,4356,3763,3487.0,3296.0
5435,9135,US,91508,30.97,-95.93,Census,US County,TX,"Madison County, Texas",0,0,0,0,0,0,0,2238,4061,5395,8512,10432,10318,11956,12227.0,12029,7996,6749.0,7693.0,10649,10931,12940.0,13664.0
5442,8688,US,135765,33.1438888889,-97.0722222222,Census,City,TX,"Corinth, Texas",0,0,0,0,0,0,0,0,0,0,0,0,0,0,0.0,0,0,0.0,461.0,1264,3944,11325.0,19935.0
5476,9515,US,136456,36.3916666667,-100.806111111,Census,City,TX,"Perryton, Texas",0,0,0,0,0,0,0,0,0,0,0,0,0,0,2824.0,2325,4417,7903.0,7810.0,7991,7607,7774.0,8802.0
5490,26811,US,151137,33.1413888889,-96.8130555556,Census,City,TX,"Frisco, Texas",0,0,0,0,0,0,0,0,0,0,0,0,332,733,618.0,670,736,1184.0,1845.0,3420,6138,33714.0,116989.0
5492,17983,US,135713,29.7058333333,-96.5461111111,Census,City,TX,"Columbus, Texas",0,0,0,0,0,0,0,0,0,1959,2199,1824,1655,1433,2054.0,2422,2878,3656.0,3342.0,3923,3367,3916.0,3655.0
5536,42896,US,151174,31.8633333333,-102.365555556,Census,City,TX,"Odessa, Texas",0,0,0,0,0,0,0,0,0,0,0,0,0,0,2407.0,9573,29495,80338.0,78380.0,90027,89699,90943.0,99940.0
5667,6139,US,136155,33.3266666667,-95.5697222222,Census,Town,TX,"Tira, Texas",0,0,0,0,0,0,0,0,0,0,0,0,0,0,0.0,0,0,0.0,0.0,249,237,248.0,297.0
5716,8268,US,135505,29.2269444444,-98.6575,Census,City,TX,"Somerset, Texas",0,0,0,0,0,0,0,0,0,0,0,0,0,0,0.0,0,0,0.0,0.0,1102,1144,1550.0,1631.0
5759,13989,US,136458,35.2455555556,-102.425,Census,City,TX,"Vega, Texas",0,0,0,0,0,0,0,0,0,0,0,0,0,0,519.0,515,620,658.0,839.0,900,840,936.0,884.0
5767,6974,US,136511,33.5819444444,-94.9136111111,Census,Town,TX,"Annona, Texas",0,0,0,0,0,0,0,0,0,0,267,0,0,0,426.0,446,392,369.0,373.0,471,329,282.0,315.0
5825,7103,US,135556,30.4663888889,-96.2027777778,Census,Town,TX,"Millican, Texas",0,0,0,0,0,0,0,0,0,0,0,0,0,0,0.0,0,0,0.0,0.0,0,0,108.0,240.0
5828,10126,US,135502,29.475,-98.4880555556,Census,City,TX,"Olmos Park, Texas",0,0,0,0,0,0,0,0,0,0,0,0,0,0,0.0,1822,2841,2457.0,2250.0,2069,2161,2343.0,2237.0
5830,7110,US,136550,31.3063888889,-94.2688888889,Census,Town,TX,"Broaddus, Texas",0,0,0,0,0,0,0,0,0,0,0,0,0,0,0.0,0,0,0.0,0.0,225,212,189.0,207.0
5836,10804,US,136725,31.2244444444,-101.940833333,Census,City,TX,"Rankin, Texas",0,0,0,0,0,0,0,0,0,0,0,0,0,0,935.0,672,1139,1214.0,1105.0,1216,1011,800.0,778.0
5861,15157,US,91408,33.99,-98.71,Census,US County,TX,"Wichita County, Texas",0,0,0,0,0,0,0,0,0,433,4831,5806,16094,72911,74416.0,73604,98493,123528.0,120563.0,121082,122378,131664.0,131500.0
5862,20249,US,136154,33.1341666667,-95.6019444444,Census,City,TX,"Sulphur Springs, Texas",0,0,0,0,0,0,0,621,921,1854,3038,3635,5151,5558,5417.0,6742,8991,9160.0,10642.0,12804,14062,14551.0,15449.0
5864,27764,US,151186,29.6241666667,-95.5633333333,Census,City,TX,"Stafford, Texas",0,0,0,0,0,0,0,0,0,0,0,0,0,0,0.0,0,0,1485.0,2906.0,4755,8397,15681.0,17693.0
5870,9333,US,91626,34.97,-100.27,Census,US County,TX,"Collingsworth County, Texas",0,0,0,0,0,0,0,0,0,6,357,1233,5224,9154,14461.0,10331,9139,6276.0,4755.0,4648,3573,3206.0,3057.0
5872,6986,US,135682,33.6,-102.613888889,Census,Community,TX,"Whiteface, Texas",0,0,0,0,0,0,0,0,0,0,0,0,0,0,0.0,0,579,535.0,394.0,463,512,465.0,449.0
5881,12902,US,135487,29.4897222222,-98.5480555556,Census,City,TX,"Balcones Heights, Texas",0,0,0,0,0,0,0,0,0,0,0,0,0,0,0.0,0,376,950.0,2504.0,2640,3022,3016.0,2941.0
5884,7698,US,136122,26.275,-98.5683333333,Census,City,TX,"Sullivan City, Texas",0,0,0,0,0,0,0,0,0,0,0,0,0,0,0.0,0,0,0.0,0.0,0,0,3998.0,4002.0
5900,6843,US,136516,33.6616666667,-95.2644444444,Census,Town,TX,"Detroit, Texas",0,0,0,0,0,0,0,0,0,0,0,0,0,0,0.0,1064,679,576.0,668.0,805,706,776.0,732.0
5902,6280,US,136495,30.8536111111,-94.8563888889,Census,City,TX,"Seven Oaks, Texas",0,0,0,0,0,0,0,0,0,0,0,0,0,0,0.0,0,0,0.0,224.0,300,171,131.0,111.0
5907,8046,US,151139,33.0611111111,-96.3133333333,Census,City,TX,"Josephine, Texas",0,0,0,0,0,0,0,0,0,0,0,0,0,0,0.0,0,0,296.0,296.0,416,503,594.0,812.0
5948,6960,US,135652,33.2516666667,-94.115,Census,Town,TX,"Domino, Texas",0,0,0,0,0,0,0,0,0,0,0,0,0,0,0.0,0,0,0.0,0.0,249,101,52.0,93.0
5968,23579,US,135840,32.3322222222,-96.6241666667,Census,City,TX,"Ennis, Texas",0,0,0,0,0,0,0,0,0,1351,2171,4919,5669,7224,7069.0,7087,7815,9347.0,11046.0,12102,14278,16454.0,18513.0
5993,22169,US,135745,32.7386111111,-96.8891666667,Census,City,TX,"Cockrell Hill, Texas",0,0,0,0,0,0,0,0,0,0,0,0,0,0,0.0,1246,2207,3104.0,3515.0,3262,3746,4443.0,4193.0
6036,18365,US,91547,35.84,-101.36,Census,US County,TX,"Hutchinson County, Texas",0,0,0,0,0,0,0,0,0,50,58,303,892,721,14848.0,19069,31580,34419.0,24443.0,26304,25689,23857.0,22150.0
6044,26920,US,135528,33.4372222222,-94.0675,Census,City,TX,"Texarkana, Texas",0,0,0,0,0,0,0,0,0,1833,2852,5256,9790,11480,16602.0,17019,24753,30218.0,30497.0,31271,31656,34782.0,36411.0
6080,10494,US,136444,27.5852777778,-97.7994444444,Census,City,TX,"Bishop, Texas",0,0,0,0,0,0,0,0,0,0,0,0,0,0,953.0,1329,2731,3722.0,3466.0,3706,3337,3305.0,3134.0
6126,14645,US,135646,35.3475,-101.381944444,Census,Town,TX,"Panhandle, Texas",0,0,0,0,0,0,0,0,0,0,0,0,521,638,2035.0,978,1406,1958.0,2141.0,2226,2353,2589.0,2452.0
6138,17826,US,136633,32.8466666667,-97.1397222222,Census,City,TX,"Bedford, Texas",0,0,0,0,0,0,0,0,0,0,0,0,0,0,0.0,0,0,2706.0,10049.0,20821,43762,47152.0,46979.0
6161,7965,US,135563,34.4713888889,-101.304722222,Census,City,TX,"Silverton, Texas",0,0,0,0,0,0,0,0,0,0,0,0,0,416,873.0,684,857,1098.0,1026.0,918,779,771.0,731.0
6191,6712,US,136462,30.1083333333,-93.7738888889,Census,City,TX,"Pinehurst, Orange County, Texas",0,0,0,0,0,0,0,0,0,0,0,0,0,0,0.0,0,0,1703.0,2198.0,2928,2682,2274.0,2097.0
6226,8122,US,135796,28.5708333333,-99.5702777778,Census,City,TX,"Big Wells, Texas",0,0,0,0,0,0,0,0,0,0,0,0,0,0,0.0,866,1077,801.0,711.0,939,756,704.0,697.0
6251,8638,US,136708,30.3469444444,-97.9811111111,Census,Type B General Law City,TX,"The Hills, Texas",0,0,0,0,0,0,0,0,0,0,0,0,0,0,0.0,0,0,0.0,0.0,0,0,1492.0,2472.0
6253,9103,US,91552,33.15,-95.56,Census,US County,TX,"Hopkins County, Texas",0,0,0,0,0,0,2623,7745,12651,15461,20572,27950,31038,34791,29410.0,30264,23490,18594.0,20710.0,25247,28833,31960.0,35161.0
6311,5472,US,12019729,29.8622222222,-94.1311111111,Census,City,TX,"Taylor Landing, Texas",0,0,0,0,0,0,0,0,0,0,0,0,0,0,0.0,0,0,0.0,0.0,0,0,0.0,228.0
6327,15590,US,136729,29.2144444444,-99.7897222222,Census,City,TX,"Uvalde, Texas",0,0,0,0,0,0,0,0,0,794,1265,1889,3998,3885,5286.0,6679,8674,10293.0,10764.0,14178,14729,14929.0,15751.0
6338,9864,US,151110,30.7955555556,-97.4305555556,Census,City,TX,"Bartlett, Texas",0,0,0,0,0,0,0,0,0,0,206,957,1815,1731,1873.0,1668,1727,1540.0,1622.0,1567,1439,1675.0,1623.0
6342,9035,US,91465,31.03,-96.51,Census,US County,TX,"Robertson County, Texas",0,0,0,0,0,0,934,4997,9990,22383,26506,31480,27454,27933,27240.0,25710,19908,16157.0,14389.0,14653,15511,16000.0,16622.0
6368,9434,US,136660,32.8038888889,-97.4027777778,Census,City,TX,"Sansom Park, Texas",0,0,0,0,0,0,0,0,0,0,0,0,0,0,0.0,0,1611,4175.0,4771.0,3921,3928,4181.0,4686.0
6384,7269,US,135677,33.9280555556,-98.3791666667,Census,City,TX,"Dean, Texas",0,0,0,0,0,0,0,0,0,0,0,0,0,0,0.0,0,0,0.0,0.0,212,277,341.0,493.0
6391,7390,US,136483,32.7538888889,-97.65,Census,City,TX,"Willow Park, Texas",0,0,0,0,0,0,0,0,0,0,0,0,0,0,0.0,0,0,0.0,230.0,1152,2328,2849.0,3982.0
6403,7811,US,136669,32.4683333333,-100.013333333,Census,Town,TX,"Merkel, Texas",0,0,0,0,0,0,0,0,0,0,353,0,2008,1810,1848.0,2005,2338,2312.0,2163.0,2493,2469,2637.0,2590.0
6431,9298,US,151120,31.6575,-97.4725,Census,City,TX,"Valley Mills, Texas",0,0,0,0,0,0,0,0,0,113,300,519,708,855,936.0,803,1037,1061.0,1022.0,1236,1085,1123.0,1203.0
6440,43262,US,136402,30.1775,-95.5038888889,Census,Census-designated place and Special-purpose district,TX,"The Woodlands, Texas",0,0,0,0,0,0,0,0,0,0,0,0,0,0,0.0,0,0,0.0,0.0,8443,29205,55649.0,93847.0
6447,7654,US,135561,34.3663888889,-101.055277778,Census,City,TX,"Quitaque, Texas",0,0,0,0,0,0,0,0,0,0,0,0,0,0,945.0,763,647,586.0,601.0,696,513,432.0,411.0
6448,17732,US,135786,33.005,-97.2263888889,Census,City,TX,"Roanoke, Texas",0,0,0,0,0,0,0,0,0,0,292,0,0,0,0.0,485,511,585.0,817.0,910,1616,2810.0,5962.0
6484,14169,US,16829764,29.6802777778,-96.9072222222,Census,City,TX,"Schulenburg, Texas",0,0,0,0,0,0,0,0,0,719,816,1149,1091,1246,1604.0,1970,2005,2207.0,2294.0,2469,2455,2699.0,2852.0
6537,7357,US,135864,33.6013888889,-96.3638888889,Census,City,TX,"Savoy, Texas",0,0,0,0,0,0,0,0,0,348,344,343,328,378,284.0,298,314,493.0,756.0,855,877,850.0,831.0
6543,8300,US,136831,33.0558333333,-97.5097222222,Census,City,TX,"Aurora, Texas",0,0,0,0,0,0,0,0,0,0,372,0,0,0,0.0,0,0,0.0,0.0,376,623,853.0,1220.0
6567,13116,US,135712,34.8547222222,-100.213611111,Census,City,TX,"Wellington, Texas",0,0,0,0,0,0,0,0,0,0,0,0,576,1968,3570.0,3308,3676,3137.0,2884.0,3043,2456,2275.0,2189.0
6606,7888,US,135772,33.11,-97.0305555556,Census,Town,TX,"Hickory Creek, Texas",0,0,0,0,0,0,0,0,0,0,0,0,0,0,0.0,0,0,0.0,218.0,1422,1893,2078.0,3247.0
6629,7790,US,136481,32.9675,-97.6825,Census,City,TX,"Springtown, Texas",0,0,0,0,0,0,0,0,0,166,657,0,0,0,0.0,0,0,859.0,1194.0,1658,1740,2062.0,2658.0
6638,7005,US,136837,33.11,-97.4575,Census,City,TX,"New Fairview, Texas",0,0,0,0,0,0,0,0,0,0,0,0,0,0,0.0,0,0,0.0,0.0,0,0,877.0,1258.0
6654,12236,US,91668,32.3,-102.64,Census,US County,TX,"Andrews County, Texas",0,0,0,0,0,0,0,0,0,0,24,87,975,350,736.0,1277,5002,13450.0,10372.0,13323,14338,13004.0,14786.0
6656,8225,US,91443,33.18,-100.25,Census,US County,TX,"Stonewall County, Texas",0,0,0,0,0,0,0,0,0,104,1024,2183,5320,4086,5667.0,5589,3679,3017.0,2397.0,2406,2013,1693.0,1490.0
6684,8061,US,135587,28.6761111111,-96.5588888889,Census,City,TX,"Point Comfort, Texas",0,0,0,0,0,0,0,0,0,0,0,0,0,0,0.0,0,0,0.0,1446.0,1125,956,781.0,737.0
6692,10534,US,135685,31.8955555556,-100.485,Census,City,TX,"Robert Lee, Texas",0,0,0,0,0,0,0,0,0,0,0,0,0,0,490.0,662,1089,990.0,1119.0,1202,1276,1171.0,1049.0
6700,6982,US,135863,33.6716666667,-96.2416666667,Census,City,TX,"Ravenna, Texas",0,0,0,0,0,0,0,0,0,0,237,290,0,412,254.0,248,0,0.0,0.0,0,0,215.0,209.0
6704,6935,US,136168,33.1480555556,-95.9513888889,Census,City,TX,"Campbell, Texas",0,0,0,0,0,0,0,0,0,0,0,0,0,583,416.0,428,0,0.0,0.0,549,683,822.0,638.0
6711,7009,US,136477,32.7983333333,-98.0127777778,Census,City,TX,"Cool, Texas",0,0,0,0,0,0,0,0,0,0,0,0,0,0,0.0,0,0,0.0,237.0,202,214,162.0,157.0
6717,9654,US,136525,35.6930555556,-100.638888889,Census,City,TX,"Miami, Texas",0,0,0,0,0,0,0,0,0,0,0,0,0,935,953.0,713,646,656.0,611.0,813,675,588.0,597.0
6730,12015,US,136185,29.0411111111,-96.5122222222,Census,City,TX,"Ganado, Texas",0,0,0,0,0,0,0,0,0,0,0,0,558,716,626.0,717,1258,1626.0,1640.0,1770,1701,1915.0,2003.0
6739,6424,US,136520,31.3133333333,-103.793055556,Census,Town,TX,"Toyah, Texas",0,0,0,0,0,0,0,0,0,0,0,0,1052,0,553.0,464,409,294.0,245.0,165,115,100.0,90.0
6743,10933,US,135590,32.3961111111,-99.3972222222,Census,City,TX,"Baird, Texas",0,0,0,0,0,0,0,0,0,0,850,1502,1710,1902,1965.0,1810,1821,1633.0,1538.0,1696,1658,1623.0,1496.0
6807,10660,US,151119,29.5872222222,-98.3158333333,Census,City,TX,"Selma, Texas",0,0,0,0,0,0,0,0,0,0,0,0,0,0,0.0,0,0,0.0,207.0,528,520,788.0,5540.0
6822,17068,US,135792,28.9833333333,-97.5025,Census,City,TX,"Yorktown, Texas",0,0,0,0,0,0,0,0,0,430,522,846,1180,1723,1882.0,2081,2596,2527.0,2411.0,2498,2207,2271.0,2092.0
6828,11576,US,136370,29.3469444444,-99.1455555556,Census,City,TX,"Hondo, Texas",0,0,0,0,0,0,0,0,0,0,0,0,0,0,0.0,0,4188,4992.0,5487.0,6057,6018,7897.0,8803.0
6829,7610,US,136685,33.3622222222,-95.1041666667,Census,City,TX,"Talco, Texas",0,0,0,0,0,0,0,0,0,0,0,0,0,0,0.0,912,917,1024.0,837.0,751,592,570.0,516.0
6843,9671,US,135449,28.9216666667,-98.5463888889,Census,City,TX,"Jourdanton, Texas",0,0,0,0,0,0,0,0,0,0,0,0,0,682,767.0,950,1481,1504.0,1841.0,2743,3220,3732.0,3871.0
6856,10847,US,135716,29.7022222222,-96.78,Census,City,TX,"Weimar, Texas",0,0,0,0,0,0,0,0,0,626,1443,1337,906,1171,1256.0,1353,1663,2006.0,2104.0,2128,2052,1981.0,2151.0
6859,14063,US,136519,31.4155555556,-103.5,Census,City,TX,"Pecos, Texas",0,0,0,0,0,0,0,0,0,0,393,639,1856,1445,3304.0,4855,8054,12728.0,12682.0,12855,12069,9501.0,8780.0
6872,9491,US,136830,33.3569444444,-97.6961111111,Census,Town,TX,"Alvord, Texas",0,0,0,0,0,0,0,0,0,0,560,0,0,1376,754.0,821,735,694.0,791.0,874,865,1007.0,1334.0
6883,8544,US,135982,36.2627777778,-101.405277778,Census,City,TX,"Gruver, Texas",0,0,0,0,0,0,0,0,0,0,0,0,0,0,0.0,350,813,1030.0,1265.0,1216,1172,1162.0,1194.0
6884,8189,US,136060,32.1872222222,-95.5630555556,Census,City,TX,"Moore Station, Texas",0,0,0,0,0,0,0,0,0,0,0,0,0,0,0.0,0,0,0.0,0.0,335,256,184.0,201.0
6911,8373,US,135659,34.3866666667,-102.115,Census,City,TX,"Hart, Texas",0,0,0,0,0,0,0,0,0,0,0,0,0,0,0.0,0,0,577.0,905.0,1008,1221,1198.0,1114.0
6918,16166,US,136007,29.7902777778,-95.4880555556,Census,City,TX,"Hilshire Village, Texas",0,0,0,0,0,0,0,0,0,0,0,0,0,0,0.0,0,0,543.0,627.0,621,665,720.0,746.0
6955,7831,US,135489,29.3930555556,-98.3455555556,Census,Town,TX,"China Grove, Texas",0,0,0,0,0,0,0,0,0,0,0,0,0,0,0.0,0,0,0.0,329.0,434,872,1247.0,1179.0
7001,25468,US,136008,29.995,-95.265,Census,City,TX,"Humble, Texas",0,0,0,0,0,0,0,0,0,0,0,0,0,0,0.0,1371,1388,1711.0,3272.0,6729,12060,14579.0,15133.0
7019,10273,US,91576,35.41,-100.81,Census,US County,TX,"Gray County, Texas",0,0,0,0,0,0,0,0,0,56,203,480,3405,4663,22090.0,23911,24728,31535.0,26949.0,26386,23967,22744.0,22535.0
7022,9645,US,136721,32.8008333333,-94.7175,Census,City,TX,"Ore City, Texas",0,0,0,0,0,0,0,0,0,0,0,0,0,0,0.0,0,0,819.0,830.0,1050,898,1106.0,1144.0
7031,25769,US,136019,29.7097222222,-95.4355555556,Census,City,TX,"Southside Place, Texas",0,0,0,0,0,0,0,0,0,0,0,0,0,0,0.0,0,0,0.0,1466.0,1366,1392,1546.0,1715.0
7040,14316,US,151170,33.0005555556,-97.1930555556,Census,Town,TX,"Trophy Club, Texas",0,0,0,0,0,0,0,0,0,0,0,0,0,0,0.0,0,0,0.0,0.0,0,3922,6350.0,8024.0
7048,14595,US,135924,29.3666666667,-94.9738888889,Census,City,TX,"La Marque, Texas",0,0,0,0,0,0,0,0,0,0,0,0,0,0,0.0,0,0,13969.0,16131.0,15372,14120,13682.0,14509.0
7083,8291,US,136427,32.0791666667,-96.8086111111,Census,City,TX,"Frost, Texas",0,0,0,0,0,0,0,0,0,0,0,621,702,913,748.0,671,585,508.0,548.0,564,579,648.0,643.0
7084,12661,US,136279,29.4452777778,-96.9408333333,Census,City,TX,"Hallettsville, Texas",0,0,0,0,0,0,0,0,43,588,1011,1457,1379,0,1406.0,1581,2000,2808.0,2712.0,2865,2718,2345.0,2550.0
7103,14307,US,135632,26.1366666667,-97.6358333333,Census,City,TX,"San Benito, Texas",0,0,0,0,0,0,0,0,0,0,0,0,0,5070,10753.0,9501,13271,16422.0,15176.0,17988,20125,23444.0,24250.0
7110,8648,US,136544,31.9158333333,-94.6816666667,Census,City,TX,"Mount Enterprise, Texas",0,0,0,0,0,0,0,0,0,0,0,0,0,0,0.0,0,0,0.0,425.0,485,501,525.0,447.0
7197,7858,US,135492,29.2569444444,-98.3333333333,Census,City,TX,"Elmendorf, Texas",0,0,0,0,0,0,0,0,0,0,0,0,0,0,0.0,0,0,0.0,400.0,492,568,664.0,1488.0
7225,11600,US,135831,31.5827777778,-106.265833333,Census,City,TX,"San Elizario, Texas",0,0,0,0,0,0,0,0,0,0,0,0,0,0,0.0,0,0,0.0,0.0,0,0,0.0,0.0
7265,36455,US,136171,33.1261111111,-96.1097222222,Census,City,TX,"Greenville, Texas",0,0,0,0,0,0,0,0,0,0,4330,6860,8850,12384,12407.0,13995,14727,19087.0,22043.0,22161,23071,23960.0,25557.0
7271,21933,US,136005,29.78,-95.5194444444,Census,City,TX,"Hedwig Village, Texas",0,0,0,0,0,0,0,0,0,0,0,0,0,0,0.0,0,0,1182.0,3255.0,2506,2616,2334.0,2557.0
7280,10289,US,135870,29.905,-96.675,Census,City,TX,"Fayetteville, Texas",0,0,0,0,0,0,0,0,319,0,269,0,274,390,437.0,445,462,394.0,400.0,356,283,261.0,258.0
7297,7338,US,136265,33.6697222222,-95.4722222222,Census,City,TX,"Reno, Lamar County, Texas",0,0,0,0,0,0,0,0,0,0,0,0,0,0,0.0,0,0,0.0,487.0,1059,1784,2767.0,3166.0
7317,18538,US,136335,28.9808333333,-95.9644444444,Census,City,TX,"Bay City, Texas",0,0,0,0,0,0,0,0,0,0,0,0,3156,3454,4070.0,6594,9427,11656.0,13445.0,17837,18170,18667.0,17614.0
7347,25514,US,48941,,,Census,US County,TX,"Brazoria County, Texas",0,0,0,0,0,0,4841,7143,7527,9774,11506,14861,13299,20614,23054.0,27069,46549,76204.0,108312.0,169587,191707,241767.0,313166.0
7389,7123,US,136037,33.1830555556,-99.8933333333,Census,Town,TX,"Rule, Texas",0,0,0,0,0,0,0,0,0,0,0,0,891,890,1094.0,1195,1251,1347.0,1024.0,1015,783,698.0,636.0
7427,7621,US,91473,32.87,-95.8,Census,US County,TX,"Rains County, Texas",0,0,0,0,0,0,0,0,0,3035,3909,6127,6787,8099,7114.0,7334,4266,2993.0,3752.0,4839,6715,9139.0,10914.0
7437,29816,US,136252,30.0475,-99.1405833333,Census,City,TX,"Kerrville, Texas",0,0,0,0,0,0,0,0,0,156,1044,1423,1843,2353,4546.0,5572,7691,8901.0,12672.0,15276,17384,20425.0,22347.0
7456,7677,US,136416,31.4988888889,-94.3455555556,Census,City,TX,"Chireno, Texas",0,0,0,0,0,0,0,0,0,0,276,0,0,0,0.0,0,0,0.0,308.0,371,415,405.0,386.0
7459,15694,US,91468,31.32,-103.68,Census,US County,TX,"Reeves County, Texas",0,0,0,0,0,0,0,0,0,0,1247,1847,4392,4457,6407.0,8006,11745,17644.0,16526.0,15801,15852,13137.0,13783.0
7493,16372,US,91660,29.74,-99.23,Census,US County,TX,"Bandera County, Texas",0,0,0,0,0,0,0,399,649,2158,3795,5332,4921,4001,3784.0,4234,4410,3892.0,4747.0,7084,10562,17645.0,20485.0
7499,8346,US,136412,33.1833333333,-94.75,Census,City,TX,"Omaha, Texas",0,0,0,0,0,0,0,0,0,0,219,0,0,492,506.0,623,735,854.0,898.0,960,833,999.0,1021.0
7524,15573,US,23314530,33.2219444444,-96.9611111111,Census,Town,TX,"Providence Village, Texas",0,0,0,0,0,0,0,0,0,0,0,0,0,0,0.0,0,0,0.0,0.0,0,0,0.0,0.0
7541,10916,US,135921,29.3386111111,-95.0108333333,Census,City,TX,"Hitchcock, Texas",0,0,0,0,0,0,0,0,0,0,0,0,0,0,0.0,0,0,5216.0,5565.0,6103,5868,6386.0,6961.0
7567,19374,US,136291,30.345,-95.0836111111,Census,City,TX,"Cleveland, Texas",0,0,0,0,0,0,0,0,0,0,0,0,0,0,1422.0,1783,5183,5838.0,5627.0,5977,7124,7605.0,7675.0
7570,12326,US,135988,30.2638888889,-94.2019444444,Census,City,TX,"Lumberton, Texas",0,0,0,0,0,0,0,0,0,0,0,0,0,0,0.0,0,0,0.0,0.0,2480,6640,8731.0,11943.0
7590,9122,US,136169,33.2936111111,-96.1955555556,Census,City,TX,"Celeste, Texas",0,0,0,0,0,0,0,0,0,0,250,671,821,1022,803.0,730,729,588.0,736.0,716,733,817.0,814.0
7591,6832,US,135557,30.7616666667,-96.3227777778,Census,City,TX,"Wixon Valley, Texas",0,0,0,0,0,0,0,0,0,0,0,0,0,0,0.0,0,0,0.0,0.0,0,186,235.0,254.0
7598,29424,US,136645,32.9275,-97.2361111111,Census,City,TX,"Keller, Texas",0,0,0,0,0,0,0,0,0,0,0,0,0,0,0.0,0,0,827.0,1474.0,4156,13683,27345.0,39627.0
7603,15263,US,91410,29.28,-96.22,Census,US County,TX,"Wharton County, Texas",0,0,0,0,0,0,1752,3380,3426,4459,7584,16942,21123,24288,29681.0,36158,36077,38152.0,36729.0,40242,39955,41188.0,41280.0
7675,6941,US,136443,27.7825,-97.9108333333,Census,City,TX,"Agua Dulce, Nueces County, Texas",0,0,0,0,0,0,0,0,0,0,0,0,0,0,0.0,0,660,867.0,742.0,934,794,737.0,812.0
7684,11255,US,91545,33.24,-98.18,Census,US County,TX,"Jack County, Texas",0,0,0,0,0,0,0,1000,694,6626,9740,10224,11817,9863,9046.0,10206,7755,7418.0,6711.0,7408,6981,8763.0,9044.0
7685,8648,US,136596,32.2258333333,-95.0552777778,Census,City,TX,"Arp, Texas",0,0,0,0,0,0,0,0,0,0,0,0,0,0,0.0,1139,909,812.0,816.0,939,812,901.0,970.0
7746,8998,US,136278,31.2180555556,-98.3927777778,Census,City,TX,"Lometa, Texas",0,0,0,0,0,0,0,0,0,0,0,0,0,995,865.0,915,951,817.0,633.0,666,625,782.0,856.0
7754,13388,US,135694,33.1641666667,-96.3666666667,Census,City,TX,"Farmersville, Texas",0,0,0,0,0,0,0,0,114,230,1093,1856,1848,2167,1878.0,2206,1955,2021.0,2311.0,2360,2640,3118.0,3301.0
7767,9898,US,151145,33.4238888889,-96.5786111111,Census,City,TX,"Van Alstyne, Texas",0,0,0,0,0,0,0,0,213,737,737,1940,1441,1588,1453.0,1650,1649,1608.0,1981.0,1860,2090,2502.0,3046.0
7773,8855,US,136326,33.5038888889,-102.011944444,Census,City,TX,"Wolfforth, Texas",0,0,0,0,0,0,0,0,0,0,0,0,0,0,0.0,0,0,597.0,1090.0,1701,1941,2554.0,3670.0
7784,11637,US,135688,31.7402777778,-99.3252777778,Census,Town,TX,"Santa Anna, Texas",0,0,0,0,0,0,0,0,0,0,468,0,1453,1407,1883.0,1661,1605,1320.0,1310.0,1535,1249,1081.0,1099.0
7790,17237,US,91619,34.08,-100.27,Census,US County,TX,"Cottle County, Texas",0,0,0,0,0,0,0,0,0,24,240,1002,4396,6901,9395.0,7079,6099,4207.0,3204.0,2947,2247,1904.0,1505.0
7805,9650,US,135839,32.2675,-96.695,Census,City,TX,"Bardwell, Texas",0,0,0,0,0,0,0,0,0,0,0,0,0,358,303.0,266,229,220.0,277.0,335,387,583.0,649.0
7806,10190,US,91600,,,Census,US County,TX,"Ector County, Texas",0,0,0,0,0,0,0,0,0,0,224,381,1178,760,3958.0,15051,42102,90995.0,91805.0,115374,118934,121123.0,137130.0
7826,19262,US,136021,29.7897222222,-95.5047222222,Census,City,TX,"Spring Valley Village, Texas",0,0,0,0,0,0,0,0,0,0,0,0,0,0,0.0,0,0,3004.0,3170.0,3353,3392,3611.0,3715.0
7842,7898,US,91630,33.6,-102.83,Census,US County,TX,"Cochran County, Texas",0,0,0,0,0,0,0,0,0,0,0,25,65,67,1963.0,3735,5928,6417.0,5326.0,4825,4377,3730.0,3127.0
7856,10284,US,151229,32.3147222222,-94.5188888889,Census,City,TX,"Tatum, Texas",0,0,0,0,0,0,0,0,0,0,0,0,0,0,0.0,427,599,542.0,684.0,1339,1289,1175.0,1385.0
7857,10453,US,135873,30.065,-96.6966666667,Census,Town,TX,"Round Top, Texas",0,0,0,0,0,0,0,0,0,0,238,169,186,150,132.0,120,126,124.0,94.0,87,81,77.0,90.0
7861,73634,US,151245,30.5086111111,-97.6788888889,Census,City,TX,"Round Rock, Texas",0,0,0,0,0,0,0,0,0,628,1438,1138,1245,900,1005.0,1173,1683,2458.0,2811.0,12740,30923,61136.0,99887.0
7879,12705,US,135857,33.5838888889,-96.1816666667,Census,City,TX,"Bonham, Texas",0,0,0,0,0,0,211,477,928,1889,3361,5042,4844,6008,5655.0,6349,7049,7357.0,7698.0,7338,6686,9990.0,10127.0
7936,17170,US,136820,30.5725,-97.4166666667,Census,City,TX,"Taylor, Texas",0,0,0,0,0,0,0,0,0,0,2584,4211,5314,5965,7463.0,7875,9071,9434.0,9616.0,10619,11472,13575.0,15191.0
7943,14380,US,135851,32.0866666667,-98.3425,Census,City,TX,"Dublin, Texas",0,0,0,0,0,0,0,0,0,264,2025,2370,2551,3229,2271.0,2546,2761,2443.0,2810.0,2723,3190,3754.0,3654.0
7953,10388,US,136160,31.1283333333,-95.445,Census,City,TX,"Lovelady, Texas",0,0,0,0,0,0,0,0,0,0,0,0,0,625,502.0,542,541,466.0,388.0,509,587,608.0,649.0
7981,7763,US,135576,30.3447222222,-96.5302777778,Census,City,TX,"Somerville, Texas",0,0,0,0,0,0,0,0,0,0,0,0,0,1879,2287.0,1621,1425,1177.0,1250.0,1814,1542,1704.0,1376.0
8016,9184,US,135610,26.1583333333,-97.825,Census,City,TX,"La Feria, Texas",0,0,0,0,0,0,0,0,0,0,0,0,0,236,1594.0,1644,2952,3047.0,2642.0,3495,4360,6115.0,7302.0
8111,8530,US,136512,33.5536111111,-94.7802777778,Census,Town,TX,"Avery, Texas",0,0,0,0,0,0,0,0,0,0,0,0,0,0,0.0,477,442,343.0,491.0,520,430,462.0,482.0
8164,21487,US,151171,32.9825,-97.2055555556,Census,Town,TX,"Westlake, Texas",0,0,0,0,0,0,0,0,0,0,0,0,0,0,0.0,0,0,112.0,128.0,214,185,207.0,992.0
8182,9769,US,136464,30.1313888889,-93.9963888889,Census,City,TX,"Vidor, Texas",0,0,0,0,0,0,0,0,0,0,0,0,0,0,0.0,0,0,0.0,9738.0,11834,10935,11440.0,10579.0
8198,11226,US,136843,32.7961111111,-95.4444444444,Census,City,TX,"Quitman, Texas",0,0,0,0,0,0,0,0,0,151,0,0,0,0,0.0,0,927,1237.0,1494.0,1893,1684,2030.0,1809.0
8205,8818,US,135430,31.6283333333,-95.5786111111,Census,Town,TX,"Elkhart, Texas",0,0,0,0,0,0,0,0,0,0,0,0,0,0,0.0,751,776,780.0,997.0,1317,1076,1215.0,1371.0
8223,12242,US,136665,32.7591666667,-97.4605555556,Census,City,TX,"White Settlement, Texas",0,0,0,0,0,0,0,0,0,0,0,0,0,0,0.0,0,10827,11513.0,13449.0,13508,15472,14831.0,16116.0
8229,8648,US,136321,33.7372222222,-101.836666667,Census,Community,TX,"New Deal, Texas",0,0,0,0,0,0,0,0,0,0,0,0,0,0,0.0,0,0,0.0,0.0,637,521,708.0,794.0
8247,9498,US,91606,33.62,-100.78,Census,US County,TX,"Dickens County, Texas",0,0,0,0,0,0,0,0,0,28,295,1151,3092,5876,8601.0,7847,7177,4963.0,3737.0,3539,2571,2762.0,2444.0
8250,7849,US,136712,31.0561111111,-95.1294444444,Census,City,TX,"Groveton, Texas",0,0,0,0,0,0,0,0,0,0,1076,0,0,1103,1046.0,940,805,1148.0,1219.0,1262,1071,1107.0,1057.0
8252,20906,US,91418,29.89,-101.15,Census,US County,TX,"Val Verde County, Texas",0,0,0,0,0,0,0,0,0,0,2874,5263,8613,12706,14924.0,15453,16635,24461.0,27471.0,35910,38721,44856.0,48879.0
8253,7580,US,136418,31.825,-94.4913888889,Census,city,TX,"Garrison, Texas",0,0,0,0,0,0,0,0,0,0,252,530,627,603,527.0,770,699,951.0,1082.0,1059,883,844.0,895.0
8307,11568,US,91586,33.18,-95.22,Census,US County,TX,"Franklin County, Texas",0,0,0,0,0,0,0,0,0,5280,6481,8674,9331,9304,8494.0,8378,6257,5101.0,5291.0,6893,7802,9458.0,10605.0
8336,8142,US,136052,32.3072222222,-95.4794444444,Census,City,TX,"Chandler, Texas",0,0,0,0,0,0,0,0,0,0,0,0,0,0,0.0,0,0,0.0,765.0,1308,1630,2099.0,2734.0
8360,6364,US,136058,32.2233333333,-96.0225,Census,City,TX,"Log Cabin, Texas",0,0,0,0,0,0,0,0,0,0,0,0,0,0,0.0,0,0,0.0,0.0,0,487,733.0,714.0
8361,7323,US,151173,27.7625,-98.2388888889,Census,City,TX,"San Diego, Texas",0,0,0,0,0,0,0,0,0,1572,1877,0,0,0,0.0,2674,4397,4351.0,4490.0,5225,4983,4753.0,4488.0
8386,6607,US,136714,30.9233333333,-94.5991666667,Census,Town,TX,"Chester, Texas",0,0,0,0,0,0,0,0,0,0,0,0,0,0,0.0,0,0,0.0,260.0,305,285,265.0,312.0
8437,11130,US,135875,32.7447222222,-100.381111111,Census,City,TX,"Roby, Texas",0,0,0,0,0,0,0,0,0,0,0,0,0,635,801.0,904,1051,913.0,784.0,814,616,673.0,643.0
8439,11089,US,135620,26.0733333333,-97.4780555556,Census,City,TX,"Los Fresnos, Texas",0,0,0,0,0,0,0,0,0,0,0,0,0,0,0.0,0,1113,1289.0,1297.0,2173,2473,4512.0,5542.0
8454,14307,US,135483,30.9552777778,-97.5347222222,Census,Village,TX,"Salado, Texas",0,0,0,0,0,0,0,0,0,0,0,0,0,0,0.0,0,0,0.0,0.0,0,0,0.0,2126.0
8468,22484,US,135689,33.0997222222,-96.6630555556,Census,City,TX,"Allen, Texas",0,0,0,0,0,0,0,0,0,96,0,0,0,0,0.0,0,0,659.0,1940.0,8314,18309,43554.0,84246.0
8484,72625,US,151159,33.0383333333,-97.0061111111,Census,City,TX,"Lewisville, Texas",0,0,0,0,0,0,0,0,0,466,498,0,0,0,853.0,873,1516,3956.0,9264.0,24273,46521,77737.0,95290.0
8485,10572,US,151128,29.8602777778,-94.8744444444,Census,City,TX,"Mont Belvieu, Texas",0,0,0,0,0,0,0,0,0,0,0,0,0,0,0.0,0,0,0.0,1144.0,1730,1323,2324.0,3835.0
8486,6552,US,136241,32.5402777778,-96.3172222222,Census,Town,TX,"Oak Grove, Kaufman County, Texas",0,0,0,0,0,0,0,0,0,0,0,0,0,0,0.0,0,0,0.0,0.0,319,557,710.0,603.0
8488,18110,US,135897,29.5525,-95.805,Census,City,TX,"Rosenberg, Texas",0,0,0,0,0,0,0,0,0,0,0,0,1198,1279,1941.0,3457,6210,9698.0,12098.0,17840,20183,24043.0,30618.0
8518,10613,US,136383,33.56,-97.8444444444,Census,City,TX,"Bowie, Texas",0,0,0,0,0,0,0,0,0,0,1486,2600,2874,3179,3131.0,3470,4544,4566.0,5185.0,5610,4990,5219.0,5218.0
8524,6334,US,136849,26.8719444444,-99.2558333333,Census,CDP,TX,"Falcon Lake Estates, Texas",0,0,0,0,0,0,0,0,0,0,0,0,0,0,0.0,0,0,0.0,0.0,0,0,830.0,1036.0
8552,7786,US,136517,30.9838888889,-103.742222222,Census,City,TX,"Balmorhea, Texas",0,0,0,0,0,0,0,0,0,0,0,0,0,0,0.0,0,0,604.0,655.0,568,765,527.0,479.0
8557,9700,US,136534,32.9225,-96.4111111111,Census,City,TX,"Mobile City, Texas",0,0,0,0,0,0,0,0,0,0,0,0,0,0,0.0,0,0,0.0,0.0,0,0,196.0,188.0
8562,6107,US,136267,33.6669444444,-95.4277777778,Census,City,TX,"Sun Valley, Texas",0,0,0,0,0,0,0,0,0,0,0,0,0,0,0.0,0,0,0.0,0.0,76,60,51.0,69.0
8564,7754,US,136756,31.4625,-103.395555556,Census,City,TX,"Barstow, Texas",0,0,0,0,0,0,0,0,0,0,0,0,0,490,468.0,558,683,707.0,614.0,637,535,406.0,349.0
8722,5244,US,6108733,30.4452777778,-97.9080555556,Census,Village,TX,"Volente, Texas",0,0,0,0,0,0,0,0,0,0,0,0,0,0,0.0,0,0,0.0,0.0,0,0,0.0,520.0
8728,10323,US,135881,29.4963888889,-95.9172222222,Census,City,TX,"Beasley, Texas",0,0,0,0,0,0,0,0,0,0,0,0,0,0,0.0,0,0,0.0,0.0,410,485,590.0,641.0
8768,27264,US,151111,31.1197222222,-97.9016666667,Census,City,TX,"Copperas Cove, Texas",0,0,0,0,0,0,0,0,0,0,0,475,490,509,406.0,356,1052,4567.0,10818.0,24519,24079,29592.0,32032.0
8816,8877,US,136652,32.8216666667,-97.4894444444,Census,,TX,"Lakeside, Tarrant County, Texas",0,0,0,0,0,0,0,0,0,0,0,0,0,0,0.0,0,0,651.0,988.0,957,816,1040.0,1307.0
8864,15237,US,14288302,32.9272222222,-96.2511111111,Census,City,TX,"Union Valley, Texas",0,0,0,0,0,0,0,0,0,0,0,0,0,0,0.0,0,0,0.0,0.0,0,0,0.0,307.0
8865,9217,US,136818,30.6641666667,-97.9113888889,Census,City,TX,"Liberty Hill, Texas",0,0,0,0,0,0,0,0,0,0,0,0,0,0,0.0,0,0,0.0,0.0,0,0,1409.0,967.0
8909,14828,US,135661,29.7686111111,-94.6791666667,Census,City,TX,"Anahuac, Texas",0,0,0,0,0,0,0,0,0,0,0,0,0,0,0.0,0,1284,1985.0,1881.0,1840,1993,2210.0,2243.0
8916,87144,US,136320,33.5666666667,-101.883333333,Census,Unknown,TX,"Lubbock, Texas",0,0,0,0,0,0,0,0,0,0,0,0,1938,4051,20520.0,31853,71747,128691.0,149101.0,173979,186206,199564.0,229573.0
8922,11100,US,136183,33.2233333333,-98.1608333333,Census,City,TX,"Jacksboro, Texas",0,0,0,0,0,0,0,0,0,387,751,1311,1480,1373,1837.0,2368,2951,3816.0,3554.0,4000,3350,4533.0,4511.0
8926,14104,US,135524,33.4416666667,-94.1252777778,Census,City,TX,"Nash, Texas",0,0,0,0,0,0,0,0,0,0,0,0,0,0,0.0,0,0,1124.0,1961.0,2022,2162,2169.0,2960.0
8951,19988,US,136789,35.2172222222,-100.247222222,Census,City,TX,"Shamrock, Texas",0,0,0,0,0,0,0,0,0,0,0,0,0,1227,3780.0,3123,3322,3113.0,2644.0,2834,2286,2029.0,1910.0
8959,7927,US,136602,32.4908333333,-95.1711111111,Census,Town,TX,"Winona, Texas",0,0,0,0,0,0,0,0,0,0,0,0,0,0,0.0,0,0,0.0,155.0,443,457,582.0,576.0
8978,11736,US,91590,32.74,-100.4,Census,US County,TX,"Fisher County, Texas",0,0,0,0,0,0,0,0,0,136,2996,2708,12596,11009,13563.0,12932,11023,7865.0,6344.0,5891,4842,4344.0,3974.0
8994,11319,US,135761,33.1163888889,-97.1855555556,Census,City,TX,"Argyle, Texas",0,0,0,0,0,0,0,0,0,0,0,0,0,0,0.0,0,0,0.0,443.0,1111,1575,2365.0,3282.0
8995,12134,US,151156,32.5483333333,-96.8513888889,Census,City,TX,"Glenn Heights, Texas",0,0,0,0,0,0,0,0,0,0,0,0,0,0,0.0,0,0,0.0,257.0,1033,4564,7224.0,11278.0
9034,15496,US,91417,32.56,-95.84,Census,US County,TX,"Van Zandt County, Texas",0,0,0,0,0,0,1348,3777,6494,12619,16225,25481,25651,30784,32315.0,31155,22593,19091.0,22155.0,31426,37944,48140.0,52579.0
9081,11721,US,91470,,,Census,US County,TX,"Real County, Texas",0,0,0,0,0,0,0,0,0,0,0,0,0,1461,2197.0,2420,2479,2079.0,2013.0,2469,2412,3047.0,3309.0
9090,9218,US,91514,28.35,-98.13,Census,US County,TX,"Live Oak County, Texas",0,0,0,0,0,0,0,593,852,1994,2055,2268,3442,4171,8956.0,9799,9054,7846.0,6697.0,9606,9556,12309.0,11531.0
9115,7372,US,136225,32.2655555556,-97.1777777778,Census,City,TX,"Grandview, Texas",0,0,0,0,0,0,0,0,0,287,257,713,1018,1084,892.0,823,886,961.0,935.0,1205,1245,1358.0,1561.0
9129,20723,US,91605,28.42,-99.75,Census,US County,TX,"Dimmit County, Texas",0,0,0,0,0,0,0,0,109,665,1049,1106,3460,5296,8828.0,8542,10654,10095.0,9039.0,11367,10433,10248.0,9996.0
9175,15328,US,136597,32.5072222222,-95.4083333333,Census,City,TX,"Lindale, Texas",0,0,0,0,0,0,0,0,0,0,0,0,658,701,743.0,820,1105,1285.0,1631.0,2180,2428,2954.0,4818.0
9190,8608,US,135793,33.6213888889,-100.835,Census,City,TX,"Dickens, Texas",0,0,0,0,0,0,0,0,0,0,0,0,0,0,0.0,465,420,302.0,295.0,409,322,332.0,286.0
9191,12801,US,151114,29.5672222222,-98.235,Census,City,TX,"Cibolo, Texas",0,0,0,0,0,0,0,0,0,0,0,0,0,0,0.0,0,0,0.0,440.0,549,1757,3035.0,15349.0
9211,10931,US,151134,32.1444444444,-95.12,Census,City,TX,"Troup, Texas",0,0,0,0,0,0,0,0,0,352,465,724,1126,1258,1318.0,1526,1539,1667.0,1668.0,1911,1659,1949.0,1869.0
9228,10632,US,136524,28.2377777778,-97.325,Census,Town,TX,"Woodsboro, Texas",0,0,0,0,0,0,0,0,0,0,0,0,0,0,1286.0,1426,1836,2081.0,1839.0,1974,1731,1685.0,1512.0
9253,12426,US,136659,32.8616666667,-97.3666666667,Census,City,TX,"Saginaw, Texas",0,0,0,0,0,0,0,0,0,0,0,0,0,0,0.0,0,561,1001.0,2382.0,5736,8551,12374.0,19806.0
9281,10188,US,91396,27.0,-99.18,Census,US County,TX,"Zapata County, Texas",0,0,0,0,0,0,0,1248,1488,3636,3562,4760,3809,2929,2867.0,3916,4405,4393.0,4352.0,6628,9279,12182.0,14018.0
9352,12417,US,136216,27.3580555556,-98.1258333333,Census,City,TX,"Premont, Texas",0,0,0,0,0,0,0,0,0,0,0,0,0,0,0.0,1080,2619,3049.0,3282.0,2984,2914,2772.0,2653.0
9354,10147,US,136404,30.1844444444,-95.1894444444,Census,City,TX,"Woodbranch, Texas",0,0,0,0,0,0,0,0,0,0,0,0,0,0,0.0,0,0,0.0,378.0,720,1312,1305.0,1282.0
9364,10619,US,91486,30.78,-93.75,Census,US County,TX,"Newton County, Texas",0,0,0,0,0,0,1689,3119,2187,4350,4650,7282,10850,12196,12524.0,13700,10832,10372.0,11657.0,13254,13569,15072.0,14445.0
9374,6752,US,136363,31.4705555556,-97.1194444444,Census,City,TX,"Robinson, Texas",0,0,0,0,0,0,0,0,0,0,0,0,0,0,0.0,0,0,2111.0,3807.0,6074,7111,7845.0,10509.0
9415,7008,US,136310,36.12,-100.025555556,Census,City,TX,"Higgins, Texas",0,0,0,0,0,0,0,0,0,0,0,0,769,688,812.0,741,675,711.0,582.0,702,464,425.0,397.0
9441,11162,US,91622,31.33,-99.86,Census,US County,TX,"Concho County, Texas",0,0,0,0,0,0,0,0,0,800,1065,1427,6654,5847,7645.0,6192,5078,3672.0,2937.0,2915,3044,3966.0,4087.0
9471,7238,US,136066,32.1475,-96.0908333333,Census,City,TX,"Trinidad, Texas",0,0,0,0,0,0,0,0,0,0,0,0,0,0,0.0,0,0,786.0,1079.0,1130,1056,1091.0,886.0
9497,15188,US,136375,30.8544444444,-96.9786111111,Census,City,TX,"Cameron, Texas",0,0,0,0,0,0,0,0,0,441,1608,3341,3263,4298,4565.0,5040,5052,5640.0,5546.0,5721,5580,5634.0,5552.0
9506,16740,US,91551,31.32,-95.43,Census,US County,TX,"Houston County, Texas",0,0,0,0,0,0,2721,8058,8147,16702,19360,25452,29564,28601,30017.0,31137,22825,19276.0,17855.0,22299,21375,23185.0,23732.0
9516,13025,US,136184,28.9766666667,-96.6466666667,Census,City,TX,"Edna, Texas",0,0,0,0,0,0,0,0,0,0,537,0,0,0,1752.0,2724,3855,5038.0,5332.0,5634,5343,5899.0,5499.0
9524,6202,US,136244,32.4613888889,-96.4497222222,Census,Village,TX,"Rosser, Texas",0,0,0,0,0,0,0,0,0,0,0,0,0,0,0.0,0,0,0.0,0.0,0,366,379.0,332.0
9569,14194,US,135926,29.3805555556,-95.1041666667,Census,City,TX,"Santa Fe, Texas",0,0,0,0,0,0,0,0,0,0,0,0,0,0,0.0,0,0,0.0,0.0,6172,8429,9548.0,12222.0
9580,10710,US,136755,30.0822222222,-95.9916666667,Census,City,TX,"Prairie View, Texas",0,0,0,0,0,0,0,0,0,0,0,0,0,0,0.0,0,0,2326.0,3796.0,3993,4004,4410.0,5576.0
9584,19728,US,135942,33.7497222222,-96.5575,Census,City,TX,"Denison, Texas",0,0,0,0,0,0,0,0,0,3975,10958,11807,13632,17065,13850.0,15581,17504,22748.0,24923.0,23884,21505,22773.0,22682.0
9600,8475,US,136473,32.6955555556,-97.6033333333,Census,City,TX,"Aledo, Texas",0,0,0,0,0,0,0,0,0,0,0,0,0,0,0.0,0,0,0.0,620.0,1027,1169,1726.0,2716.0
9606,11106,US,91611,34.97,-102.6,Census,US County,TX,"Deaf Smith County, Texas",0,0,0,0,0,0,0,0,0,38,179,843,3942,3747,5979.0,6056,9111,13187.0,18999.0,21165,19153,18561.0,19372.0
9638,11167,US,136045,29.9955555556,-98.1008333333,Census,City,TX,"Wimberley, Texas",0,0,0,0,0,0,0,0,0,0,0,0,0,0,0.0,0,0,0.0,0.0,0,0,0.0,2626.0
9662,13069,US,136013,29.6763888889,-94.9994444444,Census,City,TX,"Morgan's Point, Texas",0,0,0,0,0,0,0,0,0,0,0,0,0,0,0.0,0,656,560.0,593.0,428,341,336.0,339.0
9756,34488,US,136201,29.9730555556,-93.9966666667,Census,City,TX,"Nederland, Texas",0,0,0,0,0,0,0,0,0,0,0,0,0,0,0.0,0,3805,12036.0,16810.0,16855,16192,17422.0,17547.0
9776,16517,US,91530,30.49,-99.75,Census,US County,TX,"Kimble County, Texas",0,0,0,0,0,0,0,0,72,1343,2243,2503,3261,3581,4119.0,5064,4619,3943.0,3904.0,4063,4122,4468.0,4607.0
9815,7408,US,136173,32.9958333333,-95.9411111111,Census,City,TX,"Lone Oak, Texas",0,0,0,0,0,0,0,0,0,79,443,496,756,1017,726.0,735,571,495.0,518.0,467,521,521.0,598.0
9885,7640,US,136847,33.1925,-98.7380555556,Census,City,TX,"Newcastle, Texas",0,0,0,0,0,0,0,0,0,0,0,0,0,1452,1157.0,1044,743,617.0,624.0,688,505,575.0,585.0
9903,8999,US,91521,29.38,-96.94,Census,US County,TX,"Lavaca County, Texas",0,0,0,0,0,0,1571,5945,9168,13641,21887,28121,26418,28964,27550.0,25485,22159,20174.0,17903.0,19004,18690,19210.0,19263.0
9949,12154,US,136003,29.5722222222,-95.0436111111,Census,City,TX,"El Lago, Texas",0,0,0,0,0,0,0,0,0,0,0,0,0,0,0.0,0,0,0.0,2308.0,3129,3269,3075.0,2706.0
9957,6882,US,136153,33.1352777778,-95.8402777778,Census,City,TX,"Cumby, Texas",0,0,0,0,0,0,0,0,0,0,0,0,0,945,646.0,642,504,447.0,628.0,647,571,616.0,777.0
9990,14329,US,151179,33.5111111111,-96.3933333333,Census,Town,TX,"Whitewright, Texas",0,0,0,0,0,0,0,0,0,100,880,1804,1563,1666,1480.0,1537,1372,1315.0,1745.0,1760,1713,1740.0,1604.0
10001,6296,US,10908392,34.0363888889,-98.5083333333,Census,City,TX,"Cashion Community, Texas",0,0,0,0,0,0,0,0,0,0,0,0,0,0,0.0,0,0,0.0,0.0,0,0,0.0,348.0
10003,13433,US,91617,30.73,-101.41,Census,US County,TX,"Crockett County, Texas",0,0,0,0,0,0,0,0,0,127,194,1591,1296,1500,2590.0,2809,3981,4209.0,3885.0,4608,4078,4099.0,3719.0
10016,6209,US,136432,31.9988888889,-96.3791666667,Census,Town,TX,"Navarro, Texas",0,0,0,0,0,0,0,0,0,0,0,0,0,0,0.0,0,0,0.0,0.0,170,193,191.0,210.0
10026,7069,US,136290,30.0525,-94.7408333333,Census,City,TX,"Ames, Texas",0,0,0,0,0,0,0,0,0,0,0,0,0,0,0.0,0,0,0.0,0.0,1155,989,1079.0,1003.0
10052,9377,US,91533,26.93,-97.62,Census,US County,TX,"Kenedy County, Texas",0,0,0,0,0,0,0,0,0,0,0,0,0,1033,701.0,700,632,884.0,678.0,543,460,414.0,416.0
10059,11573,US,135938,35.2338888889,-100.6,Census,Town,TX,"McLean, Texas",0,0,0,0,0,0,0,0,0,0,0,0,633,741,1521.0,1489,1439,1330.0,1183.0,1160,849,830.0,778.0
10080,11870,US,136657,32.81,-97.2263888889,Census,City,TX,"Richland Hills, Texas",0,0,0,0,0,0,0,0,0,0,0,0,0,0,0.0,0,0,7804.0,8865.0,7977,7978,8132.0,7801.0
10098,10451,US,135764,33.0988888889,-97.0947222222,Census,Town,TX,"Copper Canyon, Texas",0,0,0,0,0,0,0,0,0,0,0,0,0,0,0.0,0,0,0.0,0.0,465,978,1216.0,1334.0
10100,9323,US,91589,34.07,-101.3,Census,US County,TX,"Floyd County, Texas",0,0,0,0,0,0,0,0,0,3,529,2020,4638,9758,12409.0,10659,10535,12369.0,11044.0,9834,8497,7771.0,6446.0
10111,17807,US,136835,33.2277777778,-97.59,Census,City,TX,"Decatur, Texas",0,0,0,0,0,0,0,0,0,579,1746,1562,1651,2205,2037.0,2578,2922,3563.0,3240.0,4104,4252,5201.0,6042.0
10133,9739,US,3176298,33.1327777778,-97.3013888889,Census,Town,TX,"Dish, Texas",0,0,0,0,0,0,0,0,0,0,0,0,0,0,0.0,0,0,0.0,0.0,0,0,0.0,201.0
10159,18296,US,91513,30.71,-98.68,Census,US County,TX,"Llano County, Texas",0,0,0,0,0,0,0,1101,1379,4962,6772,7301,6520,5360,5538.0,5996,5377,5240.0,6979.0,10144,11631,17044.0,19301.0
10168,16090,US,135973,34.1911111111,-101.718888889,Census,City,TX,"Plainview, Texas",0,0,0,0,0,0,0,0,0,0,0,0,2829,3989,8834.0,8263,14044,18735.0,19096.0,22187,21700,22336.0,22194.0
10185,138601,US,135823,31.7902777778,-106.423333333,Census,City,TX,"El Paso, Texas",0,0,0,0,0,0,200,428,0,736,10338,15906,39279,77560,102421.0,96810,130485,276687.0,339615.0,425259,515342,563662.0,649121.0
10213,14812,US,91403,29.17,-98.09,Census,US County,TX,"Wilson County, Texas",0,0,0,0,0,0,0,0,2556,7118,10655,13961,17066,17289,17606.0,17066,14672,13267.0,13041.0,16756,22650,32408.0,42918.0
10216,8225,US,151218,33.5266666667,-95.3166666667,Census,City,TX,"Deport, Texas",0,0,0,0,0,0,0,0,0,0,274,0,0,821,819.0,822,734,639.0,761.0,724,746,718.0,578.0
10236,13391,US,91522,31.19,-98.24,Census,US County,TX,"Lampasas County, Texas",0,0,0,0,0,0,0,1028,1344,5421,7584,8625,9532,8800,8677.0,9167,9929,9418.0,9323.0,12005,13521,17762.0,19677.0
10243,10161,US,91499,,,Census,US County,TX,"Medina County, Texas",0,0,0,0,0,0,909,1838,2078,4492,5730,7783,13415,11679,13989.0,16106,17013,18904.0,20249.0,23164,27312,39304.0,46006.0
10248,8325,US,136269,34.0102777778,-102.415555556,Census,City,TX,"Amherst, Texas",0,0,0,0,0,0,0,0,0,0,0,0,0,0,964.0,749,922,883.0,825.0,971,742,791.0,721.0
10255,14754,US,91654,30.27,-98.4,Census,US County,TX,"Blanco County, Texas",0,0,0,0,0,0,0,1281,1187,3583,4649,4703,4311,4063,3842.0,4264,3780,3657.0,3567.0,4681,5972,8418.0,10497.0
10259,8135,US,151133,31.8619444444,-94.985,Census,City,TX,"Reklaw, Texas",0,0,0,0,0,0,0,0,0,0,0,0,0,0,0.0,0,0,0.0,171.0,305,266,327.0,379.0
10262,16071,US,91659,,,Census,US County,TX,"Bastrop County, Texas",0,0,0,0,0,0,3099,7006,12209,17215,20736,26845,25344,26649,23888.0,21610,19622,16925.0,17297.0,24726,38263,57733.0,74171.0
10306,9460,US,151227,27.9591666667,-97.7730555556,Census,City,TX,"San Patricio, Texas",0,0,0,0,0,0,0,0,0,238,315,0,0,0,0.0,0,0,0.0,0.0,210,369,318.0,395.0
10326,8434,US,136821,30.5886111111,-97.2986111111,Census,City,TX,"Thrall, Texas",0,0,0,0,0,0,0,0,0,0,0,0,0,272,422.0,436,585,631.0,619.0,573,550,710.0,839.0
10340,6472,US,136266,33.5455555556,-95.725,Census,City,TX,"Roxton, Texas",0,0,0,0,0,0,0,0,0,0,226,0,0,0,0.0,0,0,0.0,0.0,735,639,694.0,650.0
10341,12731,US,135455,29.7741666667,-96.1575,Census,City,TX,"Sealy, Texas",0,0,0,0,0,0,0,0,0,24,837,0,0,0,0.0,0,1942,2328.0,2685.0,3875,4541,5248.0,6019.0
10383,11419,US,135977,34.6727777778,-100.6975,Census,Town,TX,"Lakeview, Texas",0,0,0,0,0,0,0,0,0,0,0,0,0,0,375.0,330,287,219.0,214.0,244,202,152.0,107.0
10387,7758,US,135767,33.2319444444,-97.0019444444,Census,Town,TX,"Cross Roads, Texas",0,0,0,0,0,0,0,0,0,0,0,0,0,0,0.0,0,0,0.0,0.0,302,361,603.0,1563.0
10391,10887,US,91427,31.41,-100.46,Census,US County,TX,"Tom Green County, Texas",0,0,0,0,0,0,0,0,0,3615,5152,6804,17882,15210,36033.0,39302,58929,64630.0,71047.0,84784,98458,104010.0,110224.0
10398,7698,US,135549,29.0613888889,-95.4125,Census,City,TX,"Richwood, Texas",0,0,0,0,0,0,0,0,0,0,0,0,0,0,0.0,0,0,649.0,1452.0,2591,2732,3012.0,3510.0
10406,14175,US,135662,29.7025,-94.8627777778,Census,City,TX,"Beach City, Texas",0,0,0,0,0,0,0,0,0,0,0,0,0,0,0.0,0,0,0.0,363.0,977,852,1645.0,2198.0
10418,6882,US,136221,32.4925,-97.3022222222,Census,City,TX,"Briaroaks, Texas",0,0,0,0,0,0,0,0,0,0,0,0,0,0,0.0,0,0,0.0,0.0,592,535,493.0,492.0
10426,7659,US,135654,33.1919444444,-94.3516666667,Census,Town,TX,"Douglassville, Texas",0,0,0,0,0,0,0,0,0,0,0,0,0,0,0.0,0,0,172.0,282.0,228,192,175.0,229.0
10433,9258,US,135980,31.7033333333,-98.1202777778,Census,City,TX,"Hamilton, Texas",0,0,0,0,0,0,0,0,0,277,726,0,1548,2018,2084.0,2716,3077,3106.0,2760.0,3189,2937,2977.0,3095.0
10448,11222,US,135699,33.2836111111,-96.5719444444,Census,City,TX,"Melissa, Texas",0,0,0,0,0,0,0,0,0,57,0,0,0,0,0.0,0,0,405.0,0.0,604,557,1350.0,4695.0
10482,7141,US,135803,35.0338888889,-100.909166667,Census,City,TX,"Howardwick, Texas",0,0,0,0,0,0,0,0,0,0,0,0,0,0,0.0,0,0,0.0,0.0,165,211,437.0,402.0
10484,7193,US,136331,31.0230555556,-95.7511111111,Census,City,TX,"Midway, Texas",0,0,0,0,0,0,0,0,0,100,0,0,0,0,0.0,0,0,0.0,0.0,0,274,288.0,228.0
10523,9973,US,135552,29.1413888889,-95.6469444444,Census,City,TX,"West Columbia, Texas",0,0,0,0,0,0,0,0,0,0,0,0,0,0,0.0,1573,2100,2947.0,3335.0,4109,4372,4255.0,3905.0
10580,10004,US,136515,33.6111111111,-95.0525,Census,City,TX,"Clarksville, Texas",0,0,0,0,0,0,0,0,613,0,1588,2069,2065,3386,2952.0,4095,4353,3851.0,3346.0,4917,4311,3883.0,3285.0
10581,20706,US,16829837,29.9083333333,-96.875,Census,City,TX,"La Grange, Texas",0,0,0,0,0,0,0,0,1165,1325,1626,2392,1850,1669,2354.0,2531,2738,3623.0,3092.0,3768,3951,4478.0,4641.0
10586,6393,US,136235,32.4633333333,-96.39,Census,City,TX,"Cottonwood, Kaufman County, Texas",0,0,0,0,0,0,0,0,0,0,0,0,0,0,0.0,0,0,0.0,0.0,0,156,181.0,185.0
10591,11812,US,136654,32.7152777778,-97.1547222222,Census,Town,TX,"Pantego, Texas",0,0,0,0,0,0,0,0,0,0,0,0,0,0,0.0,0,646,238.0,1779.0,2431,2371,2318.0,2394.0
10602,9554,US,135985,34.2552777778,-99.5122222222,Census,City,TX,"Chillicothe, Texas",0,0,0,0,0,0,0,0,0,0,0,0,1207,1351,1610.0,1423,1415,1161.0,1116.0,1052,816,798.0,707.0
10662,9127,US,135847,32.4294444444,-96.6688888889,Census,Town,TX,"Palmer, Texas",0,0,0,0,0,0,0,0,0,63,250,480,605,748,758.0,697,647,613.0,601.0,1187,1659,1774.0,2000.0
10746,9834,US,136237,32.7513888889,-96.4672222222,Census,City,TX,"Forney, Texas",0,0,0,0,0,0,0,0,0,317,811,0,1114,1345,1216.0,1295,1425,1544.0,1745.0,2483,4070,5588.0,14661.0
10756,9414,US,91544,28.94,-96.58,Census,US County,TX,"Jackson County, Texas",0,0,0,0,0,0,996,2612,2278,2723,3281,6094,6471,11244,10980.0,11720,12916,14040.0,12975.0,13352,13039,14391.0,14075.0
10765,18191,US,136209,27.7505555556,-98.0705555556,Census,City,TX,"Alice, Texas",0,0,0,0,0,0,0,0,0,0,0,0,2136,1880,4239.0,7792,16449,20861.0,20121.0,20961,19788,19010.0,19104.0
10788,14081,US,91560,35.83,-100.28,Census,US County,TX,"Hemphill County, Texas",0,0,0,0,0,0,0,0,0,149,519,815,3170,4280,4637.0,4170,4123,3185.0,3084.0,5304,3720,3351.0,3807.0
10791,8035,US,135439,31.1572222222,-94.4177777778,Census,City,TX,"Zavalla, Texas",0,0,0,0,0,0,0,0,0,0,0,0,0,0,0.0,0,0,0.0,0.0,762,701,647.0,713.0
10799,14287,US,91564,32.55,-94.37,Census,US County,TX,"Harrison County, Texas",0,0,0,0,0,0,11822,15001,13241,25177,26721,31878,37243,43565,48937.0,50900,47745,45594.0,44841.0,52265,57483,62110.0,65631.0
10803,8685,US,135520,33.5080555556,-94.6163888889,Census,City,TX,"De Kalb, Texas",0,0,0,0,0,0,0,0,0,0,420,0,0,910,1023.0,1287,1928,2042.0,2197.0,2217,1976,1769.0,1699.0
10812,5375,US,136143,33.4133333333,-102.154444444,Census,Community,TX,"Ropesville, Texas",0,0,0,0,0,0,0,0,0,0,0,0,0,0,0.0,0,391,423.0,483.0,489,494,517.0,434.0
10863,8311,US,136385,33.6947222222,-97.5236111111,Census,City,TX,"St. Jo, Texas",0,0,0,0,0,0,0,0,0,342,710,825,822,985,960.0,1010,1147,977.0,1054.0,1071,1048,977.0,1043.0
10864,9453,US,91461,31.34,-93.85,Census,US County,TX,"Sabine County, Texas",0,0,0,0,0,0,2498,2750,3256,4161,4969,6394,8582,12299,11998.0,10896,8568,7302.0,7187.0,8702,9586,10469.0,10834.0
10891,11384,US,135626,26.0736111111,-97.2133333333,Census,City,TX,"Port Isabel, Texas",0,0,0,0,0,0,0,0,0,0,479,0,0,0,1177.0,1440,2372,3575.0,3067.0,3769,4467,4865.0,5006.0
10934,10963,US,136639,32.6561111111,-97.3430555556,Census,Town,TX,"Edgecliff Village, Texas",0,0,0,0,0,0,0,0,0,0,0,0,0,0,0.0,0,0,339.0,1143.0,2695,2715,2550.0,2776.0
10965,10422,US,136766,31.5691666667,-103.006944444,Census,Town,TX,"Wickett, Texas",0,0,0,0,0,0,0,0,0,0,0,0,0,0,0.0,0,0,0.0,598.0,689,560,455.0,498.0
10990,6891,US,136794,33.9372222222,-98.5944444444,Census,Town,TX,"Pleasant Valley, Texas",0,0,0,0,0,0,0,0,0,0,0,0,0,0,0.0,0,0,0.0,323.0,335,378,408.0,336.0
11042,9493,US,151188,31.5847222222,-95.8505555556,Census,Town,TX,"Oakwood, Texas",0,0,0,0,0,0,0,0,0,96,231,0,906,1100,888.0,1086,759,716.0,547.0,606,527,471.0,510.0
11085,18788,US,136713,30.9455555556,-95.3755555556,Census,City,TX,"Trinity, Texas",0,0,0,0,0,0,0,0,0,0,856,0,0,1363,2036.0,2217,2054,1787.0,2512.0,2620,2648,2721.0,2697.0
11094,10280,US,91497,31.89,-102.02,Census,US County,TX,"Midland County, Texas",0,0,0,0,0,0,0,0,0,0,1033,1741,3464,2449,8005.0,11721,25785,67717.0,65433.0,82636,106611,116009.0,136872.0
11103,7014,US,135838,32.2861111111,-96.5452777778,Census,Town,TX,"Alma, Texas",0,0,0,0,0,0,0,0,0,0,0,0,0,0,0.0,0,0,0.0,0.0,171,205,302.0,331.0
11107,6989,US,136230,32.6119444444,-99.8133333333,Census,City,TX,"Hawley, Texas",0,0,0,0,0,0,0,0,0,0,0,0,0,0,0.0,0,0,0.0,0.0,679,606,646.0,634.0
11135,15208,US,91649,30.6666666667,-96.3666666667,Census,US County,TX,"Brazos County, Texas",0,0,0,0,0,0,614,3096,9205,13576,16650,18859,18919,21975,21835.0,26997,38390,44895.0,57978.0,94492,121862,152415.0,194851.0
11149,10675,US,91578,28.65,-97.43,Census,US County,TX,"Goliad County, Texas",0,0,0,0,0,0,648,3384,3628,5832,5910,8310,9909,9348,10093.0,8798,6219,5429.0,4869.0,5193,5980,6928.0,7210.0
11155,7250,US,136038,33.3233333333,-99.6733333333,Census,City,TX,"Weinert, Texas",0,0,0,0,0,0,0,0,0,0,0,0,779,0,0.0,0,288,251.0,255.0,253,235,177.0,172.0
11173,8626,US,135697,33.1013888889,-96.5780555556,Census,City,TX,"Lucas, Texas",0,0,0,0,0,0,0,0,0,0,0,0,0,0,0.0,0,0,0.0,540.0,1371,2205,2890.0,5166.0
11189,9939,US,91567,34.29,-99.75,Census,US County,TX,"Hardeman County, Texas",0,0,0,0,0,0,0,0,0,50,3904,3634,11213,12487,14532.0,11073,10212,8275.0,6795.0,6368,5283,4724.0,4139.0
11197,12235,US,136239,32.5852777778,-96.3077777778,Census,City,TX,"Kaufman, Texas",0,0,0,0,0,0,0,0,0,490,1282,2378,1959,2501,2279.0,2654,2714,3087.0,4012.0,4658,5238,6490.0,6703.0
11200,12889,US,136635,32.855,-97.3380555556,Census,City,TX,"Blue Mound, Texas",0,0,0,0,0,0,0,0,0,0,0,0,0,0,0.0,0,0,1253.0,1283.0,2169,2133,2388.0,2394.0
11201,15566,US,136718,32.5847222222,-95.1122222222,Census,Town,TX,"Big Sandy, Texas",0,0,0,0,0,0,0,0,0,0,323,0,0,658,579.0,609,689,848.0,1022.0,1258,1185,1288.0,1343.0
11202,16031,US,136622,26.4061111111,-99.0055555556,Census,City,TX,"Roma, Texas",0,0,0,0,0,0,0,0,0,0,0,0,0,0,0.0,1414,1576,1496.0,2154.0,3384,8059,9617.0,9765.0
11210,6289,US,136142,33.5933333333,-102.298888889,Census,Town,TX,"Opdyke West, Texas",0,0,0,0,0,0,0,0,0,0,0,0,0,0,0.0,0,0,0.0,0.0,0,100,188.0,174.0
11212,9549,US,136329,33.3169444444,-101.724166667,Census,City,TX,"Wilson, Texas",0,0,0,0,0,0,0,0,0,0,0,0,0,0,0.0,0,0,403.0,433.0,578,568,532.0,489.0
11225,7472,US,136197,30.1516666667,-94.2683333333,Census,City,TX,"Bevil Oaks, Texas",0,0,0,0,0,0,0,0,0,0,0,0,0,0,0.0,0,0,0.0,663.0,1306,1350,1346.0,1274.0
11241,8579,US,135855,31.0752777778,-96.9755555556,Census,City,TX,"Rosebud, Texas",0,0,0,0,0,0,0,0,0,0,0,0,1472,1516,1565.0,1842,1730,1644.0,1597.0,2076,1638,1493.0,1412.0
11245,6990,US,136469,32.5505555556,-98.4980555556,Census,City,TX,"Strawn, Texas",0,0,0,0,0,0,0,0,0,0,514,0,0,2457,1429.0,1107,922,817.0,786.0,694,709,739.0,653.0
11246,8577,US,91490,33.12,-94.73,Census,US County,TX,"Morris County, Texas",0,0,0,0,0,0,0,0,0,5032,6580,8220,10439,10289,10028.0,9810,9433,12576.0,12310.0,14629,13200,13048.0,12934.0
11254,22199,US,136488,30.8913888889,-102.885,Census,City,TX,"Fort Stockton, Texas",0,0,0,0,0,0,0,0,0,0,0,0,0,1297,2695.0,3294,4444,6373.0,8283.0,8688,8524,7846.0,8283.0
11267,6697,US,136139,31.9508333333,-97.3208333333,Census,Town,TX,"Whitney, Texas",0,0,0,0,0,0,0,0,0,526,0,0,766,1011,751.0,824,1383,1050.0,1371.0,1631,1626,1833.0,2087.0
11289,12121,US,136833,33.2094444444,-97.7725,Census,City,TX,"Bridgeport, Texas",0,0,0,0,0,0,0,0,0,39,498,900,2000,1872,2464.0,1735,2049,3218.0,3614.0,3737,3581,4309.0,5976.0
11297,13107,US,135845,32.1227777778,-96.9466666667,Census,Town,TX,"Milford, Texas",0,0,0,0,0,0,0,0,0,164,353,653,766,940,747.0,767,690,590.0,664.0,681,711,685.0,728.0
11312,33082,US,151244,30.4461111111,-97.6238888889,Census,City,TX,"Pflugerville, Texas",0,0,0,0,0,0,0,0,0,0,0,0,0,0,0.0,0,0,0.0,549.0,745,4444,16335.0,46936.0
11334,12521,US,136403,30.4227777778,-95.4788888889,Census,City,TX,"Willis, Texas",0,0,0,0,0,0,0,0,0,656,0,0,0,0,0.0,904,1164,975.0,1577.0,1674,2764,3985.0,5662.0
11356,7819,US,136224,32.4483333333,-97.5294444444,Census,City,TX,"Godley, Texas",0,0,0,0,0,0,0,0,0,0,0,0,0,0,378.0,317,424,401.0,533.0,614,569,879.0,1009.0
11372,9234,US,136479,32.7463888889,-98.0097222222,Census,Town,TX,"Millsap, Texas",0,0,0,0,0,0,0,0,0,0,0,0,0,0,0.0,0,0,0.0,0.0,439,485,353.0,403.0
11375,17311,US,135584,29.8819444444,-97.6761111111,Census,City,TX,"Lockhart, Texas",0,0,0,0,0,0,0,0,560,718,1233,2306,2945,3731,4367.0,5018,5573,6084.0,6489.0,7953,9205,11615.0,12698.0
11384,9801,US,136157,31.4916666667,-95.4802777778,Census,City,TX,"Grapeland, Texas",0,0,0,0,0,0,0,0,0,88,0,0,0,0,1027.0,1327,1358,1113.0,1211.0,1634,1450,1451.0,1489.0
11424,8749,US,136790,35.4425,-100.274166667,Census,City,TX,"Wheeler, Texas",0,0,0,0,0,0,0,0,0,0,0,0,0,0,931.0,848,904,1174.0,1116.0,1584,1393,1378.0,1592.0
11433,9820,US,136376,30.7091666667,-96.8633333333,Census,Town,TX,"Milano, Texas",0,0,0,0,0,0,0,0,0,0,0,0,0,0,0.0,0,0,0.0,0.0,468,408,400.0,428.0
11456,9192,US,136501,32.9030555556,-95.9441666667,Census,City,TX,"East Tawakoni, Texas",0,0,0,0,0,0,0,0,0,0,0,0,0,0,0.0,0,0,0.0,278.0,404,642,775.0,883.0
11472,19122,US,91389,28.86,-99.76,Census,US County,TX,"Zavala County, Texas",0,0,0,0,0,0,0,26,138,410,1097,792,1889,3108,10349.0,11603,11201,12696.0,11370.0,11666,12162,11600.0,11677.0
11501,10376,US,136377,30.6547222222,-97.0075,Census,City,TX,"Rockdale, Texas",0,0,0,0,0,0,0,0,0,1185,1505,2515,2073,2323,2204.0,2136,2321,4481.0,4655.0,5611,5235,5439.0,5595.0
11505,9529,US,135686,31.8277777778,-99.4255555556,Census,City,TX,"Coleman, Texas",0,0,0,0,0,0,0,0,0,0,906,1362,3046,2868,6078.0,6054,6530,6371.0,5608.0,5960,5410,5127.0,4709.0
11508,16633,US,135920,29.4605555556,-95.0538888889,Census,City,TX,"Dickinson, Texas",0,0,0,0,0,0,0,0,0,0,0,0,0,0,760.0,0,2704,4715.0,10776.0,7505,11692,17093.0,18680.0
11510,15096,US,21566565,29.4827777778,-98.4672222222,Census,City,TX,"Alamo Heights, Texas",0,0,0,0,0,0,0,0,0,0,0,0,0,0,3874.0,5700,8000,7552.0,6933.0,6252,6502,7319.0,7031.0
11513,29854,US,136747,28.8169444444,-96.9933333333,Census,City and County seat,TX,"Victoria, Texas",0,0,0,0,0,0,806,1986,2534,0,3046,4010,3673,5957,7421.0,11566,16126,33047.0,41349.0,50695,55076,60603.0,62592.0
