,article_length,country,id,lat,lon,poptype,settlement_type,state,title,y1790,y1800,y1810,y1820,y1830,y1840,y1850,y1860,y1870,y1880,y1890,y1900,y1910,y1920,y1930,y1940,y1950,y1960,y1970,y1980,y1990,y2000,y2010
69,9871,US,137399,43.3744444444,-73.2019444444,Census,Town,VT,"Pawlet, Vermont",1458,1938,2233,2155,1965,1748,1843,1539,1505,1696,1745,1731,1959,1413,1476.0,1192,1156,1112.0,1184.0,1244,1314,1394.0,1477.0
268,20510,US,91380,44.8,-73.29,Census,US County,VT,"Grand Isle County, Vermont",0,0,3445,3527,3696,3883,4145,4276,4082,4124,3843,4462,3761,3784,3944.0,3802,3406,2927.0,3574.0,4613,5318,6901.0,6970.0
300,12359,US,137444,42.7683333333,-72.5191666667,Census,Town,VT,"Vernon, Vermont",482,480,521,627,681,705,821,725,764,652,567,578,606,556,609.0,559,712,865.0,1024.0,1175,1850,2141.0,2206.0
361,9079,US,350746,,,Census,town,VT,"Rutland (town), Vermont",1407,2125,2379,2369,2753,2708,3715,7577,9834,12149,11760,1109,1311,1270,1387.0,1350,1416,1542.0,2248.0,3300,3781,4038.0,4054.0
400,7130,US,137280,44.6425,-71.9802777778,Census,Village,VT,"West Burke, Vermont",0,0,0,0,0,0,0,0,0,0,0,0,325,0,359.0,316,414,369.0,358.0,338,353,364.0,343.0
503,11419,US,137344,44.6436111111,-72.8294444444,Census,Village,VT,"Jeffersonville, Vermont",0,0,0,0,0,0,0,0,0,0,0,0,0,0,305.0,287,387,346.0,382.0,491,462,568.0,729.0
505,18055,US,137381,44.8086111111,-72.2041666667,Census,Village,VT,"Orleans, Vermont",0,0,0,0,0,0,0,0,0,378,482,677,1131,1358,1301.0,1332,1261,1240.0,1138.0,983,806,826.0,818.0
554,9378,US,137339,44.8311111111,-73.2736111111,Census,Town,VT,"North Hero, Vermont",125,324,552,503,638,716,730,594,601,637,550,712,496,494,485.0,442,407,328.0,364.0,442,502,810.0,803.0
558,56305,US,260210,42.8911111111,-73.2080555556,Census,Town,VT,"Bennington, Vermont",2377,2243,2524,2485,3419,3429,3932,4389,5760,6333,6391,8033,8698,9982,10628.0,11257,12411,13002.0,14586.0,15815,16451,15737.0,15764.0
735,7121,US,137423,44.3980555556,-72.5533333333,Census,Town,VT,"Worcester, Vermont",0,25,41,44,432,567,702,684,775,802,725,636,694,463,471.0,396,445,417.0,505.0,727,906,902.0,998.0
803,13140,US,137334,44.8791666667,-72.6116666667,Census,Town,VT,"Montgomery, Vermont",0,41,237,293,460,548,1001,1262,1423,1642,1734,1876,1721,1658,1386.0,1208,1091,876.0,651.0,681,823,992.0,1201.0
956,7515,US,137395,43.65,-72.8947222222,Census,Town,VT,"Mendon, Vermont",34,39,111,174,432,545,504,633,612,629,570,392,321,264,251.0,313,334,461.0,743.0,1056,1049,1028.0,1059.0
1028,8424,US,137365,44.1161111111,-72.5408333333,Census,Town,VT,"Williamstown, Vermont",146,839,1353,1481,1487,1620,1452,1377,1236,1038,1188,1610,1726,1526,1608.0,1477,1600,1553.0,1822.0,2284,2839,3225.0,3389.0
1221,9603,US,137315,44.9702777778,-71.8222222222,Census,Town,VT,"Norton, Vermont",0,0,0,0,0,0,0,32,303,239,960,692,479,336,339.0,314,279,241.0,207.0,184,169,214.0,169.0
1252,8301,US,137454,43.6194444444,-72.6719444444,Census,Town,VT,"Bridgewater, Vermont",293,781,1125,1125,1311,1363,1311,1292,1141,1084,1124,972,874,808,741.0,895,903,776.0,783.0,867,895,980.0,936.0
1325,7989,US,137276,44.545,-72.2202777778,Census,Town,VT,"Stannard, Vermont",0,0,0,0,0,0,215,240,228,252,239,222,206,173,154.0,140,116,113.0,88.0,142,148,185.0,216.0
1330,8269,US,137461,43.5316666667,-72.7216666667,Census,Town,VT,"Plymouth, Vermont",106,497,834,1112,1237,1417,1226,1252,1285,1075,755,646,482,449,331.0,432,348,308.0,283.0,405,440,555.0,619.0
1691,11030,US,260278,43.6236111111,-72.5172222222,Census,Village,VT,"Woodstock (village), Vermont",0,0,0,0,0,0,0,0,0,1266,1218,1284,1383,1252,1312.0,1325,1326,1415.0,1154.0,1178,1037,977.0,900.0
1756,18096,US,137295,44.5986111111,-72.9977777778,Census,Town,VT,"Westford, Vermont",63,648,1107,1025,1290,1352,1458,1231,1237,1133,1033,888,854,706,698.0,698,585,680.0,991.0,1413,1740,2086.0,2029.0
1833,10344,US,137300,44.7955555556,-71.635,Census,Town,VT,"Bloomfield, Vermont",0,27,144,132,150,179,244,320,455,627,827,504,496,382,417.0,326,291,212.0,196.0,188,253,261.0,221.0
1897,13121,US,137294,44.5358333333,-72.9238888889,Census,Town,VT,"Underhill, Vermont",65,212,490,633,1052,1441,1599,1637,1655,1439,1301,1140,1004,896,781.0,760,698,730.0,1198.0,2172,2799,2980.0,3016.0
2004,19108,US,260239,44.7477777778,-72.1758333333,Unknown,Village,VT,"Barton (village), Vermont",0,0,0,0,0,0,0,0,0,742,778,1050,1330,1187,1363.0,1262,1267,1169.0,1057.0,1062,908,742.0,737.0
2037,16258,US,137439,43.1658333333,-72.4816666667,Census,Town,VT,"Rockingham, Vermont",1235,1684,1954,2155,2272,2330,2837,2904,2854,3797,4579,5809,6207,6231,5302.0,5737,5499,5704.0,5501.0,5538,5484,5309.0,5282.0
2264,13435,US,260225,44.9750388889,-73.3001305556,Census,Town,VT,"Alburgh (town), Vermont",446,750,1106,1172,1239,1344,1568,1793,1716,1614,1390,1474,1211,1491,1609.0,1623,1402,1123.0,1271.0,1352,1362,1952.0,1998.0
2351,10330,US,137252,43.25986,-73.22285,Census,Town,VT,"Rupert, Vermont",1033,1648,1630,1332,1318,1091,1101,1103,1017,957,861,863,825,674,691.0,678,713,603.0,582.0,605,654,704.0,714.0
2374,14768,US,137436,42.8630555556,-72.7322222222,Census,Town,VT,"Marlboro, Vermont",629,1087,1245,1296,1218,1027,896,741,665,553,495,448,442,300,255.0,225,311,347.0,592.0,695,924,978.0,1078.0
2483,16041,US,137356,43.952,-72.665,Census,Town,VT,"Randolph, Vermont",892,1841,2255,2487,2743,2678,2666,2502,2829,2910,3232,3141,3191,3010,3166.0,3278,3499,3414.0,3882.0,4689,4764,4853.0,4778.0
2530,19638,US,91386,44.05,-73.1166666667,Census,US County,VT,"Addison County, Vermont",6420,13417,19998,20469,24940,23583,26549,24010,23484,24173,22277,21912,20010,18666,17952.0,17944,19442,20076.0,24266.0,29406,32953,35974.0,36821.0
2546,14808,US,137291,44.3897222222,-73.2247222222,Census,Town,VT,"Shelburne, Vermont",389,723,987,936,1123,1089,1257,1178,1190,1096,1300,1202,1097,997,1006.0,1010,1365,1805.0,3728.0,5000,5871,6944.0,7144.0
2593,9679,US,137302,44.7286111111,-71.6611111111,Census,Town,VT,"Brunswick, Vermont",66,86,143,124,160,130,119,212,221,193,160,166,82,89,73.0,86,73,62.0,45.0,82,92,107.0,112.0
2689,10538,US,137331,44.9725,-72.8886111111,Census,Town,VT,"Franklin, Vermont",46,280,714,631,1129,1410,1646,1781,1612,1439,1300,1145,1108,994,1001.0,1021,878,796.0,821.0,1006,1068,1268.0,1405.0
2749,8260,US,137249,43.2438888889,-72.8983333333,Census,Town,VT,"Peru, Vermont",71,130,239,314,455,578,567,543,500,556,445,373,242,216,156.0,142,197,194.0,243.0,312,324,416.0,375.0
2903,7925,US,137238,44.0519444444,-73.2180555556,Census,Town,VT,"Weybridge, Vermont",175,502,750,714,850,797,804,667,627,608,543,518,494,438,418.0,385,402,430.0,618.0,667,749,824.0,833.0
3011,11837,US,137382,44.4491666667,-72.3972222222,Census,Town,VT,"Troy, Vermont",0,0,231,227,608,855,1008,1246,1355,1522,1673,1467,1686,1869,1898.0,1869,1786,1613.0,1457.0,1498,1609,1564.0,1662.0
3032,19087,US,137370,44.9666666667,-72.1333333333,Census,Town,VT,"Derby, Vermont",0,178,714,925,1469,1681,1750,1906,2039,1967,2900,3274,2530,2201,2165.0,2118,2245,2506.0,3252.0,4222,4479,4604.0,4621.0
3058,11583,US,22116822,44.0669444444,-73.3708333333,Census,Town,VT,"Addison, Vermont",401,734,1100,1210,1306,1229,1279,1000,911,847,900,851,796,743,684.0,576,628,645.0,717.0,889,1023,1393.0,1371.0
3076,24238,US,137261,44.3080555556,-72.0833333333,Census,Town,VT,"Barnet, Vermont",477,858,1301,1488,1764,2030,2521,1994,1945,1907,1897,1763,1707,1685,2604.0,1596,1425,1445.0,1342.0,1338,1415,1690.0,1708.0
3102,9559,US,137232,43.9816666667,-73.0155555556,Census,Town,VT,"Ripton, Vermont",0,0,15,42,278,357,567,570,617,672,568,525,421,237,194.0,231,207,131.0,187.0,327,444,556.0,588.0
3250,7741,US,137320,44.7883333333,-72.7977777778,Census,Town,VT,"Bakersfield, Vermont",13,222,812,945,1087,1258,1523,1451,1403,1248,1162,1158,1079,980,889.0,827,779,664.0,635.0,852,977,1215.0,1322.0
3297,7358,US,137392,43.7230555556,-73.1875,Census,Town,VT,"Hubbardton, Vermont",404,641,724,810,865,719,701,606,606,533,506,488,455,328,307.0,346,332,238.0,228.0,490,576,752.0,706.0
3321,28583,US,41992,44.2597222222,-72.575,Census,City,VT,"Montpelier, Vermont",0,890,1877,2308,1193,3725,2310,2411,3023,3219,4160,6266,7856,7125,7837.0,8006,8559,8782.0,8609.0,8241,8247,8035.0,7855.0
3402,7408,US,137441,42.9666666667,-72.9666666667,Census,Town,VT,"Somerset, Vermont",111,130,199,173,245,262,321,105,80,67,61,67,27,59,20.0,5,8,4.0,0.0,2,2,5.0,3.0
3464,10054,US,260211,43.1619444444,-73.0716666667,Census,Village,VT,"Manchester (village), Vermont",0,0,0,0,0,0,0,0,0,0,0,0,478,423,337.0,325,454,403.0,435.0,563,561,602.0,749.0
3478,8520,US,137275,44.6330555556,-72.1325,Census,Town,VT,"Sheffield, Vermont",0,170,388,581,720,821,797,836,811,884,750,724,691,594,543.0,465,451,342.0,307.0,435,541,727.0,703.0
3574,7686,US,137306,44.6641666667,-71.8883333333,Census,Town,VT,"East Haven, Vermont",0,0,0,0,33,79,94,136,191,225,236,171,194,148,99.0,92,85,164.0,197.0,280,269,301.0,290.0
3819,7526,US,260248,43.5175,-73.2355555556,Census,Village,VT,"Poultney (village), Vermont",0,0,0,0,0,0,0,0,0,943,1070,0,1474,1371,1570.0,1333,1685,1810.0,1914.0,1554,1731,1575.0,1612.0
4088,33342,US,350747,43.6088888889,-72.9797222222,Census,City,VT,"Rutland (city), Vermont",0,0,0,0,0,0,0,0,0,7502,8239,11499,13546,14954,17315.0,17082,17659,18325.0,19293.0,18436,18230,17292.0,16495.0
4343,16287,US,91376,44.01,-72.38,Census,US County,VT,"Orange County, Vermont",10526,18238,25247,24681,27285,27873,27296,25455,23090,23525,19575,19313,18703,17279,16694.0,17048,17027,16014.0,17676.0,22739,26149,28226.0,28936.0
4400,13955,US,137236,44.1655555556,-73.2522222222,Census,City,VT,"Vergennes, Vermont",201,516,835,817,999,1017,1378,1286,1570,1782,1773,1753,1483,1609,1705.0,1662,1736,1921.0,2242.0,2273,2578,2741.0,2588.0
4421,7829,US,137272,44.7022222222,-71.9427777778,Census,Town,VT,"Newark, Vermont",0,8,88,154,257,360,434,567,593,679,536,500,415,364,301.0,242,192,151.0,144.0,280,354,470.0,581.0
4494,17884,US,137220,44.1333333333,-73.0794444444,Census,Town,VT,"Bristol, Vermont",211,665,1179,1051,1274,1233,1344,1355,1365,1579,1828,2061,2005,1952,1832.0,1939,1988,2159.0,2744.0,3293,3762,3788.0,3894.0
4539,10143,US,137421,44.1069444444,-72.8580555556,Census,Town,VT,"Warren, Vermont",0,58,229,320,766,943,962,1041,1008,951,866,826,825,654,486.0,450,498,469.0,588.0,956,1172,1681.0,1705.0
4580,12176,US,137377,44.965,-72.4597222222,Census,Town,VT,"Jay, Vermont",0,0,28,52,196,306,371,474,553,696,641,530,513,368,274.0,230,243,197.0,182.0,302,381,426.0,521.0
4637,14426,US,137410,44.3633333333,-72.4663888889,Census,Town,VT,"Calais, Vermont",0,443,841,1111,1539,1709,1410,1409,1309,1253,1062,1101,1042,860,812.0,818,778,684.0,749.0,1207,1521,1529.0,1607.0
4682,12281,US,260274,43.3952777778,-72.7022222222,Census,Village,VT,"Ludlow (village), Vermont",0,0,0,0,0,0,0,0,0,1179,1081,1454,1621,1732,1642.0,1780,1678,1658.0,1508.0,1352,1123,958.0,811.0
4748,7086,US,260265,44.3397222222,-72.7502777778,Census,Village,VT,"Waterbury (village), Vermont",0,0,0,0,0,0,0,0,0,756,955,1597,1377,1515,1776.0,3074,3153,2984.0,2840.0,1892,1702,1706.0,1763.0
4754,9269,US,137219,43.9875,-73.3513888889,Census,Town,VT,"Bridport, Vermont",449,1124,1520,1511,1774,1480,1393,1298,1171,1167,1018,956,848,745,703.0,665,663,653.0,809.0,997,1137,1235.0,1218.0
4767,12401,US,137333,44.9388888889,-73.0433333333,Census,Town,VT,"Highgate, Vermont",103,437,1374,1250,2038,2292,2653,2526,2260,2088,1853,1980,1758,1528,1574.0,1647,1681,1608.0,1936.0,2493,3020,3397.0,3535.0
4816,9067,US,137325,44.8144444444,-72.9263888889,Census,Town,VT,"Fairfield, Vermont",129,901,1618,1573,2270,2448,2591,2497,2391,2172,1825,1830,1778,1532,1541.0,1444,1428,1225.0,1285.0,1493,1680,1800.0,1891.0
4989,8191,US,137364,43.9222222222,-72.2344444444,Census,Town,VT,"West Fairlee, Vermont",0,391,983,1143,841,824,696,830,833,1038,561,531,446,387,405.0,428,363,333.0,337.0,427,633,726.0,652.0
5142,13640,US,137429,42.9225,-72.5777777778,Census,Town,VT,"Dummerston, Vermont",1501,1692,1704,1658,1592,1263,1645,1021,916,816,860,726,643,570,604.0,615,790,872.0,1295.0,1574,1863,1915.0,1864.0
5151,12540,US,137458,43.665,-72.3716666667,Census,Town,VT,"Hartford, Vermont",988,1494,1881,2010,2044,2194,2159,2396,2480,2954,3740,3817,4197,4739,4888.0,4978,5827,6355.0,6477.0,7963,9404,10367.0,9952.0
5182,9522,US,137361,43.9483333333,-72.3208333333,Census,Town,VT,"Vershire, Vermont",439,1031,1311,1296,1260,1098,1071,1054,1140,1875,754,641,448,410,368.0,367,284,236.0,299.0,442,560,629.0,730.0
5289,20781,US,137386,43.6255555556,-73.1933333333,Census,Town,VT,"Castleton, Vermont",800,1039,1420,1541,1783,1769,3016,2852,3243,2605,2396,2089,1885,1919,1794.0,1601,1748,1902.0,2837.0,3637,4278,4367.0,4717.0
5347,9587,US,137435,43.2058333333,-72.8130555556,Census,Town,VT,"Londonderry, Vermont",362,330,637,958,1302,1216,1274,1367,1252,1154,1010,961,962,911,799.0,859,953,898.0,1037.0,1510,1506,1709.0,1769.0
5381,12972,US,260270,42.9833333333,-72.6833333333,Census,Town,VT,"Newfane, Vermont",660,1000,1276,1506,1441,1043,1304,1192,1113,1031,952,905,820,710,662.0,672,708,714.0,900.0,1129,1555,1680.0,1726.0
5411,19742,US,137455,43.3863888889,-72.6125,Census,Town,VT,"Cavendish, Vermont",491,922,1295,1551,1498,1427,1576,1539,1823,1276,1172,1352,1208,1319,1418.0,1398,1374,1223.0,1264.0,1355,1323,1470.0,1367.0
5496,19939,US,137292,44.4519444444,-73.1816666667,Census,City,VT,"South Burlington, Vermont",0,65,68,120,135,121,127,121,791,664,845,971,927,938,1203.0,1736,3279,6903.0,10032.0,10679,12809,15814.0,17904.0
5738,8030,US,137242,43.8644444444,-73.2113888889,Census,Town,VT,"Whiting, Vermont",250,404,565,609,653,660,629,542,430,455,355,361,348,302,358.0,312,282,304.0,359.0,379,407,380.0,419.0
5815,7858,US,137253,43.1536111111,-73.1891666667,Census,Town,VT,"Sandgate, Vermont",773,1020,1187,1185,933,777,850,805,705,681,587,482,401,283,189.0,187,158,93.0,127.0,234,278,353.0,405.0
5930,14311,US,260249,,,Census,town,VT,"Poultney (town), Vermont",1121,1694,1905,1955,1909,1880,2329,2278,2836,2717,3031,3108,3644,2868,3215.0,2781,2936,3009.0,3217.0,3196,3498,3633.0,3432.0
6051,9464,US,137281,44.5683333333,-72.1061111111,Census,Town,VT,"Wheelock, Vermont",33,568,964,906,834,881,855,832,822,829,596,567,500,526,412.0,293,287,246.0,238.0,444,481,621.0,811.0
6072,13316,US,137453,43.8444444444,-72.6461111111,Census,Town,VT,"Bethel, Vermont",473,913,1041,1318,1667,1886,1730,1834,1817,1693,1448,1611,1943,1782,1650.0,1477,1534,1356.0,1347.0,1715,1866,1968.0,2030.0
6164,8766,US,137269,44.5166666667,-71.9333333333,Census,Town,VT,"Kirby, Vermont",0,20,311,312,401,520,509,473,417,398,355,350,297,324,311.0,252,257,235.0,224.0,282,347,456.0,493.0
6183,17171,US,18948525,43.9947222222,-72.1327777778,Census,Town,VT,"Bradford, Vermont",654,1064,1302,1411,1507,1655,1723,1689,1492,1520,1429,1338,1372,1422,1235.0,1507,1551,1619.0,1527.0,2191,2522,2619.0,2797.0
6259,8292,US,137467,43.7616666667,-72.7369444444,Census,Town,VT,"Stockbridge, Vermont",100,432,700,964,1333,1499,1327,1264,1269,1124,894,822,737,618,460.0,490,427,392.0,389.0,508,618,674.0,736.0
6262,8912,US,137350,43.9616666667,-72.705,Census,Town,VT,"Braintree, Vermont",221,531,850,1033,1209,1332,1228,1225,1066,1051,854,776,760,707,635.0,648,626,536.0,751.0,1065,1174,1194.0,1246.0
6479,13117,US,137415,44.3111111111,-72.6388888889,Census,Town,VT,"Middlesex, Vermont",0,262,401,726,1156,1270,1365,1254,1171,1087,889,883,858,762,751.0,817,887,770.0,857.0,1235,1514,1729.0,1731.0
6549,7366,US,137432,42.7819444444,-72.7494444444,Census,Town,VT,"Halifax, Vermont",1309,1600,1758,1567,1562,1399,1133,1126,1029,852,702,662,635,504,390.0,353,343,268.0,295.0,488,588,782.0,720.0
6593,9870,US,137337,44.7125,-73.3052777778,Census,Town,VT,"Grand Isle, Vermont",0,678,623,698,648,724,666,708,682,749,793,851,839,808,857.0,791,735,624.0,809.0,1238,1642,1955.0,2067.0
7012,9434,US,137332,44.7136111111,-73.1105555556,Census,Town,VT,"Georgia, Vermont",340,1068,1760,1703,1897,2106,2686,1547,1603,1504,1282,1280,1090,1075,1090.0,1008,1055,1079.0,1711.0,2818,3753,4375.0,4515.0
7018,9127,US,260271,43.0694444444,-72.4538888889,Census,Village,VT,"Westminster (village), Vermont",0,0,0,0,0,0,0,0,0,0,0,0,0,313,320.0,270,298,333.0,446.0,319,399,276.0,291.0
7106,5879,US,137312,,,Census,Town,VT,"Lewis, Vermont",0,0,0,0,0,0,0,0,0,0,0,8,0,0,0.0,0,0,0.0,0.0,0,0,0.0,0.0
7177,21060,US,91382,,,Census,US County,VT,"Essex County, Vermont",0,1479,3087,3284,3981,4226,4650,5786,6811,7931,9511,8056,7384,7364,7067.0,6490,6257,6083.0,5416.0,6313,6405,6459.0,6306.0
7194,10250,US,137390,43.3666666667,-73.05,Census,Town,VT,"Danby, Vermont",1206,1487,1730,1607,1362,1379,1535,1419,1319,1202,1084,964,1001,1007,1070.0,1112,990,891.0,910.0,992,1193,1292.0,1311.0
7255,6401,US,260261,44.3508333333,-72.3508333333,Census,Village,VT,"Marshfield (village), Vermont",0,0,0,0,0,0,0,0,0,0,0,0,0,244,207.0,292,274,313.0,322.0,301,257,262.0,273.0
7315,6309,US,137398,43.3291666667,-72.96,Census,Town,VT,"Mount Tabor, Vermont",165,153,209,222,210,226,308,358,301,495,436,494,289,165,173.0,213,186,165.0,184.0,211,214,203.0,255.0
7334,7920,US,137226,43.8697222222,-73.0988888889,Census,Town,VT,"Leicester, Vermont",343,522,609,548,638,602,596,737,630,634,562,509,479,436,468.0,518,511,551.0,583.0,803,871,974.0,1100.0
7559,17274,US,137456,43.2880555556,-72.615,Census,Town,VT,"Chester, Vermont",981,1878,2370,2493,2320,2305,2001,2126,2052,1901,1787,1775,1784,1633,1666.0,1740,1981,2318.0,2371.0,2791,2832,3044.0,3154.0
7658,22786,US,91372,42.99,-72.72,Census,US County,VT,"Windham County, Vermont",17572,23581,26760,28457,28748,27442,29062,26982,26036,26763,26547,26660,26932,26373,26015.0,27850,28749,29776.0,33074.0,36933,41588,44216.0,44513.0
7721,10382,US,137402,43.6666666667,-73.0333333333,Census,Town,VT,"Proctor, Vermont",0,0,0,0,0,0,0,0,0,0,1758,2136,2871,2789,2596.0,2292,1917,2102.0,2095.0,1998,1979,1877.0,1741.0
7789,16086,US,137222,44.2025,-73.2763888889,Census,Town,VT,"Ferrisburgh, Vermont",481,956,1647,1581,1822,1755,2075,1738,1768,1684,1501,1619,1433,1338,1285.0,1347,1387,1426.0,1875.0,2117,2317,2657.0,2775.0
7950,11651,US,137303,44.9833333333,-71.55,Census,Town,VT,"Canaan, Vermont",19,45,332,227,373,378,471,408,419,637,829,934,869,982,906.0,872,969,1094.0,949.0,1196,1121,1078.0,972.0
8007,12163,US,137301,44.8088888889,-71.8694444444,Census,Town,VT,"Brighton, Vermont",0,0,144,0,105,157,193,945,1535,1691,2020,2023,2013,2280,2002.0,1754,1671,1545.0,1365.0,1557,1562,1260.0,1222.0
8075,7623,US,137257,42.77,-73.08,Census,Town,VT,"Stamford, Vermont",272,383,378,490,563,662,833,759,633,726,645,677,510,374,370.0,418,514,600.0,752.0,773,773,813.0,824.0
8081,10903,US,137227,44.0919444444,-72.9813888889,Census,Town,VT,"Lincoln, Vermont",0,97,255,278,639,770,1057,1070,1174,1368,1255,1152,980,841,800.0,745,577,481.0,599.0,870,974,1214.0,1271.0
8306,17111,US,137243,43.2666666667,-73.0666666667,Census,Town,VT,"Dorset, Vermont",958,1286,1294,1359,1507,1432,1700,2090,2195,2005,1696,1477,1472,1226,1120.0,1128,1150,1150.0,1293.0,1648,1918,2036.0,2031.0
8411,10655,US,137282,44.4025,-72.8761111111,Census,Town,VT,"Bolton, Vermont",88,219,249,306,452,470,602,645,711,674,547,486,469,390,325.0,287,301,237.0,427.0,715,971,971.0,1182.0
8528,14616,US,137378,44.795,-72.4494444444,Census,Town,VT,"Lowell, Vermont",0,0,0,144,314,431,637,813,942,1067,1178,983,1086,1005,725.0,615,643,617.0,515.0,573,594,738.0,879.0
8609,8230,US,137450,43.2727777778,-72.7180555556,Census,Town,VT,"Andover, Vermont",27,1016,957,1000,975,878,725,670,588,564,418,372,284,294,258.0,213,185,215.0,239.0,350,373,496.0,467.0
8744,8518,US,137447,42.7833333333,-72.85,Census,Town,VT,"Whitingham, Vermont",442,868,1248,1397,1477,1391,1380,1372,1263,1240,1191,1042,969,811,734.0,789,816,838.0,1011.0,1043,1177,1298.0,1357.0
8803,8919,US,137403,43.5258333333,-72.855,Census,Town,VT,"Shrewsbury, Vermont",383,748,990,1148,1289,1218,1268,1175,1145,1235,974,935,751,620,540.0,537,464,445.0,570.0,866,1107,1108.0,1056.0
9165,8391,US,137407,43.4336111111,-73.1958333333,Census,Town,VT,"Wells, Vermont",622,978,1040,986,880,740,804,642,483,665,621,606,569,521,515.0,420,487,419.0,560.0,815,902,1121.0,1150.0
9279,8614,US,137235,44.2061111111,-73.0175,Census,Town,VT,"Starksboro, Vermont",40,359,726,914,1342,1263,1400,1437,1361,1249,1070,902,835,806,687.0,744,576,502.0,668.0,1336,1511,1898.0,1777.0
9413,12578,US,137384,44.7569444444,-72.0261111111,Census,Town,VT,"Westmore, Vermont",0,0,126,0,132,122,152,324,412,480,395,390,331,287,224.0,224,210,179.0,195.0,257,305,306.0,350.0
9484,7737,US,137278,44.48,-72.2461111111,Census,Town,VT,"Walden, Vermont",11,153,455,580,827,913,910,1099,992,931,810,764,739,674,664.0,547,481,427.0,442.0,575,703,782.0,935.0
9498,9870,US,137221,43.9655555556,-73.2202777778,Census,Town,VT,"Cornwall, Vermont",826,1163,1279,1120,1264,1163,1155,977,969,1070,927,850,789,782,640.0,670,728,756.0,900.0,993,1101,1136.0,1185.0
9544,10275,US,137379,44.9052777778,-71.9902777778,Census,Town,VT,"Morgan, Vermont",0,0,135,116,331,422,486,548,614,711,520,510,463,368,363.0,335,296,260.0,286.0,460,497,669.0,749.0
9618,10452,US,137335,44.9883333333,-72.6477777778,Census,Town,VT,"Richford, Vermont",0,113,440,440,704,914,1074,1338,1481,1818,2196,2421,2907,2842,2544.0,2646,2643,2316.0,2116.0,2206,2178,2321.0,2308.0
9625,9236,US,137311,44.9238888889,-71.5569444444,Census,Town,VT,"Lemington, Vermont",31,52,132,139,183,124,187,207,191,222,227,204,138,145,133.0,131,105,112.0,120.0,108,102,107.0,104.0
9629,16556,US,137338,44.8663888889,-73.3308333333,Census,Town,VT,Isle La Motte,0,135,623,312,459,435,476,564,497,505,551,608,510,385,352.0,335,295,238.0,262.0,393,408,488.0,471.0
9632,9446,US,137443,43.0472222222,-72.6838888889,Census,Town,VT,"Townshend, Vermont",676,1083,1115,1406,1386,1345,1354,1376,1171,1099,865,833,817,786,633.0,694,584,643.0,668.0,859,1019,1149.0,1232.0
9667,9825,US,260232,44.6438888889,-72.6811111111,Census,Town,VT,"Johnson, Vermont",93,341,494,778,1079,1410,1381,1526,1558,1495,1462,1391,1526,1478,1378.0,1420,1527,1478.0,1927.0,2581,3156,3274.0,3446.0
9682,16686,US,137431,42.7663888889,-72.6263888889,Census,Town,VT,"Guilford, Vermont",2432,2256,1872,1862,1760,1525,1389,1291,1277,1096,870,782,769,684,663.0,686,796,823.0,1108.0,1532,1941,2046.0,2121.0
9722,10431,US,137313,44.4677777778,-71.6872222222,Census,Town,VT,"Lunenburg, Vermont",119,393,714,856,1054,1130,1123,1034,999,1038,1019,968,880,1048,1400.0,1374,1299,1237.0,1061.0,1138,1176,1328.0,1302.0
9730,20330,US,137250,42.8,-73.2166666667,Census,Town,VT,"Pownal, Vermont",1746,1692,1655,1812,1835,1613,1742,1731,1705,2019,1919,1976,1599,1396,1425.0,1402,1453,1509.0,2441.0,3269,3485,3560.0,3527.0
9745,10646,US,137251,42.7722222222,-72.9472222222,Census,Town,VT,"Readsboro, Vermont",64,234,410,530,662,767,857,930,828,743,910,1139,1252,1173,1043.0,913,847,783.0,638.0,638,762,809.0,763.0
9945,7326,US,137451,43.35,-72.5666666667,Census,Town,VT,"Baltimore, Vermont",0,174,207,204,179,155,124,116,83,71,64,55,54,62,69.0,85,89,90.0,170.0,181,190,250.0,244.0
9960,10891,US,137234,43.8919444444,-73.3125,Census,Town,VT,"Shoreham, Vermont",721,1447,2033,1881,2137,1675,1601,1382,1225,1354,1240,1193,1098,925,948.0,865,829,786.0,790.0,972,1115,1222.0,1265.0
9978,13091,US,137367,44.8416666667,-72.0130555556,Census,Town,VT,"Charleston, Vermont",0,0,56,90,564,731,1008,1160,1278,1204,1058,1025,993,921,895.0,834,764,668.0,654.0,851,844,895.0,1023.0
10194,7571,US,137449,43.1736111111,-72.7238888889,Census,Town,VT,"Windham, Vermont",0,429,782,931,847,757,763,680,544,536,379,356,345,261,254.0,183,146,135.0,174.0,223,251,328.0,419.0
10375,11601,US,137375,44.97,-72.01,Census,Town,VT,"Holland, Vermont",0,0,128,100,422,605,669,748,881,913,878,838,722,714,580.0,533,406,376.0,383.0,473,423,588.0,629.0
10389,9243,US,137228,44.22,-73.1255555556,Census,Town,VT,"Monkton, Vermont",450,880,1248,1152,1384,1310,1246,1123,1006,1025,847,912,724,671,683.0,575,520,551.0,765.0,1201,1482,1759.0,1980.0
10483,7068,US,260263,44.1511111111,-72.6575,Census,Village,VT,"Northfield (village), Vermont",0,0,0,0,0,0,0,0,0,1313,1222,1508,1918,1916,2075.0,2129,2262,2159.0,2139.0,2033,1889,3208.0,2101.0
10694,12577,US,137271,44.5341666667,-72.0008333333,Census,Village,VT,"Lyndonville, Vermont",0,0,0,0,0,0,0,0,0,788,606,1274,1573,1878,1559.0,1444,1506,1477.0,1415.0,1401,1255,1227.0,1207.0
10772,21118,US,137369,44.6580555556,-72.3791666667,Census,Town,VT,"Craftsbury, Vermont",18,229,566,605,982,1151,1223,1413,1330,1381,1271,1251,1119,1042,976.0,875,709,674.0,632.0,844,994,1136.0,1206.0
10802,12942,US,137255,42.9630555556,-73.2075,Census,Town,VT,"Shaftsbury, Vermont",1999,1895,1973,2022,2143,1835,1896,1936,2027,1887,1652,1857,1650,1534,1631.0,1577,1673,1939.0,2411.0,3001,3368,3767.0,3590.0
11073,13244,US,14574993,42.8830555556,-72.8672222222,Census,Town,VT,"Wilmington, Vermont",645,1011,1193,1369,1367,1296,1372,1424,1246,1130,1106,1221,1229,1483,1171.0,1221,1169,1245.0,1586.0,1808,1968,2225.0,1876.0
11445,8122,US,260269,42.9877777778,-72.6558333333,Census,Village,VT,"Newfane (village), Vermont",0,0,0,0,0,0,0,0,0,0,0,0,136,122,160.0,160,156,146.0,183.0,119,164,116.0,118.0
11483,22687,US,137376,44.8061111111,-72.2677777778,Census,Town,VT,"Irasburg, Vermont",0,15,292,432,860,971,1034,1131,1085,1064,999,939,983,999,924.0,852,711,711.0,775.0,870,907,1077.0,1163.0
11549,15840,US,260223,44.9097222222,-73.1205555556,Census,Town,VT,"Swanton (town), Vermont",74,858,1657,1607,2158,2313,2824,2678,2866,3079,3231,3745,3628,3343,3433.0,3543,3740,3946.0,4622.0,5141,5636,6203.0,6427.0
11582,14805,US,350749,43.5980555556,-73.0508333333,Census,Town,VT,"West Rutland, Vermont",0,0,0,0,0,0,0,0,0,2379,3680,2914,3427,3391,3421.0,2922,2487,2302.0,2381.0,2351,2448,2535.0,2326.0
11599,9001,US,137308,44.6125,-71.7152777778,Census,Town,VT,"Granby, Vermont",0,69,120,49,97,105,127,132,174,194,361,182,95,70,69.0,76,74,56.0,52.0,70,85,86.0,88.0
11626,10014,US,137342,44.7113888889,-72.5402777778,Census,Town,VT,"Eden, Vermont",0,29,224,201,461,702,668,919,958,934,851,788,751,619,568.0,498,496,430.0,513.0,612,840,1152.0,1323.0
11647,22976,US,260258,,,Census,City,VT,"Barre (city), Vermont",0,0,0,0,0,0,1845,1839,1882,2060,6812,8448,10734,10008,11307.0,10909,10922,10387.0,10209.0,9824,9482,9291.0,9052.0
11671,10680,US,260228,44.6411111111,-72.8352777778,Census,Town,VT,"Cambridge, Vermont",359,733,990,1176,1613,1790,1849,1784,1651,1750,1689,1606,1696,1593,1402.0,1383,1435,1295.0,1528.0,2019,2667,3186.0,3659.0
11781,10587,US,137265,44.6155555556,-71.9541666667,Census,Town,VT,"Burke, Vermont",0,108,460,541,866,997,1103,1138,1162,1252,1198,1184,1183,1041,1016.0,998,1042,922.0,1053.0,1385,1406,1571.0,1753.0
11809,17188,US,137374,44.5891666667,-72.3002777778,Census,Town,VT,"Greensboro, Vermont",19,280,566,625,784,883,1008,1065,1027,1061,918,874,931,905,831.0,768,737,600.0,593.0,677,717,770.0,762.0
11881,20326,US,137286,44.5019444444,-73.0938888889,Census,Town,VT,"Essex, Vermont",354,729,957,1089,1664,1824,2052,1906,2022,2104,2013,2203,2714,2449,2876.0,3059,3931,7090.0,10951.0,14392,16498,18626.0,19587.0
11996,14704,US,137438,43.0002777778,-72.5172222222,Census,Town,VT,"Putney, Vermont",1848,1574,1607,1547,1510,1382,1425,1163,1167,1124,1075,969,788,761,835.0,904,1019,1177.0,1727.0,1850,2352,2634.0,2702.0
12082,6564,US,260229,44.595,-72.615,Census,Village,VT,"Hyde Park (village), Vermont",0,0,0,0,0,0,0,0,0,0,0,422,423,368,313.0,330,440,474.0,418.0,475,457,415.0,462.0
12102,8270,US,137345,44.5536111111,-72.6066666667,Census,Town,VT,"Morristown, Vermont",10,144,550,726,1315,1502,1441,1751,1897,2099,2411,2533,2652,2813,2939.0,3130,3225,3347.0,4052.0,4448,4733,5139.0,5227.0
12149,7457,US,137422,44.4341666667,-72.4125,Census,Town,VT,"Woodbury, Vermont",0,23,254,432,824,1092,1070,999,902,856,810,862,824,686,529.0,463,449,317.0,399.0,573,766,809.0,906.0
12260,11851,US,137230,43.8083333333,-73.2836111111,Census,Town,VT,"Orwell, Vermont",778,1376,1849,1730,1598,1504,1470,1341,1192,1351,1265,1150,1065,942,835.0,876,902,826.0,851.0,901,1114,1185.0,1250.0
12302,11718,US,137462,43.6975,-72.5202777778,Census,Town,VT,"Pomfret, Vermont",710,1106,1433,1635,1867,1774,1546,1376,1251,1139,865,777,703,732,728.0,686,586,600.0,620.0,856,874,997.0,904.0
12409,19269,US,137360,43.9,-72.4880555556,Census,Town,VT,"Tunbridge, Vermont",487,1314,1640,2003,1920,1811,1786,1546,1405,1252,1011,885,918,907,903.0,882,774,743.0,791.0,925,1154,1309.0,1284.0
12447,22351,US,137268,44.5180555556,-72.3497222222,Census,Town,VT,"Hardwick, Vermont",3,260,735,867,1216,1354,1402,1369,1519,1484,1547,2466,3201,2641,2720.0,2605,2629,2349.0,2466.0,2613,2964,3174.0,3010.0
12630,7690,US,137396,43.4752777778,-73.1252777778,Census,Town,VT,"Middletown Springs, Vermont",699,1066,1207,1039,919,1057,875,712,777,823,786,746,716,567,583.0,493,496,381.0,426.0,603,686,823.0,745.0
12784,6836,US,137404,43.7813888889,-73.1877777778,Census,Town,VT,"Sudbury, Vermont",258,521,754,809,812,796,794,696,601,562,502,474,415,417,361.0,321,263,249.0,253.0,380,516,583.0,560.0
12792,7862,US,137380,44.9947222222,-72.4005555556,Census,Village,VT,"North Troy, Vermont",0,0,0,0,0,0,0,0,0,469,600,562,771,1072,1045.0,1077,1057,961.0,774.0,717,723,593.0,620.0
12835,7118,US,137355,44.1530555556,-72.3908333333,Census,Town,VT,"Orange, Vermont",0,348,686,751,1016,984,1007,936,733,731,589,598,644,485,508.0,482,410,430.0,540.0,752,915,965.0,1072.0
12946,9713,US,137351,44.0236111111,-72.6,Census,Town,VT,"Brookfield, Vermont",421,988,1384,1507,1677,1789,1672,1521,1269,1239,996,996,1008,860,761.0,808,762,597.0,606.0,959,1089,1222.0,1292.0
13060,63986,US,91375,44.83,-72.25,Census,US County,VT,"Orleans County, Vermont",0,1439,5838,6976,13980,13634,15707,18981,21035,22083,22101,22024,23337,23913,23036.0,21718,21190,20143.0,20153.0,23440,24053,26277.0,27231.0
13480,11398,US,137363,44.1538888889,-72.0541666667,Census,Village,VT,"Wells River, Vermont",0,0,0,0,0,0,0,0,0,513,526,565,608,606,553.0,527,570,472.0,419.0,396,424,325.0,399.0
13536,8707,US,137258,43.0788888889,-73.095,Census,Town,VT,"Sunderland, Vermont",414,557,576,496,463,437,479,567,553,655,633,518,494,409,375.0,442,493,566.0,601.0,768,872,850.0,956.0
13546,13774,US,137389,43.5333333333,-72.9666666667,Census,Town,VT,"Clarendon, Vermont",1478,1789,1797,1712,1585,1549,1477,1237,1173,1105,928,915,857,826,883.0,868,1102,1091.0,1537.0,2372,2835,2811.0,2571.0
13581,12029,US,137464,43.8761111111,-72.8122222222,Census,Town,VT,"Rochester, Vermont",215,524,911,1148,1392,1396,1493,1507,1444,1362,1257,1250,1317,1397,1285.0,1129,937,879.0,884.0,1054,1181,1171.0,1139.0
13607,6374,US,260230,,,Census,town,VT,"Hyde Park (town), Vermont",43,110,261,373,823,1080,1107,1409,1624,1715,1633,1472,1453,1323,1165.0,1178,1291,1219.0,1347.0,2021,2344,2847.0,2954.0
13711,6379,US,137341,44.7552777778,-72.6802777778,Census,Town,VT,"Belvidere, Vermont",0,0,217,198,185,207,256,366,369,400,571,428,429,363,258.0,220,207,155.0,189.0,218,228,294.0,348.0
13816,8643,US,137353,44.0277777778,-72.2769444444,Census,Town,VT,"Corinth, Vermont",578,1410,1876,1907,1953,1970,1906,1627,1470,1627,1027,978,1005,936,817.0,822,786,775.0,683.0,904,1244,1461.0,1367.0
14010,18361,US,137273,44.3333333333,-72.1833333333,Census,Town,VT,"Peacham, Vermont",365,873,1301,1294,1351,1443,1377,1247,1141,1041,892,794,777,657,620.0,543,501,433.0,446.0,531,627,665.0,732.0
14054,9120,US,137223,43.8697222222,-73.0208333333,Census,Town,VT,"Goshen, Vermont",0,4,86,290,555,621,486,394,330,326,311,286,212,131,84.0,83,94,76.0,120.0,163,226,227.0,164.0
14110,8680,US,137248,42.8861111111,-73.2127777778,Census,Village,VT,"Old Bennington, Vermont",0,0,0,0,0,0,0,0,0,0,0,215,42,152,174.0,169,198,205.0,268.0,353,279,232.0,139.0
14181,10074,US,137224,43.9983333333,-72.8261111111,Census,Town,VT,"Granville, Vermont",101,185,324,328,403,545,603,720,726,830,637,544,464,393,280.0,247,213,215.0,255.0,288,309,303.0,298.0
14355,31259,US,260279,43.6236111111,-72.5194444444,Census,Town,VT,"Woodstock, Vermont",1605,2132,2672,2610,3044,3315,3041,3062,2910,2815,2545,2557,2545,2370,2469.0,2512,2613,2786.0,2608.0,3214,3212,3232.0,3048.0
14436,11103,US,137305,44.4211111111,-71.8497222222,Census,Town,VT,"Concord, Vermont",49,322,677,806,1031,1024,1153,1291,1276,1612,1425,1129,1080,1102,1043.0,923,979,956.0,896.0,1125,1093,1196.0,1235.0
14437,11872,US,260242,44.9441666667,-72.3005555556,Census,Town,VT,"Newport (town), Vermont",0,50,28,52,284,591,748,1197,2050,2426,3047,1239,1236,1187,1193.0,1064,966,1010.0,1125.0,1319,1367,1511.0,1594.0
14482,10411,US,137401,43.7,-73.0166666667,Census,Town,VT,"Pittsford, Vermont",850,1413,1936,1916,2005,1927,2026,1839,2127,1982,1775,1866,2479,2098,2332.0,2093,2076,2225.0,2306.0,2590,2919,3140.0,2991.0
14500,8001,US,137397,43.4391666667,-72.8108333333,Census,Town,VT,"Mount Holly, Vermont",0,668,922,1157,1318,1356,1534,1522,1582,1390,1214,999,871,856,727.0,656,567,517.0,687.0,938,1093,1241.0,1237.0
14774,12470,US,137466,43.7736111111,-72.4438888889,Census,Town,VT,"Sharon, Vermont",569,1158,1363,1431,1459,1371,1240,1111,1013,1012,737,709,585,545,569.0,530,470,485.0,541.0,828,1211,1411.0,1502.0
14929,8924,US,137387,43.7327777778,-72.9375,Census,Town,VT,"Chittenden, Vermont",159,327,446,528,610,644,675,763,802,1092,730,621,563,472,341.0,379,424,460.0,646.0,927,1102,1182.0,1258.0
15065,9890,US,137284,44.3091666667,-73.235,Census,Town,VT,"Charlotte, Vermont",635,1231,1679,1526,1702,1620,1634,1589,1430,1342,1240,1254,1163,1160,1089.0,1082,1215,1271.0,1802.0,2561,3148,3569.0,3754.0
15068,10415,US,137459,43.5705555556,-72.4225,Census,Town,VT,"Hartland, Vermont",1652,1960,2352,2553,2503,2341,2063,1748,1710,1598,1393,1340,1316,1212,1266.0,1306,1559,1592.0,1806.0,2396,2988,3223.0,3393.0
15286,11798,US,137340,44.6472222222,-73.31,Census,Town,VT,"South Hero, Vermont",537,611,826,842,717,664,705,617,586,620,559,917,605,606,641.0,611,567,614.0,868.0,1188,1404,1696.0,1631.0
15652,7802,US,137260,42.8833333333,-73.0766666667,Census,Town,VT,"Woodford, Vermont",60,138,254,212,395,487,423,379,371,487,353,279,187,231,139.0,170,198,207.0,286.0,314,331,414.0,424.0
15770,6318,US,260226,44.6447222222,-72.8775,Census,Village,VT,"Cambridge (village), Vermont",0,0,0,0,0,0,0,0,0,0,0,0,595,293,237.0,217,244,217.0,235.0,217,292,235.0,236.0
15818,11201,US,137298,44.93944,-71.66639,Census,Town,VT,"Averill, Vermont",0,0,0,0,1,11,7,12,14,48,43,18,15,4,9.0,12,20,16.0,8.0,15,7,8.0,24.0
16049,19970,US,137475,43.4766666667,-72.4011111111,Census,Town,VT,"Windsor, Vermont",1542,2211,2757,2956,3134,2744,1928,1669,1699,2175,1846,2119,2407,3687,4359.0,4155,4402,4468.0,4158.0,4085,3714,3756.0,3553.0
16280,10139,US,260275,43.3958333333,-72.7005555556,Census,Town,VT,"Ludlow (town), Vermont",179,410,877,1144,1227,1363,1619,1568,1827,2005,1768,2042,2215,2421,2305.0,2458,2428,2386.0,2463.0,2414,2302,2449.0,1963.0
16498,10811,US,137309,44.5463888889,-71.6105555556,Census,Town,VT,"Guildhall, Vermont",158,296,544,529,481,470,501,552,483,558,511,455,445,376,351.0,313,270,248.0,169.0,202,270,268.0,261.0
16538,17469,US,137347,44.4752777778,-72.7022222222,Census,Town,VT,"Stowe, Vermont",0,316,650,957,1570,1371,1771,2046,2049,1896,1886,1926,1991,1800,1654.0,1741,1720,1901.0,2388.0,2991,3433,4339.0,4314.0
16546,16035,US,91379,44.61,-72.65,Census,US County,VT,"Lamoille County, Vermont",0,0,0,0,0,10475,10872,12311,12448,12684,12831,12289,12585,11858,10947.0,11028,11388,11027.0,13309.0,16767,19735,23233.0,24475.0
16628,14271,US,137409,44.2152777778,-72.5861111111,Census,Town,VT,"Berlin, Vermont",0,684,1067,1455,1664,1598,1507,1545,1474,1380,1514,1021,1079,959,992.0,1111,1158,1306.0,2050.0,2454,2561,2864.0,2887.0
16691,6848,US,137427,43.0238888889,-72.6052777778,Census,Town,VT,"Brookline, Vermont",0,472,431,391,376,328,285,243,203,205,162,171,137,105,101.0,104,132,127.0,180.0,310,403,467.0,530.0
16827,8130,US,137413,44.2122222222,-72.8630555556,Census,Town,VT,"Fayston, Vermont",0,18,149,263,458,635,684,800,694,638,533,466,452,424,318.0,284,172,158.0,292.0,657,846,1141.0,1353.0
16883,12350,US,137420,44.1888888889,-72.8125,Census,Town,VT,"Waitsfield, Vermont",0,473,647,935,968,1048,1021,1005,948,938,815,760,709,682,723.0,706,661,658.0,837.0,1300,1422,1659.0,1719.0
16963,7634,US,137343,44.5027777778,-72.5108333333,Census,Town,VT,"Elmore, Vermont",12,45,157,157,442,476,504,602,637,682,593,550,553,468,382.0,300,312,237.0,292.0,421,573,849.0,855.0
17003,14991,US,91373,44.27,-72.62,Census,US County,VT,"Washington County, Vermont",0,0,0,14113,21378,23506,24654,27612,26520,25404,29606,36607,41702,38921,41733.0,41546,42870,42860.0,47659.0,52393,54928,58039.0,59534.0
17090,6061,US,260224,,,Census,village,VT,"Alburgh (village), Vermont",0,0,0,0,0,0,0,0,0,0,0,0,0,364,633.0,638,563,426.0,520.0,496,436,488.0,497.0
17438,15686,US,260264,44.1411111111,-72.6644444444,Census,Town,VT,"Northfield, Vermont",0,204,426,690,1412,2013,2922,4329,3410,2836,2628,2855,3226,3096,3438.0,3601,4314,4511.0,4870.0,5435,5610,5791.0,6207.0
17627,14027,US,137297,44.495,-73.1825,Census,City,VT,"Winooski, Vermont",0,0,0,0,0,0,0,0,0,2833,3659,3659,4520,4932,5308.0,6036,6734,7420.0,7309.0,6318,6649,6561.0,7267.0
17715,6711,US,137371,44.9566666667,-72.1411111111,Census,Village,VT,"Derby Center, Vermont",0,0,0,0,0,0,0,0,0,0,0,297,316,292,300.0,346,383,433.0,547.0,598,684,670.0,597.0
17726,11865,US,137267,44.24,-72.2388888889,Census,Town,VT,"Groton, Vermont",45,248,449,595,836,928,895,939,811,1014,1040,1059,915,902,803.0,764,712,631.0,666.0,667,862,876.0,1022.0
17733,12207,US,260222,44.9197222222,-73.1211111111,Census,Village,VT,"Swanton (village), Vermont",0,0,0,0,0,0,0,0,0,1200,1878,1168,1236,1371,1558.0,1461,2275,2390.0,2630.0,2520,2360,2548.0,2386.0
17813,8436,US,137442,43.0613888889,-72.9041666667,Census,Town,VT,"Stratton, Vermont",95,271,265,272,312,341,286,366,294,302,222,271,86,90,55.0,117,54,38.0,104.0,122,121,136.0,216.0
18011,9143,US,137277,44.6541666667,-72.0291666667,Census,Town,VT,"Sutton, Vermont",0,144,433,697,1005,1068,1001,987,920,838,746,694,711,659,596.0,561,528,476.0,438.0,667,854,1001.0,1029.0
18229,8927,US,137307,44.7169444444,-71.7766666667,Census,Town,VT,"Ferdinand, Vermont",0,0,0,0,0,0,0,34,33,40,73,41,213,106,18.0,17,10,16.0,14.0,12,23,33.0,32.0
18501,8451,US,137411,44.3127777778,-72.7738888889,Census,Town,VT,"Duxbury, Vermont",0,153,326,440,652,820,895,1000,893,894,912,778,648,631,553.0,854,489,546.0,621.0,877,976,1289.0,1337.0
18511,12866,US,260216,44.4813888889,-72.965,Census,Town,VT,"Jericho, Vermont",381,728,1185,1219,1654,1684,1837,1669,1757,1687,1461,1373,1307,1138,1091.0,1077,1135,1425.0,2343.0,3575,4302,5015.0,5009.0
18536,9578,US,137346,44.5597222222,-72.5972222222,Census,Village,VT,"Morrisville, Vermont",0,0,0,0,0,0,0,0,0,0,0,1262,1445,1707,1822.0,1967,1995,2047.0,2116.0,2074,1984,2009.0,1958.0
18903,18504,US,260212,43.1408333333,-73.08,Census,Town,VT,"Manchester, Vermont",1276,1397,1502,1508,1525,1599,1782,1688,1897,1928,1907,1955,2044,2057,2004.0,2139,2425,2470.0,2919.0,3261,3622,4180.0,4391.0
18963,18885,US,137287,44.4927777778,-73.1086111111,Census,Village,VT,"Essex Junction, Vermont",0,0,0,0,0,0,0,0,0,0,0,1141,1245,1410,1621.0,1901,2741,5340.0,6511.0,7033,8396,8591.0,9271.0
18974,10078,US,137274,44.21,-72.1005555556,Census,Town,VT,"Ryegate, Vermont",187,406,812,994,1119,1222,1606,1098,935,1046,1126,995,1194,1188,1216.0,1105,996,894.0,830.0,1000,1058,1150.0,1174.0
19040,9111,US,137229,44.1086111111,-73.1708333333,Census,Town,VT,"New Haven, Vermont",723,1135,1688,1566,1834,1503,1663,1419,1355,1355,1224,1107,1161,1001,964.0,881,932,922.0,1039.0,1217,1375,1666.0,1727.0
19149,9933,US,137400,43.7686111111,-72.8313888889,Census,Town,VT,"Pittsfield, Vermont",49,164,338,453,505,615,512,493,482,555,468,435,402,343,256.0,259,225,254.0,249.0,396,389,427.0,546.0
19284,10445,US,137383,44.8666666667,-72.4466666667,Census,Town,VT,"Westfield, Vermont",0,16,149,225,353,370,502,618,721,698,763,646,613,490,448.0,354,358,347.0,375.0,418,422,503.0,536.0
19355,7511,US,137237,44.1441666667,-73.235,Census,Town,VT,"Waltham, Vermont",0,247,244,264,301,283,270,263,249,248,255,264,202,204,175.0,184,193,186.0,265.0,394,454,479.0,486.0
19356,17110,US,137418,44.0722222222,-72.7283333333,Census,Town,VT,"Roxbury, Vermont",0,113,361,512,737,784,967,1060,916,938,768,712,618,609,594.0,554,465,364.0,354.0,452,575,576.0,691.0
19416,7938,US,137321,44.9525,-72.7283333333,Census,Town,VT,"Berkshire, Vermont",0,172,918,831,1308,1818,1955,1890,1609,1596,1421,1326,1286,1299,1234.0,1156,1063,965.0,931.0,1116,1190,1388.0,1692.0
19551,10112,US,137323,44.9066666667,-72.805,Census,Village,VT,"Enosburg Falls, Vermont",0,0,0,0,0,0,0,0,0,0,974,954,1153,1236,1195.0,1168,1289,1321.0,1266.0,1207,1350,1473.0,1329.0
19687,8278,US,137330,44.705,-72.9016666667,Census,Town,VT,"Fletcher, Vermont",47,200,382,497,793,1014,1084,916,865,868,793,750,737,656,667.0,549,485,399.0,456.0,626,941,1179.0,1277.0
19789,11415,US,137279,44.3666666667,-71.95,Census,Town,VT,"Waterford, Vermont",63,565,1289,1247,1358,1388,1412,1171,879,815,734,705,629,574,712.0,498,468,460.0,586.0,882,1190,1104.0,1280.0
20037,8785,US,137394,43.6647222222,-72.7933333333,Census,Town,VT,"Killington, Vermont",32,90,116,154,452,498,578,525,462,450,451,402,409,336,298.0,266,283,266.0,558.0,891,738,1095.0,811.0
20104,7150,US,137324,44.6972222222,-72.9977777778,Census,Town,VT,"Fairfax, Vermont",254,786,1301,1359,1729,1919,2111,1987,1956,1820,1523,1338,1318,1244,1249.0,1229,1129,1244.0,1366.0,1805,2486,3765.0,4285.0
20229,8350,US,137428,42.9572222222,-72.8525,Census,Town,VT,"Dover, Vermont",0,0,859,829,831,729,709,650,635,621,524,503,377,385,278.0,244,252,370.0,555.0,666,994,1410.0,1124.0
20275,6409,US,260237,44.7305555556,-72.3816666667,Census,Village,VT,"Albany (village), Vermont",0,0,0,0,0,0,0,0,0,0,0,0,0,152,189.0,200,196,169.0,175.0,174,180,165.0,193.0
20326,7964,US,260262,,,Census,Town,VT,"Marshfield (town), Vermont",0,172,513,710,1271,1156,1102,1160,1072,1102,1121,1032,1011,898,872.0,901,830,891.0,1033.0,1267,1331,1496.0,1588.0
20327,10014,US,137362,44.0833333333,-72.4219444444,Census,Town,VT,"Washington, Vermont",72,500,1040,1160,1374,1359,1348,1249,1113,922,820,820,762,660,697.0,730,650,565.0,667.0,855,937,1047.0,1039.0
20400,8316,US,137244,,,Census,town,VT,"Glastenbury, Vermont",34,48,76,48,52,53,52,47,119,241,181,48,29,40,7.0,4,1,0.0,0.0,3,7,16.0,8.0
20415,22870,US,91383,44.45,-73.09,Census,US County,VT,"Chittenden County, Vermont",7287,12778,18120,16955,21765,22977,29036,28171,36480,32792,35389,39600,42447,43708,47471.0,52098,62570,74425.0,99131.0,115534,131761,146571.0,156545.0
20508,20196,US,306954,44.6313888889,-73.1369444444,Census,Town,VT,"Milton, Vermont",282,786,1548,1746,2100,2136,2451,1963,2062,2006,1585,1804,1648,1523,1663.0,1750,1874,2022.0,4495.0,6829,8404,9479.0,10352.0
20604,22270,US,91374,43.57,-73.04,Census,US County,VT,"Rutland County, Vermont",15590,23813,29486,29983,31294,30699,33059,35946,40651,41829,45397,44209,48139,46213,48453.0,45638,45905,46719.0,52637.0,58347,62142,63400.0,61642.0
20627,9661,US,137357,43.8658333333,-72.3772222222,Census,Town,VT,"Strafford, Vermont",845,1642,1805,1921,1935,1761,1540,1506,1290,1181,932,1000,776,601,615.0,598,680,548.0,536.0,731,902,1045.0,1098.0
20843,12396,US,260236,,,Census,town,VT,"Newbury (town), Vermont",873,1304,1363,1623,2225,2579,2984,2549,2241,2316,2080,2125,2035,1908,1744.0,1723,1667,1452.0,1440.0,1699,1985,1955.0,2216.0
20873,10656,US,137233,43.9138888889,-73.1069444444,Census,Town,VT,"Salisbury, Vermont",446,644,709,721,907,942,1027,853,902,775,740,692,693,635,632.0,581,573,575.0,649.0,881,1024,1090.0,1136.0
20999,18046,US,137266,44.4166666667,-72.1333333333,Census,Town,VT,"Danville, Vermont",574,1514,2240,2300,2631,2633,2577,2544,2216,2003,1784,1628,1564,1494,1600.0,1472,1312,1368.0,1405.0,1705,1917,2211.0,2196.0
21014,20957,US,137385,43.7136111111,-73.2944444444,Census,Town,VT,"Benson, Vermont",658,1159,1561,1481,1493,1403,1305,1256,1244,1104,880,844,813,807,636.0,572,573,549.0,583.0,739,847,1039.0,1056.0
21082,24013,US,137425,43.1333333333,-72.45,Census,Village,VT,"Bellows Falls, Vermont",0,0,0,0,0,0,0,0,697,2229,3092,4337,4883,4860,3930.0,4236,3881,3831.0,3505.0,3456,3313,3165.0,3148.0
21104,17214,US,260220,44.8102777778,-73.1522222222,Census,Town,VT,"St. Albans (town), Vermont",256,901,1609,1636,2395,2702,3567,3637,7014,7193,7771,1715,1617,1583,1691.0,1733,1908,2303.0,3270.0,3555,4606,5086.0,5999.0
21115,9653,US,767931,44.3988888889,-72.3013888889,Census,Town,VT,"Cabot, Vermont",0,349,686,1032,1304,1440,1356,1318,1279,1242,1074,1126,1116,1036,1107.0,974,826,763.0,663.0,958,1043,1213.0,1433.0
21318,14485,US,137373,44.6941666667,-72.2211111111,Census,Town,VT,"Glover, Vermont",0,36,387,549,902,1119,1137,1244,1178,1055,970,891,932,826,860.0,788,727,683.0,649.0,843,820,966.0,1122.0
21417,20683,US,137468,43.3844444444,-72.4625,Census,Town,VT,"Weathersfield, Vermont",1146,1944,2115,2301,2213,2002,1851,1765,1557,1354,1174,1089,1092,1087,1156.0,1075,1288,1254.0,2040.0,2534,2674,2788.0,2825.0
21488,14572,US,260245,,,Census,Town,VT,"Brandon, Vermont",637,1076,1375,1495,1946,2194,2835,3077,3571,3280,3310,2759,2712,2874,2891.0,2979,3304,3329.0,3697.0,4194,4223,3917.0,3966.0
21595,8788,US,137463,43.4941666667,-72.5963888889,Census,Town,VT,"Reading, Vermont",747,1120,1565,1603,1409,1363,1171,1159,1012,953,749,649,530,463,474.0,437,470,472.0,564.0,647,614,707.0,666.0
21621,9222,US,137322,44.8838888889,-72.7711111111,Census,Town,VT,"Enosburgh, Vermont",0,143,704,932,1560,2022,2009,2066,2077,2213,2299,2054,2212,2231,2093.0,2082,2101,1966.0,1918.0,2070,2535,2788.0,2781.0
21637,36778,US,260243,44.9441666667,-72.2044444444,Census,City,VT,"Newport (city), Vermont",0,0,0,0,0,0,0,0,0,920,1730,2787,3657,4976,5094.0,4902,5217,5019.0,4664.0,4756,4434,5005.0,4589.0
21657,9350,US,260235,44.0811111111,-72.0583333333,Census,Village,VT,"Newbury (village), Vermont",0,0,0,0,0,0,0,0,0,0,0,0,412,0,0.0,0,0,0.0,344.0,425,412,396.0,365.0
21658,12063,US,137417,44.2544444444,-72.4102777778,Census,Town,VT,"Plainfield, Vermont",0,256,543,660,874,880,808,822,726,729,745,716,785,781,766.0,832,945,966.0,1399.0,1249,1302,1286.0,1243.0
21738,10852,US,137352,43.9894444444,-72.4627777778,Census,Town,VT,"Chelsea, Vermont",239,897,1327,1462,1858,1959,1958,1757,1526,1462,1230,1070,1074,1087,1004.0,1013,1025,957.0,983.0,1091,1166,1250.0,1238.0
21885,7586,US,137393,43.5333333333,-73.0666666667,Census,Town,VT,"Ira, Vermont",312,473,519,498,442,430,400,422,413,479,421,350,286,295,287.0,248,232,220.0,284.0,354,426,455.0,432.0
22097,9302,US,137416,44.2663888889,-72.7255555556,Census,Town,VT,"Moretown, Vermont",0,191,405,593,816,1128,1335,1410,1263,1180,956,902,686,930,889.0,675,883,788.0,904.0,1221,1415,1653.0,1658.0
22137,66398,US,260268,42.85,-72.5822222222,Census,Town,VT,"Brattleboro, Vermont",1589,1867,1891,2017,2141,2623,3816,3855,4933,5880,6862,6640,7541,8332,9816.0,10983,11522,11734.0,12239.0,11886,12241,12005.0,12046.0
22256,15754,US,260272,43.07472,-72.50861,Census,Town,VT,"Westminster (town), Vermont",1601,1942,1925,1974,1737,1546,1721,1300,1238,1377,1265,1295,1327,1289,1324.0,1403,1400,1602.0,1875.0,2493,3026,3210.0,3178.0
22399,19456,US,137372,45.0049944444,-72.0994361111,Census,Village,VT,"Derby Line, Vermont",0,0,0,0,0,0,0,0,0,0,0,309,390,640,683.0,661,767,849.0,834.0,874,855,776.0,673.0
22467,7329,US,137348,44.7144444444,-72.7488888889,Census,Town,VT,"Waterville, Vermont",0,0,193,273,488,610,753,747,573,547,577,529,485,469,370.0,386,409,332.0,397.0,470,532,697.0,673.0
22494,12232,US,260238,44.7305555556,-72.3405555556,Census,Town,VT,"Albany, Vermont",0,12,101,253,683,920,1052,1224,1151,1138,995,1028,920,840,810.0,748,704,560.0,528.0,705,782,840.0,941.0
22572,10081,US,137247,42.9302777778,-73.2425,Census,Village,VT,"North Bennington, Vermont",0,0,0,0,0,0,0,0,0,0,0,670,663,818,933.0,992,1327,1437.0,984.0,1685,1520,1428.0,1643.0
22633,10584,US,137470,43.3,-72.7833333333,Census,Town,VT,"Weston, Vermont",0,0,629,890,972,1032,1851,932,931,987,864,756,632,436,411.0,457,468,442.0,507.0,627,488,630.0,566.0
22803,11397,US,137452,43.7358333333,-72.6025,Census,Town,VT,"Barnard, Vermont",673,1236,1648,1691,1881,1774,1647,1487,1208,1191,918,840,737,653,584.0,486,439,435.0,569.0,790,872,958.0,947.0
22877,10563,US,137405,43.4483333333,-73.0508333333,Census,Town,VT,"Tinmouth, Vermont",935,973,1001,1069,1049,781,717,620,589,532,435,404,410,349,340.0,346,248,228.0,268.0,406,455,567.0,613.0
22986,12093,US,137290,44.4047222222,-72.9902777778,Census,Town,VT,"Richmond, Vermont",0,718,935,1014,1109,1054,1453,1400,1309,1264,1115,1057,1419,1447,1315.0,1225,1278,1303.0,2249.0,3159,3729,4090.0,4081.0
23013,13881,US,137296,44.4452777778,-73.0991666667,Census,Town,VT,"Williston, Vermont",471,836,1185,1246,1608,1554,1669,1479,1441,1342,1161,1176,1000,929,961.0,1021,1182,1484.0,3187.0,3843,4887,7650.0,8698.0
23174,16739,US,137368,44.8816666667,-72.2175,Census,Town,VT,"Coventry, Vermont",0,7,178,282,729,796,867,914,914,911,879,728,616,668,610.0,549,497,458.0,492.0,674,806,1014.0,1086.0
23217,16448,US,91371,43.57,-72.57,Census,US County,VT,"Windsor County, Vermont",15740,26944,34877,38233,40625,40356,38504,37193,36063,35196,31706,32225,33681,36984,37416.0,37862,40885,42483.0,44082.0,51030,54055,57418.0,56670.0
23230,11632,US,260247,43.6188888889,-73.2683333333,Census,Town,VT,"Fair Haven, Vermont",545,411,645,714,675,633,902,1378,2208,2211,2791,2999,3095,2540,2614.0,2245,2286,2378.0,2777.0,2819,2887,2928.0,2734.0
23335,10689,US,260257,44.1852777778,-72.4861111111,Census,Town,VT,"Barre (town), Vermont",0,919,1669,1955,2012,2126,1845,1839,1882,2060,6812,3346,4194,3882,4280.0,4052,4145,4580.0,6509.0,7090,7411,7602.0,7924.0
23578,9826,US,137412,44.2872222222,-72.5030555556,Census,Town,VT,"East Montpelier, Vermont",0,0,0,0,1156,1092,1447,1328,1130,972,953,1061,985,918,965.0,1025,1128,1200.0,1597.0,2205,2239,2578.0,2576.0
23596,9104,US,137440,43.1383333333,-72.5091666667,Census,Village,VT,"Saxtons River, Vermont",0,0,0,0,0,0,0,0,0,0,0,0,0,0,670.0,740,715,725.0,581.0,593,541,519.0,565.0
23688,8621,US,137349,44.5755555556,-72.4755555556,Census,Town,VT,"Wolcott, Vermont",32,47,124,123,492,824,909,1161,1132,1166,1158,1066,1049,932,831.0,772,766,633.0,676.0,986,1229,1456.0,1676.0
23824,7344,US,137433,42.7972222222,-72.8202777778,Census,Village,VT,"Jacksonville, Vermont",0,0,0,0,0,0,0,0,0,0,0,0,212,221,220.0,240,220,240.0,251.0,252,244,237.0,223.0
24255,9125,US,137225,43.9266666667,-72.8713888889,Census,Town,VT,"Hancock, Vermont",56,149,311,442,472,455,430,448,430,382,283,253,287,300,303.0,371,391,323.0,283.0,334,340,382.0,323.0
24273,14628,US,137354,43.9166666667,-72.1666666667,Census,Town,VT,"Fairlee, Vermont",463,386,983,1143,656,644,575,549,416,469,398,438,438,459,456.0,535,571,569.0,604.0,770,883,967.0,977.0
24326,14534,US,137358,43.8266666667,-72.2455555556,Census,Town,VT,"Thetford, Vermont",862,1478,1785,1915,2113,2065,2016,1876,1613,1529,1287,1249,1182,1089,1052.0,1043,1046,1049.0,1422.0,2188,2438,2617.0,2588.0
24334,20216,US,91385,43.03,-73.11,Census,US County,VT,"Bennington County, Vermont",12206,14617,15893,16125,17468,16872,18589,19436,21325,21950,20448,21705,21378,21577,21655.0,22286,24115,25088.0,29282.0,33345,35845,36994.0,37125.0
24424,8763,US,137316,44.5355555556,-71.8305555556,Census,Town,VT,"Victory, Vermont",0,0,6,0,53,140,168,212,263,321,564,321,206,125,80.0,104,49,46.0,42.0,56,50,97.0,62.0
24622,15237,US,260221,44.8097222222,-73.0872222222,Census,City,VT,"St. Albans (city), Vermont",0,0,0,0,0,0,0,0,0,0,0,6239,6381,7588,8020.0,8037,8552,8806.0,8082.0,7308,7339,7650.0,6918.0
24670,15788,US,348426,44.3375,-72.7555555556,Census,Town,VT,"Waterbury, Vermont",0,644,966,1269,1650,1992,2352,2198,2633,2297,2232,2810,3273,3542,4045.0,4118,4276,4303.0,4614.0,4465,4589,4915.0,5064.0
24732,10475,US,137254,42.8894444444,-72.9633333333,Census,Town,VT,"Searsburg, Vermont",0,0,0,9,40,120,201,262,235,232,173,161,142,133,103.0,135,84,73.0,84.0,72,85,96.0,109.0
24762,10794,US,137430,43.1902777778,-72.6,Census,Town,VT,"Grafton, Vermont",561,1149,1365,1482,1439,1326,1241,1154,1008,929,817,804,729,476,453.0,393,422,426.0,465.0,604,602,649.0,679.0
24764,26912,US,39687,43.7302777778,-72.3030555556,Census,Town,VT,"Norwich, Vermont",1158,1486,1812,1985,2316,2218,1978,1759,1639,1471,1304,1303,1252,1092,1371.0,1418,1532,1790.0,1966.0,2398,3093,3544.0,3414.0
24780,14384,US,137270,44.5358333333,-72.0052777778,Census,Town,VT,"Lyndon, Vermont",59,542,1090,1296,1822,1753,1752,1695,2179,2434,2619,2956,3204,3558,3285.0,3144,3360,3425.0,3705.0,4924,5371,5448.0,5981.0
24918,31365,US,260241,44.7636111111,-72.1866666667,Census,Town,VT,"Barton, Vermont",0,128,447,372,726,852,987,1590,1911,2364,2217,2790,3346,3506,3469.0,3371,3298,3066.0,2874.0,2990,2967,2780.0,2810.0
24937,7158,US,137469,43.4855555556,-72.4841666667,Census,Town,VT,"West Windsor, Vermont",0,0,0,0,0,0,1002,924,708,690,570,513,569,514,512.0,494,504,539.0,571.0,763,923,1067.0,1099.0
25000,6724,US,260231,44.6361111111,-72.6811111111,Census,Village,VT,"Johnson (village), Vermont",0,0,0,0,0,0,0,0,0,0,0,587,651,681,659.0,753,900,941.0,1296.0,1393,1470,1420.0,1443.0
25011,6243,US,137460,43.3725,-72.5155555556,Census,Village,VT,"Perkinsville, Vermont",0,0,0,0,0,0,0,0,0,0,0,0,0,0,155.0,144,142,167.0,188.0,187,148,142.0,130.0
25050,12697,US,137445,43.0352777778,-72.8127777778,Census,Town,VT,"Wardsboro, Vermont",753,1484,1159,1016,1148,1102,1125,1004,866,766,704,637,559,380,355.0,401,377,322.0,391.0,505,654,854.0,900.0
25092,214648,US,32578,,,Census,US State,VT,Vermont,85425,154465,217895,235981,280652,291948,314120,315098,330551,332286,332422,343641,355956,352428,359611.0,359231,377747,389881.0,444330.0,511456,562758,608827.0,625741.0
25190,15800,US,137285,44.5419444444,-73.1966666667,Census,Town,VT,"Colchester, Vermont",137,347,657,960,1489,1739,2575,3041,3911,4421,5143,5352,6450,6627,2638.0,3031,3897,4718.0,8776.0,12629,14731,16986.0,17067.0
25254,7631,US,137293,44.3777777778,-73.1252777778,Census,Town,VT,"St. George, Vermont",57,65,28,120,135,121,127,121,111,93,106,90,109,100,84.0,87,117,108.0,477.0,677,705,698.0,674.0
25578,29020,US,350610,44.4336111111,-72.015,Census,Town,VT,"St. Johnsbury, Vermont",143,663,1334,1404,1592,1887,2758,3469,4665,5800,6567,7010,8098,8708,9696.0,9095,9292,8869.0,8409.0,7938,7608,7571.0,7604.0
25761,10750,US,137288,44.3286111111,-73.11,Census,Town,VT,"Hinesburg, Vermont",454,933,1238,1332,1669,1682,1834,1702,1573,1330,1205,1216,1042,964,1019.0,1000,1120,1180.0,1775.0,2690,3780,4340.0,4396.0
25861,8047,US,137424,43.1147222222,-72.59,Census,Town,VT,"Athens, Vermont",450,459,478,507,415,378,359,382,295,284,205,180,201,123,132.0,136,139,142.0,159.0,250,313,340.0,442.0
25965,7297,US,137245,43.2625,-72.855,Census,Town,VT,"Landgrove, Vermont",31,147,299,341,355,345,337,320,302,246,220,225,160,143,104.0,64,80,49.0,104.0,121,134,144.0,158.0
25999,14284,US,137366,44.8255555556,-72.1341666667,Census,Town,VT,"Brownington, Vermont",0,65,236,265,412,486,613,761,901,854,799,748,760,741,697.0,689,673,599.0,522.0,708,705,885.0,988.0
26228,7857,US,260253,43.4577777778,-72.9469444444,Census,Town,VT,"Wallingford, Vermont",536,912,1386,1570,1740,1608,1688,1747,2023,1846,1733,1575,1719,1581,1564.0,1450,1482,1439.0,1676.0,1893,2184,2274.0,2079.0
26340,14477,US,137465,43.8161111111,-72.5472222222,Census,Town,VT,"Royalton, Vermont",748,1501,1753,1816,1893,1917,1850,1739,1679,1558,1433,1427,1452,1469,1491.0,1291,1331,1388.0,1399.0,2100,2389,2603.0,2773.0
26370,21146,US,260208,43.0747222222,-73.1638888889,Census,Town,VT,"Arlington, Vermont",991,1597,1463,1354,1207,1035,1084,1146,1636,1532,1352,1193,1307,1370,1441.0,1418,1463,1605.0,1934.0,2184,2299,2397.0,2317.0
26405,78761,US,67258,44.4758333333,-73.2119444444,Census,City,VT,"Burlington, Vermont",330,816,1690,2111,3526,4271,7585,7713,13596,11365,14590,18640,20468,22779,24789.0,27686,33155,35531.0,38633.0,37712,39127,38889.0,42417.0
26484,20557,US,91384,44.46,-72.1,Census,US County,VT,"Caledonia County, Vermont",0,9377,18740,16669,20967,21891,23595,21708,22235,23607,23436,24381,26031,25762,27253.0,24320,24049,22786.0,22789.0,25808,27846,29702.0,31227.0
26498,9235,US,137336,44.8986111111,-72.9402777778,Census,Town,VT,"Sheldon, Vermont",40,408,883,927,1427,1734,1814,1655,1697,1529,1365,1341,1246,1473,1563.0,1471,1352,1281.0,1481.0,1618,1748,1990.0,2190.0
26641,18975,US,182574,43.3,-72.4833333333,Census,Town,VT,"Springfield, Vermont",1097,2032,2556,2702,2749,2625,2762,2958,2937,3144,2881,3432,4784,7202,6955.0,7720,9190,9934.0,10063.0,10190,9579,9078.0,9373.0
26648,14725,US,137434,43.1030555556,-72.7925,Census,Town,VT,"Jamaica, Vermont",263,582,996,1313,1553,1586,1606,1541,1223,1252,1074,800,716,566,570.0,567,597,496.0,590.0,681,754,946.0,1035.0
27281,7911,US,137231,44.1430555556,-73.3188888889,Census,Town,VT,"Panton, Vermont",220,363,520,546,605,670,559,511,390,419,382,409,345,321,306.0,312,332,352.0,416.0,537,606,682.0,677.0
27358,10994,US,137314,44.6530555556,-71.6405555556,Census,Town,VT,"Maidstone, Vermont",125,152,177,166,236,271,237,259,254,286,198,206,175,171,123.0,96,81,78.0,94.0,100,131,105.0,208.0
27361,6451,US,137408,43.6527777778,-73.3466666667,Census,Town,VT,"West Haven, Vermont",0,430,679,684,724,774,718,580,713,492,412,355,363,343,280.0,302,232,220.0,240.0,253,273,278.0,264.0
27363,23826,US,260206,44.0019444444,-73.1455555556,Census,Town,VT,"Middlebury, Vermont",395,1263,2138,2535,3468,3162,3517,2879,3086,2993,2793,3045,2848,2914,2968.0,3175,4778,5305.0,6532.0,7574,8034,8183.0,8496.0
27461,7872,US,137259,43.1561111111,-72.9133333333,Census,Town,VT,"Winhall, Vermont",155,202,429,428,571,576,762,741,842,722,523,449,366,336,229.0,212,255,245.0,281.0,327,482,702.0,769.0
27530,15447,US,91381,44.86,-72.91,Census,US County,VT,"Franklin County, Vermont",0,8282,16615,17192,24525,24531,28586,27231,30291,30225,29755,30198,29866,30026,29975.0,29601,29894,29474.0,31282.0,34788,39980,45417.0,47746.0
27748,7930,US,137359,44.1286111111,-72.2566666667,Census,Town,VT,"Topsham, Vermont",162,344,814,1020,1384,1745,1668,1662,1418,1365,1187,1117,918,825,720.0,707,733,638.0,686.0,767,944,1142.0,1173.0
